     2.11           OBSERVATION DATA    G (GPS)             RINEX VERSION / TYPE
teqc  2016Nov7      root                20180112 23:32:19UTCPGM / RUN BY / DATE
Linux 2.4.21-27.ELsmp|Opteron|gcc|Linux x86_64|=+           COMMENT
     2.11           OBSERVATION DATA    G (GPS)             COMMENT
teqc  2017Sep15     NOAA/NOS/NGS/CORS   20180109 15:36:11UTCCOMMENT
Solaris x86 5.10|AMD64|cc SC5.8 -xarch=amd64|=+|=+          COMMENT
teqc  2017Sep15     UNAVCO Archive Ops  20180109 12:22:55UTCCOMMENT
BIT 2 OF LLI FLAGS DATA COLLECTED UNDER A/S CONDITION       COMMENT
input file: corv201801080000.bnx                            COMMENT
RINEX file created by UNAVCO GPS Archive.                   COMMENT
For more information contact archive@unavco.org             COMMENT
Monument ID: 12314                                          COMMENT
UNAVCO 4-char name:   CORV                                  COMMENT
4-char name from Log or data file: CORV                     COMMENT
Monument location: 44.585535 -123.304604 105.6205           COMMENT
Visit ID: 101100                                            COMMENT
End of DB comments                                          COMMENT
 SNR is mapped to RINEX snr flag value [0-9]                COMMENT
  L1 & L2: min(max(int(snr_dBHz/6), 0), 9)                  COMMENT
teqc.e edited: all SBAS satellites excluded                 COMMENT
teqc.e edited: all QZSS satellites excluded                 COMMENT
CORV                                                        MARKER NAME
49659M001                                                   MARKER NUMBER
Goldfinger, Chris   Oregon State University                 OBSERVER / AGENCY
4527253291          TRIMBLE NETRS       1.3-0               REC # / TYPE / VERS
CR1998490176        ASH700936E_C    UNAV                    ANT # / TYPE
 -2498423.1090 -3802822.0340  4454737.7580                  APPROX POSITION XYZ
        1.5210        0.0000        0.0000                  ANTENNA: DELTA H/E/N
     1     1                                                WAVELENGTH FACT L1/2
     8    L1    L2    C1    C2    P1    P2    S1    S2      # / TYPES OF OBSERV
     1.0000                                                 INTERVAL
teqc.w windowed: start @ 2018 Jan  8 20:00:00.000           COMMENT
teqc.w windowed:  end  @ 2018 Jan  8 21:00:00.000           COMMENT
teqc.w edited: all GLONASS satellites excluded              COMMENT
  2018     1     8    20     0    0.0000000     GPS         TIME OF FIRST OBS
                                                            END OF HEADER
 18  1  8 20  0  0.0000000  0 10G26G23G11G03G31G01G14G22G25G32
 128296330.577 6  99971167.79043  24413976.347
  24413971.0294         36.400          21.1004
 122796174.124 7  95685286.34844  23367330.692
  23367318.6334         45.700          27.9004
 124218822.531 6  96793833.63244  23638062.435
  23638053.0144         40.500          24.0004
 110569317.620 8  86157889.71546  21040638.739
  21040631.1354         48.300          41.6004
 108807059.199 8  84784690.09547  20705288.297
  20705277.0004         51.500          43.2004
 113416691.702 7  88376605.33546  21582481.494
  21582474.6514         46.700          39.6004
 116377946.249 7  90684079.35145  22145987.223
  22145977.9194         44.900          34.4004
 107937072.093 8  84106765.43447  20539738.247
  20539725.0754         51.100          44.7004
 128111276.982 6  99826949.55043  24378758.430
  24378751.8814         41.100          22.3004
 125492368.447 6  97786221.85044  23880408.216
  23880401.1394         40.600          27.1004
 18  1  8 20  0  1.0000000  0 10G26G23G11G03G31G01G14G22G25G32
 128293238.136 6  99968758.10443  24413388.174
  24413382.6214         37.100          20.9004
 122793616.672 7  95683293.52644  23366844.203
  23366832.1444         45.900          29.5004
 124221932.844 6  96796257.25444  23638653.494
  23638644.6594         40.800          24.4004
 110567376.785 8  86156377.37046  21040269.309
  21040261.7644         48.100          41.8004
 108808010.569 8  84785431.41847  20705469.254
  20705458.0754         51.700          43.4004
 113418612.303 7  88378101.90246  21582847.002
  21582840.0424         47.000          39.5004
 116380194.257 7  90685831.04345  22146414.984
  22146405.2694         45.500          34.1004
 107936361.700 8  84106211.88247  20539602.785
  20539589.7894         51.600          44.9004
 128111945.254 6  99827470.28043  24378885.368
  24378878.7604         40.900          22.6004
 125495315.900 6  97788518.56644  23880968.979
  23880962.4304         40.300          26.7004
 18  1  8 20  0  2.0000000  0 10G26G23G11G03G31G01G14G22G25G32
 128290146.151 6  99966348.78643  24412800.112
  24412793.9734         36.800          20.9004
 122791059.684 7  95681301.07544  23366357.875
  23366345.5234         46.000          28.8004
 124225043.715 6  96798681.30644  23639246.071
  23639236.8844         40.400          25.3004
 110565436.629 8  86154865.56846  21039899.985
  21039892.3814         48.300          41.7004
 108808962.891 8  84786173.48547  20705650.512
  20705639.5084         51.800          43.5004
 113420533.794 7  88379599.17246  21583212.715
  21583205.6974         47.000          39.4004
 116382442.748 7  90687583.11445  22146843.107
  22146833.3344         45.400          34.3004
 107935652.068 8  84105658.92547  20539467.897
  20539455.0764         51.500          44.9004
 128112614.479 6  99827991.74543  24379012.806
  24379006.1394         40.200          22.6004
 125498263.739 6  97790815.57544  23881529.504
  23881523.0724         41.400          26.5004
 18  1  8 20  0  3.0000000  0 10G26G23G11G03G31G01G14G22G25G32
 128287054.162 6  99963939.43143  24412211.253
  24412205.4664         36.500          20.6004
 122788502.764 7  95679308.67344  23365871.523
  23365858.9964         46.200          29.4004
 124228154.693 6  96801105.44644  23639837.638
  23639828.5694         39.900          24.3004
 110563496.745 8  86153353.97146  21039530.912
  21039523.5424         48.400          41.8004
 108809915.786 8  84786916.00247  20705831.766
  20705820.6454         51.800          43.6004
 113422455.733 7  88381096.78346  21583578.346
  21583571.5044         47.400          39.5004
 116384691.312 7  90689335.23845  22147270.810
  22147261.2724         45.100          34.8004
 107934942.814 8  84105106.25847  20539332.810
  20539320.1064         51.400          44.9004
 128113284.311 6  99828513.71143  24379139.893
  24379133.8714         40.200          22.8004
 125501211.652 6  97793112.65644  23882091.212
  23882084.0774         40.700          26.8004
 18  1  8 20  0  4.0000000  0 10G26G23G11G03G31G01G14G22G25G32
 128283962.224 6  99961530.13843  24411623.537
  24411617.0464         37.100          20.9004
 122785945.870 7  95677316.28744  23365384.943
  23365372.1814         46.100          29.1004
 124231265.849 6  96803529.71844  23640430.296
  23640421.3434         40.300          24.7004
 110561557.136 8  86151842.58146  21039162.088
  21039154.2494         48.100          41.7004
 108810869.234 8  84787658.95447  20706013.287
  20706001.9904         51.400          43.5004
 113424378.165 7  88382594.79046  21583944.267
  21583937.5424         47.200          39.6004
 116386939.995 7  90691087.45145  22147698.539
  22147689.0004         45.500          34.9004
 107934233.882 8  84104553.84147  20539198.154
  20539185.3344         51.600          44.9004
 128113954.629 6  99829036.03043  24379267.655
  24379261.5164         40.400          22.6004
 125504159.463 6  97795409.64044  23882652.050
  23882645.0324         40.500          27.4004
 18  1  8 20  0  5.0000000  0 10G26G23G11G03G31G01G14G22G25G32
 128280870.473 6  99959120.97643  24411034.268
  24411028.5404         37.500          21.1004
 122783389.295 7  95675324.14944  23364898.009
  23364885.8334         46.200          29.5004
 124234377.316 6  96805954.23544  23641021.980
  23641013.2034         40.400          25.3004
 110559618.014 8  86150331.57546  21038792.678
  21038785.0154         48.100          41.7004
 108811823.488 8  84788402.52747  20706194.793
  20706183.6144         51.100          43.6004
 113426301.295 7  88384093.32946  21584310.091
  21584303.0144         47.600          39.6004
 116389188.981 7  90692839.90945  22148126.537
  22148116.9404         45.700          35.0004
 107933525.585 8  84104001.92247  20539063.237
  20539050.4174         51.900          44.9004
 128114625.825 6  99829559.03743  24379395.449
  24379389.1934         40.200          22.5004
 125507107.517 6  97797706.81644  23883213.086
  23883206.0674         41.000          26.4004
 18  1  8 20  0  6.0000000  0 10G26G23G11G03G31G01G14G22G25G32
 128277778.717 6  99956711.82543  24410446.405
  24410440.3254         37.100          20.9004
 122780832.724 7  95673332.01844  23364411.462
  23364399.5214         46.300          29.4004
 124237488.947 6  96808378.87944  23641614.289
  23641605.1024         39.800          24.9004
 110557679.154 8  86148820.77646  21038423.978
  21038416.4914         48.500          41.7004
 108812778.235 8  84789146.49147  20706376.536
  20706365.2984         51.600          43.6004
 113428224.875 8  88385592.22346  21584676.462
  21584669.3274         48.100          39.6004
 116391437.999 7  90694592.38945  22148554.614
  22148545.1934         45.600          35.2004
 107932817.569 8  84103450.22147  20538928.357
  20538915.5364         51.900          44.8004
 128115297.482 6  99830082.40743  24379522.735
  24379516.7134         39.900          22.3004
 125510055.523 6  97800003.96144  23883774.456
  23883766.9104         41.700          26.9004
 18  1  8 20  0  7.0000000  0 10G26G23G11G03G31G01G14G22G25G32
 128274687.148 6  99954302.82043  24409857.831
  24409852.4544         37.800          21.7004
 122778276.342 7  95671340.03644  23363924.723
  23363913.1334         45.900          29.2004
 124240600.772 6  96810803.66644  23642206.445
  23642197.3764         40.400          24.7004
 110555740.652 8  86147310.25647  21038055.245
  21038047.6414         48.400          42.0004
 108813733.668 8  84789890.97647  20706558.536
  20706547.4154         51.800          43.6004
 113430149.031 7  88387091.56446  21585042.275
  21585035.1994         47.300          39.2004
 116393687.217 7  90696345.02745  22148983.106
  22148973.0994         45.800          34.8004
 107932110.032 8  84102898.89347  20538793.914
  20538781.3874         51.500          44.7004
 128115969.840 6  99830606.30643  24379650.801
  24379644.9554         39.500          22.2004
 125513003.546 7  97802301.11944  23884335.329
  23884327.7254         42.000          26.9004
 18  1  8 20  0  8.0000000  0 10G26G23G11G03G31G01G14G22G25G32
 128271595.651 6  99951893.87343  24409269.820
  24409263.6224         37.400          21.5004
 122775720.134 7  95669348.18744  23363438.283
  23363426.5174         46.100          28.6004
 124243712.915 6  96813228.73044  23642798.444
  23642789.6674         40.600          24.8004
 110553802.597 8  86145800.09046  21037686.503
  21037678.7824         48.600          41.9004
 108814689.810 8  84790636.02347  20706740.279
  20706729.3344         51.300          43.8004
 113432073.790 7  88388591.37646  21585408.942
  21585402.2754         46.700          39.4004
 116395936.684 7  90698097.85645  22149410.423
  22149401.3544         45.300          34.6004
 107931403.017 8  84102347.97047  20538659.638
  20538646.5254         51.200          45.1004
 128116642.900 6  99831130.76643  24379778.908
  24379773.2964         39.600          22.3004
 125515951.756 6  97804598.43244  23884896.124
  23884889.1064         41.700          27.2004
 18  1  8 20  0  9.0000000  0 10G26G23G11G03G31G01G14G22G25G32
 128268504.376 6  99949485.09543  24408682.236
  24408675.6874         37.400          21.3004
 122773164.180 7  95667356.53044  23362952.478
  23362940.3024         46.500          28.7004
 124246825.359 6  96815654.00944  23643391.108
  23643381.9214         40.400          24.7004
 110551864.963 8  86144290.24247  21037317.414
  21037309.8684         49.100          42.0004
 108815646.681 8  84791381.63747  20706922.238
  20706911.1174         51.700          43.5004
 113433999.217 7  88390091.70946  21585774.971
  21585768.3054         47.200          39.5004
 116398186.389 7  90699850.87645  22149838.514
  22149829.3274         45.200          34.3004
 107930696.532 8  84101797.46647  20538524.935
  20538512.4084         51.400          44.9004
 128117316.701 6  99831655.79043  24379906.720
  24379901.1084         40.200          22.3004
 125518900.092 7  97806895.84544  23885457.952
  23885450.0554         42.000          26.7004
 18  1  8 20  0 10.0000000  0 10G26G23G11G03G31G01G14G22G25G32
 128265413.027 6  99947076.25443  24408092.709
  24408087.4494         37.700          21.3004
 122770608.140 7  95665364.81844  23362465.424
  23362453.3074         46.700          29.3004
 124249937.818 6  96818079.29644  23643983.210
  23643973.9064         40.600          24.3004
 110549927.482 8  86142780.51547  21036948.834
  21036941.2894         49.100          42.0004
 108816603.975 8  84792127.58747  20707104.307
  20707093.4794         51.800          43.4004
 113435924.965 7  88391592.28946  21586141.289
  21586134.9154         47.500          39.7004
 116400436.059 7  90701603.87045  22150266.774
  22150257.1194         45.400          34.2004
 107929990.267 8  84101247.13447  20538390.382
  20538377.7374         51.300          44.8004
 128117990.948 6  99832181.17443  24380035.220
  24380029.9024         39.900          22.2004
 125521848.288 6  97809193.13944  23886018.698
  23886011.3874         41.700          27.0004
 18  1  8 20  0 11.0000000  0 10G26G23G11G03G31G01G14G22G25G32
 128262321.857 6  99944667.55943  24407505.334
  24407499.0194         37.000          21.5004
 122768052.356 7  95663373.29944  23361979.274
  23361967.2154         46.600          29.4004
 124253050.573 6  96820504.82744  23644575.283
  23644566.4484         40.100          26.1004
 110547990.468 8  86141271.15747  21036580.667
  21036572.9464         49.100          42.0004
 108817562.014 8  84792874.10447  20707286.718
  20707275.9484         51.500          43.5004
 113437851.379 7  88393093.38946  21586507.889
  21586501.1054         46.900          39.7004
 116402686.001 7  90703357.06545  22150694.965
  22150685.4264         44.800          34.2004
 107929284.574 8  84100697.24147  20538256.045
  20538243.6344         51.100          44.7004
 128118665.943 6  99832707.15243  24380163.390
  24380158.1304         39.900          22.0004
 125524796.691 6  97811490.60344  23886580.116
  23886572.1614         41.500          27.1004
 18  1  8 20  0 12.0000000  0 10G26G23G11G03G31G01G14G22G25G32
 128259230.814 6  99942258.96143  24406917.289
  24406911.1504         36.900          21.5004
 122765496.724 7  95661381.89344  23361493.328
  23361481.2114         46.600          29.3004
 124256163.600 6  96822930.56744  23645167.205
  23645158.8974         40.700          25.6004
 110546053.828 8  86139762.09047  21036212.009
  21036204.0534         49.100          42.0004
 108818520.735 8  84793621.15647  20707469.162
  20707457.9244         51.300          43.3004
 113439778.386 7  88394594.95346  21586874.678
  21586868.1874         47.100          39.6004
 116404936.133 7  90705110.41045  22151122.901
  22151113.5394         45.200          34.4004
 107928579.325 8  84100147.69547  20538121.814
  20538109.2284         51.600          44.6004
 128119341.575 6  99833233.61843  24380291.991
  24380286.6144         40.400          22.2004
 125527745.129 6  97813788.08944  23887140.632
  23887133.3204         41.000          27.4004
 18  1  8 20  0 13.0000000  0 10G26G23G11G03G31G01G14G22G25G32
 128256139.973 6  99939850.50743  24406327.858
  24406322.8924         36.900          21.7004
 122762941.286 7  95659390.64644  23361006.820
  23360995.1134         46.400          28.9004
 124259276.861 6  96825356.47144  23645760.235
  23645751.5174         40.600          25.8004
 110544117.590 8  86138253.32447  21035843.263
  21035836.0694         48.300          42.2004
 108819480.135 8  84794368.74747  20707651.619
  20707640.9084         51.400          43.3004
 113441706.001 7  88396096.98646  21587241.584
  21587234.9764         46.800          39.8004
 116407186.491 7  90706863.93145  22151551.656
  22151542.0014         45.400          34.6004
 107927874.580 8  84099598.54347  20537987.842
  20537975.0804         51.600          44.7004
 128120017.935 6  99833760.65043  24380420.784
  24380415.3484         40.400          22.0004
 125530693.686 6  97816085.67444  23887701.114
  23887694.5654         40.600          26.3004
 18  1  8 20  0 14.0000000  0 10G26G23G11G03G31G01G14G22G25G32
 128253049.206 6  99937442.12243  24405740.299
  24405734.7464         37.000          21.5004
 122760386.031 7  95657399.54244  23360520.861
  23360508.7444         46.700          29.1004
 124262390.406 6  96827782.60844  23646353.029
  23646343.6674         41.100          25.7004
 110542181.745 8  86136744.87747  21035474.899
  21035467.2944         48.400          42.0004
 108820440.221 8  84795116.87147  20707834.274
  20707823.3884         51.200          43.3004
 113443634.198 7  88397599.47446  21587608.311
  21587602.1134         46.600          39.8004
 116409437.059 7  90708617.61945  22151979.864
  22151970.1504         45.300          34.6004
 107927170.330 8  84099049.77547  20537854.161
  20537841.1654         51.900          44.8004
 128120694.963 6  99834288.20043  24380550.620
  24380544.1294         40.600          22.2004
 125533642.384 6  97818383.34644  23888261.554
  23888255.1814         40.100          26.7004
 18  1  8 20  0 15.0000000  0 10G26G23G11G03G31G01G14G22G25G32
 128249958.366 6  99935033.68543  24405151.470
  24405146.5624         36.900          21.5004
 122757830.703 7  95655408.38344  23360034.088
  23360022.5574         46.100          28.6004
 124265503.956 6  96830208.74444  23646945.534
  23646935.9964         41.100          24.7004
 110540246.058 8  86135236.55046  21035106.822
  21035099.2764         48.300          41.9004
 108821400.735 8  84795865.31547  20708017.291
  20708006.2874         50.800          43.3004
 113445562.771 7  88399102.26246  21587975.347
  21587968.5644         46.200          39.6004
 116411687.581 7  90710371.27845  22152408.280
  22152398.5074         45.600          34.8004
 107926466.307 8  84098501.18747  20537719.952
  20537707.0724         51.700          44.8004
 128121372.461 6  99834816.11643  24380679.745
  24380673.0794         40.500          22.3004
 125536590.910 6  97820680.89644  23888823.098
  23888816.3734         40.900          26.4004
 18  1  8 20  0 16.0000000  0 10G26G23G11G03G31G01G14G22G25G32
 128246867.656 6  99932625.33343  24404563.675
  24404558.4154         37.100          21.5004
 122755275.599 7  95653417.39544  23359548.192
  23359536.0754         46.000          29.2004
 124268617.828 6  96832635.14143  23647538.317
  23647528.9554         40.800          23.6004
 110538310.790 8  86133728.55446  21034738.504
  21034731.0174         48.400          41.9004
 108822361.972 8  84796614.33247  20708200.207
  20708189.2034         51.000          43.4004
 113447491.938 7  88400605.50646  21588342.218
  21588336.2554         46.900          39.5004
 116413938.335 7  90712125.11245  22152836.539
  22152826.3564         45.500          34.9004
 107925762.801 8  84097952.99647  20537585.976
  20537573.2144         51.500          44.9004
 128122050.662 6  99835344.60243  24380809.017
  24380801.7654         40.800          22.8004
 125539539.559 6  97822978.53144  23889384.375
  23889377.5914         41.300          27.3004
 18  1  8 20  0 17.0000000  0 10G26G23G11G03G31G01G14G22G25G32
 128243777.275 6  99930217.23643  24403975.295
  24403970.3874         36.800          20.9004
 122752720.784 7  95651426.63844  23359061.921
  23359050.0974         46.100          29.1004
 124271732.044 6  96835061.80943  23648130.069
  23648121.1174         40.600          23.9004
 110536376.058 8  86132220.96546  21034370.309
  21034362.5294         48.400          41.8004
 108823324.007 8  84797363.96747  20708383.283
  20708372.5734         51.300          43.4004
 113449421.853 7  88402109.33346  21588709.489
  21588703.1164         47.200          39.3004
 116416189.434 7  90713879.21745  22153264.649
  22153255.1694         46.000          34.5004
 107925059.902 8  84097405.28347  20537452.472
  20537439.2994         51.500          44.7004
 128122729.674 6  99835873.69043  24380937.833
  24380931.0494         40.900          22.2004
 125542488.455 6  97825276.36744  23889945.818
  23889938.5654         41.300          26.7004
 18  1  8 20  0 18.0000000  0 10G26G23G11G03G31G01G14G22G25G32
 128240686.676 6  99927808.98643  24403387.135
  24403382.2274         36.500          20.9004
 122750165.858 7  95649435.77944  23358575.492
  23358563.5504         46.000          29.8004
 124274846.226 6  96837488.43343  23648723.501
  23648714.3724         40.800          23.0004
 110534441.409 8  86130713.45046  21034002.254
  21033994.2984         48.800          41.9004
 108824286.434 8  84798113.91847  20708566.463
  20708555.5764         51.300          43.4004
 113451352.034 7  88403613.36646  21589076.653
  21589070.8074         47.300          39.4004
 116418440.431 7  90715633.23545  22153693.258
  22153683.4264         46.200          34.4004
 107924357.199 8  84096857.72147  20537318.360
  20537305.4814         51.500          44.6004
 128123409.046 6  99836403.06243  24381066.820
  24381060.5634         41.100          22.0004
 125545437.149 6  97827574.05344  23890506.688
  23890499.6704         41.300          26.7004
 18  1  8 20  0 19.0000000  0 10G26G23G11G03G31G01G14G22G25G32
 128237596.462 6  99925401.04143  24402799.277
  24402793.9004         36.100          21.1004
 122747611.370 7  95647445.26744  23358088.807
  23358077.6864         46.100          29.2004
 124277960.891 6  96839915.44444  23649315.876
  23649306.3384         40.500          24.6004
 110532507.391 8  86129206.41946  21033633.831
  21033625.8764         48.600          41.9004
 108825249.753 8  84798864.55247  20708749.781
  20708739.0704         50.800          43.3004
 113453283.065 7  88405118.07146  21589444.128
  21589438.0474         47.100          39.2004
 116420691.869 7  90717387.60145  22154122.032
  22154112.0244         46.000          34.0004
 107923655.185 8  84096310.69547  20537184.609
  20537171.9654         51.400          44.8004
 128124089.365 6  99836933.18143  24381196.739
  24381189.8384         40.400          22.0004
 125548386.118 6  97829871.95844  23891067.886
  23891060.8094         41.400          27.2004
 18  1  8 20  0 20.0000000  0 10G26G23G11G03G31G01G14G22G25G32
 128234506.429 6  99922993.21743  24402210.870
  24402206.4904         36.300          21.1004
 122745057.029 7  95645454.86944  23357603.408
  23357591.7594         45.500          29.6004
 124281075.810 6  96842342.65444  23649908.394
  23649899.3254         41.100          24.9004
 110530573.764 8  86127699.70546  21033266.046
  21033258.3254         48.300          41.9004
 108826213.757 8  84799615.72247  20708933.151
  20708922.3234         50.500          43.4004
 113455214.655 7  88406623.20646  21589811.668
  21589805.9984         47.000          39.2004
 116422943.511 7  90719142.12345  22154550.588
  22154540.2304         46.000          33.7004
 107922953.669 8  84095764.06447  20537051.166
  20537038.5794         51.200          44.7004
 128124770.361 6  99837463.83543  24381325.999
  24381319.9184         40.400          22.2004
 125551335.256 6  97832169.98544  23891628.979
  23891622.0784         41.100          26.5004
 18  1  8 20  0 21.0000000  0 10G26G23G11G03G31G01G14G22G25G32
 128231415.975 5  99920585.07543  24401622.466
  24401617.8514         35.900          21.5004
 122742502.376 7  95643464.23244  23357116.957
  23357105.7194         45.700          29.6004
 124284190.543 6  96844769.71444  23650501.718
  23650492.1794         41.200          25.5004
 110528640.045 8  86126192.91247  21032897.851
  21032890.1894         48.000          42.0004
 108827177.946 8  84800367.03547  20709116.856
  20709105.9704         50.300          43.4004
 113457146.384 7  88408128.44646  21590179.116
  21590174.1494         46.800          39.4004
 116425194.868 7  90720896.42945  22154978.595
  22154968.8224         45.900          34.3004
 107922252.138 8  84095217.41147  20536917.496
  20536904.7934         51.600          44.7004
 128125451.526 6  99837994.61343  24381455.981
  24381449.4324         40.400          21.8004
 125554283.970 6  97834467.67444  23892189.911
  23892183.3614         40.800          27.8004
 18  1  8 20  0 22.0000000  0 10G26G23G11G03G31G01G14G22G25G32
 128228326.488 6  99918177.68643  24401035.439
  24401030.1214         36.000          21.7004
 122739948.690 7  95641474.35444  23356631.322
  23356619.4984         45.600          29.5004
 124287306.255 6  96847197.54244  23651093.922
  23651084.7354         40.700          24.6004
 110526707.496 8  86124687.03046  21032529.808
  21032522.5554         48.400          41.9004
 108828143.606 8  84801119.49547  20709300.394
  20709289.6244         50.800          43.6004
 113459079.458 7  88409634.73846  21590547.075
  21590541.4644         46.700          39.6004
 116427447.221 7  90722651.51045  22155407.239
  22155397.4664         45.800          34.1004
 107921551.879 8  84094671.75747  20536784.527
  20536771.7654         51.300          44.7004
 128126134.186 6  99838526.55743  24381585.373
  24381579.0004         40.400          22.0004
 125557233.600 6  97836766.08444  23892751.580
  23892744.6214         40.600          28.1004
 18  1  8 20  0 23.0000000  0 10G26G23G11G03G31G01G14G22G25G32
 128225236.324 6  99915769.78143  24400447.093
  24400442.4194         36.300          21.5004
 122737394.382 7  95639483.98544  23356145.091
  23356133.6774         45.100          29.9004
 124290421.435 6  96849624.94844  23651686.768
  23651677.8744         40.600          24.7004
 110524774.552 8  86123180.83347  21032161.869
  21032154.4414         48.000          42.0004
 108829109.140 8  84801871.86147  20709484.027
  20709473.2584         50.900          43.3004
 113461012.348 7  88411140.87846  21590914.894
  21590909.0484         46.300          39.5004
 116429698.970 7  90724406.11645  22155835.586
  22155825.7544         46.000          34.4004
 107920851.291 8  84094125.85347  20536650.984
  20536638.5154         51.200          44.5004
 128126816.719 6  99839058.39643  24381715.559
  24381709.0684         40.300          22.2004
 125560182.502 6  97839063.93244  23893312.572
  23893305.4954         41.000          27.9004
 18  1  8 20  0 24.0000000  0 10G26G23G11G03G31G01G14G22G25G32
 128222146.470 6  99913362.09943  24399859.161
  24399853.9014         36.500          21.5004
 122734840.458 7  95637493.90845  23355658.553
  23355647.3744         45.000          30.4004
 124293537.057 6  96852052.70344  23652280.293
  23652270.5214         40.200          24.1004
 110522842.179 7  86121675.08947  21031794.742
  21031786.9044         47.700          42.2004
 108830075.542 8  84802624.90447  20709668.007
  20709657.5904         50.200          43.2004
 113462946.001 7  88412647.62046  21591282.923
  21591276.9014         46.500          39.7004
 116431951.119 7  90726161.03845  22156263.870
  22156254.3314         46.300          33.5004
 107920151.371 8  84093580.45747  20536517.976
  20536505.3314         50.700          44.6004
 128127500.117 6  99839590.90743  24381845.545
  24381838.7034         40.400          22.2004
 125563131.695 6  97841361.99544  23893873.472
  23893866.9814         40.700          28.3004
 18  1  8 20  0 25.0000000  0 10G26G23G11G03G31G01G14G22G25G32
 128219056.914 6  99910954.64843  24399271.235
  24399266.3854         36.400          21.3004
 122732286.808 7  95635504.04845  23355172.738
  23355161.6174         45.100          30.4004
 124296653.059 6  96854480.75144  23652872.925
  23652863.4454         39.900          25.6004
 110520910.345 8  86120169.76747  21031426.910
  21031419.0714         48.200          42.3004
 108831042.753 8  84803378.57247  20709852.061
  20709841.2334         50.700          43.1004
 113464880.388 7  88414154.93746  21591651.346
  21591645.3244         47.000          39.9004
 116434203.601 7  90727916.21845  22156692.942
  22156682.9354         46.100          33.9004
 107919452.066 8  84093035.53947  20536385.014
  20536372.3104         50.700          44.5004
 128128184.321 6  99840124.05943  24381975.686
  24381968.8444         40.600          21.7004
 125566081.122 6  97843660.25044  23894434.714
  23894428.4574         41.100          27.1004
 18  1  8 20  0 26.0000000  0 10G26G23G11G03G31G01G14G22G25G32
 128215967.482 6  99908547.29443  24398683.384
  24398678.4174         36.700          21.5004
 122729733.326 7  95633514.32745  23354687.002
  23354675.6464         45.300          30.4004
 124299769.330 6  96856909.01344  23653466.511
  23653456.6214         40.500          24.2004
 110518978.864 8  86118664.71847  21031059.443
  21031052.1314         48.100          42.3004
 108832010.644 8  84804132.77047  20710036.237
  20710025.7614         50.700          43.2004
 113466815.350 7  88415662.70346  21592019.683
  21592013.5444         47.400          39.7004
 116436456.266 7  90729671.54245  22157121.626
  22157111.5024         46.400          34.3004
 107918753.218 8  84092490.99047  20536251.725
  20536239.0804         50.900          44.4004
 128128869.208 6  99840657.74643  24382106.586
  24382099.2744         40.900          21.8004
 125569030.612 6  97845958.55144  23894995.686
  23894989.8404         40.800          26.8004
 18  1  8 20  0 27.0000000  0 10G26G23G11G03G31G01G14G22G25G32
 128212877.955 6  99906139.88143  24398095.263
  24398090.4724         36.100          21.3004
 122727179.831 7  95631524.59045  23354200.863
  23354189.6254         45.500          30.2004
 124302885.619 6  96859337.29444  23654058.595
  23654049.4084         40.400          24.7004
 110517047.595 8  86117159.83347  21030691.736
  21030683.8394         48.900          42.1004
 108832978.990 8  84804887.32847  20710220.389
  20710209.9134         51.200          43.3004
 113468750.717 7  88417170.78046  21592387.910
  21592381.5954         47.600          40.0004
 116438708.942 7  90731426.87445  22157550.323
  22157540.0224         46.600          34.5004
 107918054.661 8  84091946.66047  20536118.931
  20536106.5794         51.500          44.5004
 128129554.589 6  99841191.81943  24382237.280
  24382229.6174         41.200          21.8004
 125571980.007 6  97848256.78644  23895556.791
  23895550.5354         40.900          27.5004
 18  1  8 20  0 28.0000000  0 10G26G23G11G03G31G01G14G22G25G32
 128209788.549 5  99903732.56343  24397507.284
  24397502.6684         35.200          21.5004
 122724626.472 7  95629534.95545  23353715.027
  23353703.7314         45.600          30.4004
 124306002.123 6  96861765.74044  23654652.488
  23654642.8324         40.700          25.1004
 110515116.662 8  86115655.20747  21030324.393
  21030317.0234         48.900          42.4004
 108833947.980 8  84805642.38247  20710404.724
  20710394.1314         51.300          43.3004
 113470686.606 7  88418679.26146  21592756.467
  21592750.0354         47.200          40.1004
 116440961.777 7  90733182.33145  22157978.910
  22157968.9614         46.300          34.1004
 107917356.533 8  84091402.65947  20535986.088
  20535973.5024         51.100          44.5004
 128130240.606 6  99841726.37743  24382367.566
  24382360.3724         41.300          21.8004
 125574929.467 6  97850555.07144  23896118.263
  23896112.2994         40.400          26.7004
 18  1  8 20  0 29.0000000  0 10G26G23G11G03G31G01G14G22G25G32
 128206699.447 5  99901325.49043  24396919.311
  24396914.8134         35.500          21.5004
 122722073.433 7  95627545.57844  23353229.471
  23353218.1164         45.900          29.6004
 124309119.052 6  96864194.51444  23655245.125
  23655235.7044         40.600          25.4004
 110513186.295 8  86114151.02547  21029957.182
  21029948.9914         48.800          42.4004
 108834917.795 8  84806398.08047  20710589.160
  20710578.5674         50.800          43.3004
 113472623.265 7  88420188.34246  21593124.685
  21593118.5464         47.700          40.1004
 116443214.967 7  90734938.05445  22158407.543
  22158397.4774         46.300          34.4004
 107916659.062 8  84090859.17747  20535853.355
  20535840.7114         51.200          44.5004
 128130927.424 6  99842261.55243  24382498.225
  24382490.9134         41.700          22.0004
 125577879.201 6  97852853.55244  23896679.525
  23896673.6204         40.400          26.5004
 18  1  8 20  0 30.0000000  0 10G26G23G11G03G31G01G14G22G25G32
 128203610.496 5  99898918.51743  24396331.404
  24396326.9064         35.400          21.3004
 122719520.571 7  95625556.33644  23352743.494
  23352732.3734         45.500          29.6004
 124312236.202 6  96866623.45044  23655838.200
  23655828.8384         40.000          24.2004
 110511256.305 7  86112647.13847  21029590.130
  21029581.8224         47.700          42.3004
 108835888.295 8  84807154.31647  20710774.028
  20710763.4354         50.400          43.5004
 113474560.492 7  88421697.86746  21593493.672
  21593487.5334         47.300          40.1004
 116445468.358 7  90736693.94345  22158836.205
  22158826.2574         46.000          34.2004
 107915962.049 8  84090316.05347  20535720.974
  20535708.4474         51.000          44.5004
 128131614.971 6  99842797.30243  24382628.959
  24382621.5314         41.600          22.2004
 125580828.991 6  97855152.08644  23897240.837
  23897234.8744         40.000          26.7004
 18  1  8 20  0 31.0000000  0 10G26G23G11G03G31G01G14G22G25G32
 128200521.495 5  99896511.50343  24395743.250
  24395738.9864         35.500          21.1004
 122716967.700 7  95623567.08844  23352257.476
  23352246.0624         45.600          28.9004
 124315353.443 6  96869052.47443  23656431.672
  23656422.0754         40.200          23.9004
 110509326.524 8  86111143.41047  21029222.555
  21029214.7164         48.100          42.2004
 108836859.281 8  84807910.92547  20710958.775
  20710948.0654         50.700          43.6004
 113476498.138 7  88423207.71946  21593862.246
  21593855.9904         47.600          39.6004
 116447721.779 7  90738449.85345  22159265.613
  22159255.3134         45.800          34.2004
 107915265.327 8  84089773.14647  20535588.425
  20535575.4874         51.100          44.7004
 128132302.984 6  99843333.42743  24382759.669
  24382752.7684         41.500          22.3004
 125583778.678 6  97857450.54744  23897802.897
  23897796.1724         40.000          27.1004
 18  1  8 20  0 32.0000000  0 10G26G23G11G03G31G01G14G22G25G32
 128197432.775 6  99894104.70443  24395155.197
  24395151.1094         36.400          20.9004
 122714415.230 7  95621578.15244  23351772.095
  23351760.9164         45.400          29.4004
 124318471.144 6  96871481.84144  23657023.981
  23657015.6154         40.600          24.8004
 110507397.370 8  86109640.16947  21028855.184
  21028847.6974         48.100          42.1004
 108837831.152 8  84808668.22847  20711143.678
  20711133.0264         50.500          43.7004
 113478436.592 7  88424718.20746  21594231.367
  21594224.8774         47.500          39.7004
 116449975.612 7  90740206.09145  22159694.139
  22159684.4834         45.300          34.6004
 107914569.310 8  84089230.80047  20535455.989
  20535443.2864         51.300          44.7004
 128132991.929 6  99843870.26243  24382891.083
  24382883.4204         41.300          22.0004
 125586728.711 6  97859749.28244  23898363.327
  23898357.3644         40.100          27.8004
 18  1  8 20  0 33.0000000  0 10G26G23G11G03G31G01G14G22G25G32
 128194343.897 6  99891697.77143  24394567.366
  24394563.6304         36.500          20.6004
 122711862.548 7  95619589.04745  23351285.678
  23351275.0264         45.300          30.0004
 124321588.754 6  96873911.14644  23657618.587
  23657608.4634         40.100          24.8004
 110505468.259 8  86108136.97247  21028488.148
  21028480.3094         48.200          42.3004
 108838803.359 8  84809425.79347  20711328.657
  20711318.1224         50.600          43.7004
 113480375.261 8  88426228.85846  21594600.294
  21594594.1554         48.000          40.0004
 116452229.297 7  90741962.21245  22160122.677
  22160112.8454         45.500          34.1004
 107913873.407 8  84088688.53647  20535323.190
  20535310.9564         51.000          44.8004
 128133681.136 6  99844407.30743  24383021.822
  24383014.8624         41.300          22.2004
 125589678.482 6  97862047.80944  23898924.557
  23898919.0044         40.300          27.3004
 18  1  8 20  0 34.0000000  0 10G26G23G11G03G31G01G14G22G25G32
 128191255.359 6  99889291.13943  24393980.308
  24393975.6934         36.300          21.3004
 122709310.276 7  95617600.26445  23350800.409
  23350789.5224         45.300          30.0004
 124324706.798 6  96876340.80244  23658211.532
  23658201.8764         40.200          25.3004
 110503539.694 8  86106634.19247  21028121.612
  21028113.7154         48.500          42.4004
 108839776.428 8  84810184.02747  20711513.750
  20711503.0984         50.900          43.4004
 113482314.725 8  88427740.12346  21594969.065
  21594963.1024         48.000          40.0004
 116454483.390 7  90743718.64945  22160551.563
  22160541.8494         45.000          33.8004
 107913178.190 8  84088146.80847  20535191.063
  20535178.4184         51.000          44.5004
 128134371.283 6  99844945.06443  24383153.854
  24383146.3094         41.200          22.2004
 125592628.544 6  97864346.55944  23899485.730
  23899480.3534         39.200          27.5004
 18  1  8 20  0 35.0000000  0 10G26G23G11G03G31G01G14G22G25G32
 128188166.762 5  99886884.44843  24393391.825
  24393387.9714         35.800          20.9004
 122706757.995 7  95615611.47945  23350314.614
  23350303.5524         45.200          30.3004
 124327824.958 6  96878770.54444  23658805.054
  23658795.3984         40.900          24.6004
 110501611.410 7  86105131.63447  21027754.630
  21027746.3814         47.700          42.3004
 108840750.009 8  84810942.66247  20711699.128
  20711688.4174         50.800          43.3004
 113484254.627 7  88429251.73546  21595338.627
  21595332.2534         47.900          40.1004
 116456737.499 7  90745475.09745  22160980.601
  22160970.8284         44.600          34.0004
 107912483.290 8  84087605.32147  20535059.132
  20535046.3704         51.300          44.4004
 128135061.919 6  99845483.21843  24383284.667
  24383277.5324         40.800          22.3004
 125595578.564 6  97866645.26544  23900047.388
  23900041.9534         39.200          26.5004
 18  1  8 20  0 36.0000000  0 10G26G23G11G03G31G01G14G22G25G32
 128185078.298 5  99884477.87243  24392804.132
  24392800.1034         35.500          20.4004
 122704205.848 7  95613622.79444  23349829.247
  23349818.1854         45.200          29.8004
 124330943.299 6  96881200.41643  23659398.452
  23659389.0314         41.200          23.4004
 110499683.424 8  86103629.30147  21027387.153
  21027379.9004         48.000          42.1004
 108841724.219 8  84811701.79147  20711884.408
  20711873.8734         50.800          43.1004
 113486195.049 8  88430763.75146  21595707.452
  21595701.1384         48.200          40.3004
 116458991.773 7  90747231.66845  22161409.714
  22161400.0594         44.400          34.2004
 107911788.816 8  84087064.17647  20534926.758
  20534914.1134         50.900          44.5004
 128135753.211 6  99846021.89043  24383416.043
  24383408.7914         40.700          22.5004
 125598528.593 6  97868943.98944  23900609.456
  23900603.1994         38.900          26.7004
 18  1  8 20  0 37.0000000  0 10G26G23G11G03G31G01G14G22G25G32
 128181990.066 5  99882071.45143  24392217.221
  24392212.8404         35.500          20.6004
 122701653.992 7  95611634.33844  23349343.649
  23349332.4704         45.500          29.3004
 124334062.012 6  96883630.57244  23659992.271
  23659982.3814         40.400          25.3004
 110497755.985 8  86102127.40847  21027020.795
  21027013.1904         48.800          42.2004
 108842699.212 8  84812461.52447  20712069.989
  20712059.5724         51.300          43.3004
 113488136.198 8  88432276.33246  21596077.143
  21596070.9454         48.500          40.0004
 116461246.368 7  90748988.48445  22161838.107
  22161828.7444         44.900          33.9004
 107911094.925 8  84086523.48647  20534794.781
  20534781.6084         51.000          44.4004
 128136445.258 6  99846561.16643  24383547.541
  24383540.4054         40.600          22.2004
 125601478.848 6  97871242.88744  23901170.345
  23901164.4404         38.700          26.5004
 18  1  8 20  0 38.0000000  0 10G26G23G11G03G31G01G14G22G25G32
 128178901.828 5  99879665.03143  24391629.092
  24391625.2394         34.300          20.4004
 122699102.183 7  95609645.91044  23348857.387
  23348846.3844         45.400          29.4004
 124337180.843 6  96886060.83444  23660585.178
  23660575.4644         40.400          24.2004
 110495828.786 8  86100625.69147  21026654.188
  21026646.5254         49.100          42.1004
 108843674.765 8  84813221.69947  20712255.772
  20712245.4724         51.600          43.3004
 113490077.794 8  88433789.26946  21596446.795
  21596440.3634         48.400          40.0004
 116463501.031 7  90750745.37145  22162267.618
  22162258.1974         45.200          34.2004
 107910401.394 8  84085983.07547  20534662.838
  20534650.1934         51.500          44.4004
 128137137.873 6  99847100.86443  24383679.478
  24383672.0494         40.400          22.0004
 125604429.085 6  97873541.77644  23901731.536
  23901726.0414         39.200          26.2004
 18  1  8 20  0 39.0000000  0 10G26G23G11G03G31G01G14G22G25G32
 128175813.913 5  99877258.87143  24391041.431
  24391037.4614         34.800          20.6004
 122696550.725 7  95607657.76644  23348372.616
  23348360.9094         45.900          29.6004
 124340300.100 6  96888491.42343  23661179.094
  23661169.5554         40.900          23.4004
 110493902.165 8  86099124.43047  21026287.222
  21026279.6764         48.400          42.2004
 108844651.156 8  84813982.51747  20712441.382
  20712430.7884         50.900          43.3004
 113492020.152 7  88435302.78746  21596816.114
  21596810.2094         47.600          40.3004
 116465756.065 7  90752502.53345  22162697.127
  22162687.2964         44.700          33.9004
 107909708.512 8  84085443.16647  20534531.111
  20534518.5254         51.500          44.4004
 128137831.390 6  99847641.26043  24383811.983
  24383804.3794         40.500          22.5004
 125607379.526 6  97875840.81244  23902293.487
  23902287.5244         39.800          27.0004
 18  1  8 20  0 40.0000000  0 10G26G23G11G03G31G01G14G22G25G32
 128172726.001 5  99874852.69943  24390453.582
  24390450.0224         34.800          20.4004
 122693999.299 7  95605669.64244  23347887.494
  23347875.6114         45.400          29.8004
 124343419.473 6  96890922.09043  23661772.617
  23661763.0784         40.700          23.4004
 110491975.785 8  86097623.35347  21025920.816
  21025912.9184         48.200          42.1004
 108845628.067 8  84814743.74547  20712627.348
  20712617.1654         50.500          43.3004
 113493962.954 7  88436816.65746  21597185.618
  21597179.9484         47.000          40.3004
 116468011.157 7  90754259.75545  22163126.065
  22163116.3504         45.000          33.9004
 107909015.953 8  84084903.50747  20534399.039
  20534386.5704         51.900          44.5004
 128138525.387 6  99848182.03943  24383943.578
  24383936.2084         40.700          22.8004
 125610329.982 6  97878139.87444  23902854.393
  23902848.8404         39.800          25.8004
 18  1  8 20  0 41.0000000  0 10G26G23G11G03G31G01G14G22G25G32
 128169638.039 5  99872446.51043  24389866.066
  24389862.1554         34.700          20.9004
 122691447.852 7  95603681.50744  23347401.722
  23347390.2494         45.200          29.4004
 124346538.897 6  96893352.79443  23662366.474
  23662356.4674         40.400          22.9004
 110490049.597 7  86096122.42547  21025554.397
  21025546.6764         47.600          42.1004
 108846605.474 8  84815505.36647  20712813.395
  20712803.1534         50.600          43.5004
 113495906.135 7  88438330.82546  21597555.585
  21597549.5044         47.000          40.3004
 116470266.244 7  90756016.96645  22163554.717
  22163545.5894         44.800          33.8004
 107908323.711 8  84084364.09947  20534267.468
  20534254.9404         52.100          44.7004
 128139219.883 6  99848723.20743  24384075.771
  24384068.7534         40.800          22.8004
 125613280.327 6  97880438.84744  23903416.407
  23903410.3854         39.700          25.6004
 18  1  8 20  0 42.0000000  0 10G26G23G11G03G31G01G14G22G25G32
 128166550.236 5  99870040.44543  24389278.517
  24389274.9574         34.100          21.1004
 122688896.608 7  95601693.52444  23346916.304
  23346904.8914         44.900          29.2004
 124349658.613 6  96895783.74743  23662959.962
  23662950.1904         40.200          22.8004
 110488123.857 7  86094621.84947  21025187.556
  21025180.0114         47.600          42.1004
 108847583.614 8  84816267.54947  20712999.395
  20712988.9784         50.700          43.4004
 113497849.975 7  88439845.50046  21597925.147
  21597919.1844         46.500          40.3004
 116472521.596 7  90757774.38045  22163984.149
  22163974.3764         44.600          33.8004
 107907631.987 8  84083825.09447  20534135.980
  20534122.8084         52.200          44.7004
 128139915.140 6  99849264.97543  24384208.244
  24384200.9334         40.800          22.6004
 125616230.832 6  97882737.95344  23903977.732
  23903972.1794         40.000          25.3004
 18  1  8 20  0 43.0000000  0 10G26G23G11G03G31G01G14G22G25G32
 128163462.750 5  99867634.61043  24388691.030
  24388686.8254         35.100          21.1004
 122686345.724 7  95599705.81944  23346430.295
  23346419.5264         45.200          29.4004
 124352778.724 6  96898215.00644  23663553.505
  23663544.2014         40.600          24.3004
 110486198.664 7  86093121.70247  21024821.500
  21024813.5444         47.900          42.1004
 108848562.548 8  84817030.35347  20713185.659
  20713175.4184         50.700          43.4004
 113499794.538 7  88441360.74646  21598295.358
  21598289.3954         46.300          40.2004
 116474777.269 7  90759532.04845  22164413.500
  22164403.9034         44.700          33.8004
 107906940.865 8  84083286.55447  20534004.365
  20533991.4284         52.000          44.5004
 128140611.183 6  99849807.35743  24384340.022
  24384333.1214         40.400          22.5004
 125619181.518 6  97885037.17244  23904539.152
  23904533.3654         40.700          25.6004
 18  1  8 20  0 44.0000000  0 10G26G23G11G03G31G01G14G22G25G32
 128160374.951 5  99865228.54343  24388103.686
  24388099.2474         35.200          20.9004
 122683794.601 7  95597717.93244  23345945.391
  23345933.8604         45.400          29.1004
 124355898.687 6  96900646.14444  23664147.434
  23664137.8964         40.800          25.2004
 110484273.460 7  86091621.53847  21024455.018
  21024447.1214         47.900          42.0004
 108849541.787 8  84817793.40147  20713372.098
  20713361.8564         51.100          43.6004
 113501739.317 7  88442876.15846  21598665.714
  21598659.2814         46.800          39.9004
 116477032.787 7  90761289.59745  22164842.462
  22164832.9834         45.200          33.9004
 107906249.861 8  84082748.10847  20533872.870
  20533860.1084         52.200          44.4004
 128141307.524 6  99850349.95243  24384472.670
  24384465.9454         39.400          22.3004
 125622131.943 6  97887336.21344  23905100.711
  23905094.6314         40.100          26.0004
 18  1  8 20  0 45.0000000  0 10G26G23G11G03G31G01G14G22G25G32
 128157287.787 5  99862822.95743  24387515.898
  24387511.8694         34.900          20.6004
 122681244.113 7  95595730.54544  23345459.997
  23345448.5254         45.600          29.7004
 124359019.370 6  96903077.85744  23664740.718
  23664731.5314         40.800          24.6004
 110482349.120 7  86090122.05447  21024088.923
  21024081.4364         47.700          42.1004
 108850522.149 8  84818557.31647  20713558.587
  20713548.1704         51.000          43.5004
 113503685.132 7  88444392.37446  21599035.733
  21599029.7704         47.400          40.0004
 116479288.961 7  90763047.65345  22165272.333
  22165262.5604         44.500          33.6004
 107905559.765 8  84082210.37147  20533741.628
  20533728.8074         52.100          44.2004
 128142005.010 6  99850893.43343  24384605.343
  24384598.9114         38.900          22.5004
 125625082.937 6  97889635.68844  23905662.535
  23905656.5724         40.400          26.2004
 18  1  8 20  0 46.0000000  0 10G26G23G11G03G31G01G14G22G25G32
 128154200.601 5  99860417.34443  24386929.137
  24386924.4054         35.400          20.9004
 122678693.634 7  95593743.15945  23344974.577
  23344963.5144         45.100          30.0004
 124362140.125 6  96905509.62344  23665335.756
  23665325.7494         40.800          24.0004
 110480424.966 7  86088622.71546  21023722.822
  21023715.1594         47.600          41.9004
 108851503.004 8  84819321.61947  20713745.220
  20713734.6864         50.800          43.7004
 113505631.343 7  88445908.90146  21599406.422
  21599400.3414         47.300          40.2004
 116481545.118 7  90764805.70045  22165701.513
  22165691.9164         44.700          33.6004
 107904869.990 8  84081672.88447  20533610.567
  20533597.6874         51.900          44.5004
 128142703.005 6  99851437.31943  24384738.098
  24384731.3144         38.700          22.5004
 125628033.872 6  97891935.12144  23906223.767
  23906217.5704         40.200          25.7004
 18  1  8 20  0 47.0000000  0 10G26G23G11G03G31G01G14G22G25G32
 128151113.141 5  99858011.55543  24386340.271
  24386336.9454         35.200          20.9004
 122676142.913 7  95591755.58145  23344489.235
  23344477.8214         45.200          30.5004
 124365260.739 6  96907941.25043  23665929.776
  23665919.5344         40.200          22.8004
 110478500.831 7  86087123.39546  21023356.791
  21023348.6604         47.900          41.8004
 108852484.152 8  84820086.15647  20713932.107
  20713921.2214         50.800          43.7004
 113507577.730 7  88447425.56746  21599776.831
  21599770.3414         47.200          40.1004
 116483801.130 7  90766563.62745  22166130.553
  22166120.7224         44.300          33.6004
 107904180.285 8  84081135.45247  20533479.180
  20533466.1834         51.900          44.4004
 128143401.259 6  99851981.41443  24384870.507
  24384864.0174         39.200          22.5004
 125630984.451 6  97894234.27644  23906785.354
  23906779.5084         39.800          25.4004
 18  1  8 20  0 48.0000000  0 10G26G23G11G03G31G01G14G22G25G32
 128148026.346 5  99855606.26543  24385752.604
  24385749.3954         34.900          20.6004
 122673592.907 7  95589768.56044  23344003.894
  23343992.7154         45.000          29.9004
 124368382.116 6  96910373.47843  23666523.272
  23666513.3234         39.700          22.5004
 110476577.615 7  86085624.78547  21022990.495
  21022983.4184         47.800          42.0004
 108853466.484 8  84820851.60547  20714118.993
  20714108.1654         51.000          43.5004
 113509525.277 7  88448943.13446  21600147.439
  21600141.1244         47.000          40.3004
 116486057.823 7  90768322.08945  22166560.663
  22166550.3044         44.700          33.3004
 107903491.593 8  84080598.79947  20533348.135
  20533335.0214         51.900          44.5004
 128144100.735 6  99852526.45743  24385004.197
  24384996.9444         39.400          22.3004
 125633935.682 6  97896533.94244  23907347.122
  23907340.8664         40.200          24.7004
 18  1  8 20  0 49.0000000  0 10G26G23G11G03G31G01G14G22G25G32
 128144939.264 5  99853200.74043  24385165.975
  24385161.9464         34.600          20.1004
 122671042.642 7  95587781.34545  23343518.168
  23343507.2234         45.400          30.2004
 124371503.319 6  96912805.57443  23667117.274
  23667107.0914         40.100          22.6004
 110474654.350 8  86084126.13647  21022624.391
  21022616.9634         48.100          42.1004
 108854449.060 8  84821617.25047  20714306.204
  20714295.6704         51.500          43.7004
 113511472.948 7  88450460.79546  21600518.215
  21600511.9004         46.900          40.5004
 116488314.303 7  90770080.38845  22166989.687
  22166979.6214         44.500          33.3004
 107902802.931 8  84080062.18247  20533217.281
  20533204.4024         52.100          44.4004
 128144800.476 6  99853071.69643  24385136.869
  24385130.6714         39.900          22.8004
 125636886.569 6  97898833.33444  23907907.934
  23907902.0294         39.900          24.5004
 18  1  8 20  0 50.0000000  0 10G26G23G11G03G31G01G14G22G25G32
 128141852.621 5  99850795.57443  24384578.835
  24384574.6304         34.500          19.9004
 122668492.863 7  95585794.51044  23343033.190
  23343022.0694         45.500          29.7004
 124374625.070 6  96915238.12543  23667711.191
  23667701.2424         40.000          22.8004
 110472731.801 8  86082628.04447  21022258.526
  21022251.2734         48.500          42.1004
 108855432.626 8  84822383.66447  20714493.331
  20714482.4444         51.800          43.3004
 113513421.519 7  88451979.17046  21600888.612
  21600882.1224         47.300          40.0004
 116490571.299 7  90771839.08345  22167419.147
  22167409.3164         44.900          33.5004
 107902115.086 8  84079526.19947  20533086.192
  20533073.5484         52.300          44.4004
 128145501.182 6  99853617.70643  24385270.435
  24385263.8854         39.900          22.9004
 125639837.840 6  97901133.02244  23908470.556
  23908463.8314         39.600          25.8004
 18  1  8 20  0 51.0000000  0 10G26G23G11G03G31G01G14G22G25G32
 128138765.786 5  99848390.25243  24383991.006
  24383987.1534         34.800          19.3004
 122665942.911 7  95583807.52945  23342548.133
  23342537.0714         45.300          30.0004
 124377746.719 6  96917670.57643  23668305.427
  23668295.3614         40.200          22.6004
 110470809.272 8  86081129.97347  21021892.924
  21021885.3794         48.900          42.0004
 108856416.512 8  84823150.32847  20714680.611
  20714669.4314         52.200          43.3004
 113515370.327 7  88453497.71746  21601259.544
  21601253.2884         47.300          40.0004
 116492828.159 7  90773597.67445  22167848.180
  22167838.7594         45.000          32.5004
 107901427.357 8  84078990.30947  20532955.289
  20532942.5864         51.900          44.4004
 128146202.216 6  99854163.96843  24385403.638
  24385397.2654         39.300          23.0004
 125642788.911 6  97903432.55944  23909031.492
  23909025.2364         39.400          25.6004
 18  1  8 20  0 52.0000000  0 10G26G23G11G03G31G01G14G22G25G32
 128135679.211 5  99845985.11343  24383404.842
  24383399.9344         34.500          19.6004
 122663393.250 7  95581820.77745  23342063.081
  23342052.0784         45.200          30.5004
 124380868.745 6  96920103.32643  23668899.384
  23668889.0254         40.600          22.9004
 110468887.286 8  86079632.32247  21021527.154
  21021519.7844         49.100          42.3004
 108857401.224 8  84823917.63247  20714868.151
  20714857.4404         52.300          43.6004
 113517319.852 7  88455016.82346  21601630.771
  21601624.3984         47.900          40.1004
 116495085.348 7  90775356.51445  22168278.161
  22168268.5644         44.900          33.2004
 107900740.232 8  84078454.88147  20532824.566
  20532811.7464         51.600          44.4004
 128146904.061 6  99854710.85843  24385537.782
  24385530.8234         39.900          22.2004
 125645740.139 6  97905732.20744  23909593.084
  23909586.4764         39.900          25.2004
 18  1  8 20  0 53.0000000  0 10G26G23G11G03G31G01G14G22G25G32
 128132592.676 5  99843580.01743  24382816.456
  24382812.6034         35.000          19.9004
 122660843.712 7  95579834.13045  23341577.297
  23341566.4114         45.400          30.1004
 124383990.956 6  96922536.21743  23669493.748
  23669482.9204         41.000          23.3004
 110466965.604 8  86078134.90647  21021161.491
  21021154.1794         48.200          42.4004
 108858386.512 8  84824685.39347  20715055.569
  20715044.2724         51.900          43.7004
 113519269.891 7  88456536.34246  21602001.659
  21601995.2854         47.500          39.8004
 116497342.653 7  90777115.45545  22168708.242
  22168698.0004         45.300          33.1004
 107900053.492 8  84077919.75947  20532693.668
  20532681.2004         51.600          44.4004
 128147606.505 6  99855258.22043  24385671.600
  24385664.6994         40.500          22.3004
 125648691.410 6  97908031.89544  23910155.110
  23910148.5024         40.100          25.6004
 18  1  8 20  0 54.0000000  0 10G26G23G11G03G31G01G14G22G25G32
 128129506.254 5  99841175.01943  24382228.467
  24382225.1414         34.900          20.1004
 122658294.270 7  95577847.54645  23341092.869
  23341081.3384         45.900          30.2004
 124387113.314 6  96924969.22243  23670087.506
  23670077.6164         40.600          23.8004
 110465044.268 8  86076637.76847  21020796.572
  21020788.7344         48.200          42.6004
 108859372.420 8  84825453.63147  20715242.911
  20715232.0244         51.400          43.8004
 113521220.455 7  88458056.26046  21602372.874
  21602366.3254         46.500          39.9004
 116499600.073 7  90778874.48745  22169137.435
  22169127.3694         45.300          33.0004
 107899367.203 8  84077384.99247  20532563.068
  20532550.3064         51.400          44.4004
 128148309.596 6  99855806.07943  24385805.156
  24385798.4314         40.600          22.6004
 125651642.721 6  97910331.61844  23910716.855
  23910709.6614         40.800          25.6004
 18  1  8 20  0 55.0000000  0 10G26G23G11G03G31G01G14G22G25G32
 128126419.930 5  99838770.10943  24381641.360
  24381637.8004         34.100          20.1004
 122655744.982 7  95575861.09445  23340607.393
  23340596.1554         45.800          30.0004
 124390235.916 6  96927402.40144  23670681.911
  23670671.5524         40.700          24.9004
 110463123.289 7  86075140.89847  21020430.345
  21020422.7994         47.900          42.6004
 108860358.985 8  84826222.38747  20715430.727
  20715419.8994         51.300          43.7004
 113523171.572 7  88459576.60646  21602744.272
  21602737.6064         46.400          39.8004
 116501857.682 7  90780633.66145  22169567.176
  22169556.8764         45.300          33.0004
 107898681.346 8  84076850.56047  20532432.468
  20532419.9404         51.500          44.4004
 128149013.305 6  99856354.42943  24385939.376
  24385932.2994         40.600          22.3004
 125654594.131 6  97912631.42244  23911278.529
  23911271.5114         41.000          26.8004
 18  1  8 20  0 56.0000000  0 10G26G23G11G03G31G01G14G22G25G32
 128123333.824 5  99836365.34343  24381054.485
  24381050.9244         33.700          20.1004
 122653195.939 7  95573874.82844  23340122.331
  23340110.6244         46.100          29.9004
 124393358.865 6  96929835.85644  23671275.716
  23671266.4124         40.800          25.3004
 110461202.797 8  86073644.41347  21020064.661
  21020057.1744         48.000          42.7004
 108861346.288 8  84826991.70447  20715618.739
  20715607.8524         50.400          43.7004
 113525123.371 7  88461097.48746  21603115.765
  21603108.6294         46.600          40.2004
 116504115.611 7  90782393.08945  22169996.421
