timestamp(unix),attitude_roll(radians),attitude_pitch(radians),attitude_yaw(radians),rotation_rate_x(radians/s),rotation_rate_y(radians/s),rotation_rate_z(radians/s),gravity_x(G),gravity_y(G),gravity_z(G),user_acc_x(G),user_acc_y(G),user_acc_z(G),magnetic_field_x(microteslas),magnetic_field_y(microteslas),magnetic_field_z(microteslas),latitude(degree),longitude(degree),altitude(meter),speed(m/s),course(degree),timestamp(unix),User Mark
1520025056.167144,0.072070,0.362256,-0.084254,-0.042297,-0.019598,-0.025624,0.067334,-0.354385,-0.932672,0.073947,-0.068558,0.047418,-5.542950,-46.373146,-51.386730,,,,,,,
1520025056.177128,0.071898,0.361516,-0.084768,-0.076666,-0.040324,-0.063601,0.067193,-0.353693,-0.932945,0.061835,-0.084265,0.030830,-5.119373,-46.740284,-51.097233,,,,,,,
1520025056.187116,0.071618,0.360667,-0.085664,-0.077084,-0.066197,-0.096719,0.066953,-0.352898,-0.933263,0.056261,-0.092414,0.022100,-5.119373,-46.740284,-51.097233,,,,,,,
1520025056.197100,0.071177,0.359989,-0.086878,-0.052058,-0.091941,-0.125118,0.066558,-0.352264,-0.933531,0.040437,-0.099534,0.026594,-5.101204,-46.671371,-51.161995,,,,,,,
1520025056.207084,0.071910,0.367775,-0.088701,-0.029402,-0.082511,-0.139624,0.067043,-0.359540,-0.930718,0.011357,-0.097216,0.028435,-5.090595,-46.646919,-51.185345,,,,,,,
1520025056.217052,0.071947,0.367560,-0.090121,-0.007222,-0.033543,-0.130600,0.067083,-0.359340,-0.930793,-0.021917,-0.089101,0.020392,-5.032756,-47.055019,-50.816196,,,,,,,
1520025056.237039,0.073931,0.367290,-0.092165,-0.009530,0.122134,-0.065278,0.068938,-0.359088,-0.930754,-0.034834,-0.077619,0.005858,-4.928545,-47.058659,-50.823040,,,,,,,
1520025056.227055,0.072606,0.367423,-0.091349,-0.004453,0.043119,-0.108003,0.067700,-0.359212,-0.930797,-0.022534,-0.089229,0.020397,-5.032756,-47.055019,-50.816196,,,,,,,
1520025056.247015,0.075654,0.367001,-0.092387,-0.036160,0.174739,-0.009126,0.070548,-0.358818,-0.930738,-0.027564,-0.052178,-0.065615,-4.839875,-47.058506,-50.831699,,,,,,,
1520025056.257011,0.075689,0.366059,-0.091325,-0.087284,0.198641,0.047602,0.070607,-0.357938,-0.931072,-0.016774,-0.030932,-0.090870,-4.745631,-47.045700,-50.852432,,,,,,,
1520025056.266995,0.077325,0.364883,-0.090405,-0.134843,0.194737,0.085139,0.072162,-0.356840,-0.931374,-0.018329,-0.032031,-0.090568,-4.767610,-46.989731,-50.902100,,,,,,,
1520025056.276983,0.078663,0.363383,-0.089189,-0.165074,0.169469,0.106946,0.073450,-0.355439,-0.931809,0.032431,0.031525,-0.126647,-4.703547,-46.923027,-50.969551,,,,,,,
1520025056.286966,0.079450,0.361715,-0.087785,-0.179190,0.113382,0.120446,0.074231,-0.353878,-0.932341,0.051730,0.018338,-0.155016,-4.660834,-46.837509,-51.052071,,,,,,,
1520025056.296950,0.079427,0.360196,-0.086279,-0.153935,0.029820,0.133525,0.074252,-0.352457,-0.932878,0.051710,0.016917,-0.154479,-4.660834,-46.837509,-51.052071,,,,,,,
1520025056.306921,0.078603,0.359230,-0.084556,-0.093827,-0.032261,0.160062,0.073510,-0.351554,-0.933277,-0.007119,-0.152749,-0.136944,-4.684144,-46.652512,-51.219048,,,,,,,
,,,,,,,,,,,,,,,,44.566725,-123.271873,70.240570,-1.000000,-1.000000,1520025002.207242,
1520025056.316923,0.077818,0.358700,-0.082737,-0.064142,-0.001344,0.165984,0.072792,-0.351057,-0.933520,-0.037147,-0.168932,-0.116025,-4.766694,-46.589447,-51.268806,,,,,,,
1520025056.326907,0.077692,0.357776,-0.080909,-0.128945,0.069491,0.161775,0.072699,-0.350192,-0.933852,-0.037054,-0.169797,-0.115693,-4.766694,-46.589447,-51.268806,,,,,,,
1520025056.336870,0.078265,0.355609,-0.079262,-0.264406,0.129118,0.125362,0.073294,-0.348161,-0.934565,-0.059378,-0.088286,-0.250020,-4.900956,-46.485466,-51.350471,,,,,,,
1520025056.346878,0.079442,0.352196,-0.078232,-0.371415,0.156462,0.048918,0.074487,-0.344959,-0.935657,-0.064279,-0.012218,-0.332424,-4.905498,-46.361496,-51.461998,,,,,,,
1520025056.356862,0.080585,0.348072,-0.078106,-0.423825,0.097847,-0.045975,0.075670,-0.341086,-0.936981,-0.065462,-0.016091,-0.331100,-4.905498,-46.361496,-51.461998,,,,,,,
,,,,,,,,,,,,,,,,44.565363,-123.272920,70.117012,-1.000000,-1.000000,1520025047.736461,
1520025056.366831,0.081278,0.343643,-0.079130,-0.432168,0.016793,-0.163584,0.076442,-0.336919,-0.938425,-0.093364,0.232152,-0.437017,-4.787461,-45.966713,-51.825966,,,,,,,
1520025056.376834,0.081628,0.339605,-0.081458,-0.361841,-0.065056,-0.277671,0.076880,-0.333115,-0.939747,-0.093802,0.228348,-0.435696,-4.787461,-45.966713,-51.825966,,,,,,,
1520025056.386818,0.081368,0.336963,-0.084649,-0.189498,-0.152228,-0.331303,0.076707,-0.330623,-0.940641,-0.089540,0.265285,-0.388903,-4.616623,-45.559067,-52.200073,,,,,,,
1520025056.396796,0.080508,0.336885,-0.088069,0.094297,-0.211717,-0.316781,0.075900,-0.330549,-0.940732,-0.086887,0.270445,-0.281177,-4.539276,-45.449017,-52.302689,,,,,,,
1520025056.406790,0.079527,0.339652,-0.091475,0.361963,-0.206429,-0.292818,0.074904,-0.333159,-0.939891,-0.105224,0.257307,-0.125554,-4.496807,-45.473148,-52.285378,,,,,,,
1520025056.416774,0.078943,0.343999,-0.094731,0.478432,-0.154815,-0.262919,0.074241,-0.337255,-0.938481,-0.131523,0.213247,0.000142,-4.471206,-45.643929,-52.138561,,,,,,,
1520025056.426749,0.078550,0.348516,-0.097456,0.459199,-0.127619,-0.204553,0.073752,-0.341504,-0.936982,-0.136008,0.162457,0.069459,-4.434134,-45.894127,-51.921638,,,,,,,
1520025056.436746,0.077984,0.352170,-0.099463,0.347379,-0.124010,-0.145748,0.073124,-0.344935,-0.935774,-0.129505,0.143138,0.101835,-4.401194,-46.147594,-51.699303,,,,,,,
1520025056.446730,0.077583,0.354593,-0.100929,0.224375,-0.078326,-0.112651,0.072683,-0.347209,-0.934967,-0.116903,0.133311,0.101959,-4.392267,-46.350182,-51.518520,,,,,,,
1520025056.456705,0.077510,0.356196,-0.102321,0.157538,-0.053176,-0.122319,0.072572,-0.348712,-0.934416,-0.102113,0.140795,0.073988,-4.384092,-46.485191,-51.397430,,,,,,,
1520025056.466702,0.077594,0.357391,-0.104080,0.124384,-0.054898,-0.167701,0.072618,-0.349831,-0.933994,-0.091097,0.160058,0.037754,-4.357926,-46.577614,-51.315918,,,,,,,
1520025056.476686,0.077800,0.358269,-0.106383,0.095673,-0.062031,-0.222613,0.072786,-0.350654,-0.933672,-0.091265,0.160880,0.037432,-4.357926,-46.577614,-51.315918,,,,,,,
1520025056.486655,0.078212,0.358586,-0.109300,0.036307,-0.059830,-0.287648,0.073163,-0.350951,-0.933531,-0.063016,0.204253,-0.065156,-4.246434,-46.714317,-51.200874,,,,,,,
1520025056.496659,0.078812,0.358057,-0.112965,-0.046190,-0.074844,-0.366992,0.073737,-0.350456,-0.933672,-0.063590,0.203758,-0.065016,-4.246434,-46.714317,-51.200874,,,,,,,
1520025056.506643,0.079400,0.356603,-0.117257,-0.137597,-0.092813,-0.426238,0.074326,-0.349093,-0.934136,-0.044358,0.199313,-0.073555,-4.246434,-46.714317,-51.200874,,,,,,,
1520025056.516630,0.080340,0.354097,-0.121845,-0.242385,-0.053141,-0.453615,0.075275,-0.346743,-0.934935,-0.023089,0.200015,-0.077532,-3.878812,-46.712013,-51.232140,,,,,,,
1520025056.526601,0.081862,0.350668,-0.126276,-0.324649,0.016862,-0.435741,0.076795,-0.343526,-0.935998,0.021350,0.200383,-0.051459,-3.703057,-46.618507,-51.330219,,,,,,,
1520025056.536585,0.083939,0.346953,-0.130123,-0.341825,0.097155,-0.372967,0.078844,-0.340034,-0.937102,0.019300,0.196891,-0.050355,-3.703057,-46.618507,-51.330219,,,,,,,
1520025056.546583,0.086434,0.343561,-0.133054,-0.303220,0.164200,-0.279369,0.081282,-0.336842,-0.938046,0.038423,0.191884,-0.013919,-3.276861,-46.313866,-51.634068,,,,,,,
1520025056.556557,0.088818,0.340823,-0.135053,-0.241104,0.166532,-0.191881,0.083599,-0.334263,-0.938765,0.071324,0.147892,0.083281,-3.058700,-46.160889,-51.784225,,,,,,,
1520025056.566541,0.090535,0.338751,-0.136338,-0.181813,0.115577,-0.123746,0.085273,-0.332309,-0.939308,0.069649,0.145939,0.083824,-2.872390,-46.034309,-51.907425,,,,,,,
1520025056.576538,0.091695,0.337183,-0.137138,-0.141160,0.081216,-0.081502,0.086410,-0.330830,-0.939726,0.068634,0.124287,0.155195,-2.741390,-45.936615,-52.000973,,,,,,,
1520025056.586505,0.092416,0.335940,-0.137692,-0.111828,0.044460,-0.058660,0.087126,-0.329657,-0.940072,0.067659,0.068808,0.250695,-2.653779,-45.861359,-52.071896,,,,,,,
1520025056.596489,0.092704,0.335021,-0.138096,-0.080244,0.006569,-0.042179,0.087425,-0.328789,-0.940348,0.067360,0.067940,0.250971,-2.653779,-45.861359,-52.071896,,,,,,,
1520025056.606495,0.092609,0.334381,-0.138308,-0.056208,-0.024913,-0.020486,0.087355,-0.328184,-0.940566,0.065126,0.049513,0.269652,-2.567285,-45.756344,-52.168526,,,,,,,
1520025056.626444,0.091906,0.333739,-0.138360,-0.024722,-0.038340,0.001374,0.086713,-0.327578,-0.940837,0.022723,0.034976,0.238810,-2.577578,-45.705269,-52.212772,,,,,,,
1520025056.636431,0.091530,0.333445,-0.138199,-0.034588,-0.028636,0.016148,0.086368,-0.327300,-0.940965,0.023068,0.034697,0.238939,-2.596711,-45.691887,-52.223537,,,,,,,
1520025056.616460,0.092287,0.333996,-0.138371,-0.031999,-0.036348,-0.007282,0.087064,-0.327821,-0.940719,0.050662,0.029313,0.246567,-2.564057,-45.724731,-52.196396,,,,,,,
1520025056.656420,0.091723,0.331664,-0.136991,-0.143045,0.071417,0.067742,0.086603,-0.325617,-0.941527,-0.060098,0.075877,0.176329,-2.635081,-45.642181,-52.265060,,,,,,,
1520025056.666405,0.092281,0.329933,-0.135890,-0.192494,0.095999,0.093573,0.087180,-0.323980,-0.942039,-0.060675,0.074239,0.176841,-2.633031,-45.574806,-52.323925,,,,,,,
1520025056.676379,0.092795,0.328055,-0.134524,-0.198297,0.093108,0.117991,0.087720,-0.322203,-0.942598,-0.065961,0.074949,0.123781,-2.625026,-45.477203,-52.409184,,,,,,,
1520025056.686363,0.093104,0.326250,-0.132882,-0.193528,0.081802,0.145780,0.088066,-0.320494,-0.943148,-0.059471,0.072370,0.109698,-2.625520,-45.369934,-52.502041,,,,,,,
1520025056.696362,0.093294,0.324524,-0.131032,-0.186378,0.077768,0.160829,0.088296,-0.318858,-0.943681,-0.059701,0.070735,0.110230,-2.644114,-45.264290,-52.592220,,,,,,,
1520025056.706347,0.093415,0.322946,-0.129291,-0.166836,0.062722,0.140884,0.088457,-0.317361,-0.944170,-0.062411,0.125482,0.089022,-2.674604,-45.161034,-52.679375,,,,,,,
1520025056.716331,0.093678,0.321565,-0.128524,-0.136870,0.047551,0.024081,0.088746,-0.316052,-0.944582,-0.075105,0.171612,0.077990,-2.706522,-45.066021,-52.759048,,,,,,,
1520025056.726317,0.094416,0.320337,-0.129597,-0.104619,0.035854,-0.154526,0.089480,-0.314886,-0.944902,-0.081957,0.074377,0.075243,-2.706672,-44.988251,-52.825375,,,,,,,
1520025056.736303,0.094964,0.319181,-0.131356,-0.101147,-0.016299,-0.169499,0.090032,-0.313789,-0.945215,-0.075567,-0.042107,0.084161,-2.634783,-44.931698,-52.877113,,,,,,,
1520025056.746287,0.094514,0.317996,-0.132112,-0.115242,-0.085899,-0.049385,0.089642,-0.312664,-0.945625,-0.059613,-0.078358,0.092902,-2.555484,-44.883797,-52.921669,,,,,,,
1520025056.756273,0.093362,0.316904,-0.131557,-0.111178,-0.097144,0.067970,0.088585,-0.311626,-0.946067,-0.046119,-0.053273,0.091941,-2.554737,-44.827026,-52.969799,,,,,,,
1520025056.766259,0.086697,0.321352,-0.128728,-0.084269,-0.099775,0.106843,0.082156,-0.315850,-0.945246,-0.055667,-0.028892,0.074030,-2.625517,-44.765686,-53.018196,,,,,,,
1520025056.776243,0.085302,0.320781,-0.127792,-0.060198,-0.112859,0.073120,0.080853,-0.315307,-0.945539,-0.084073,-0.040207,0.060895,-3.069268,-44.978577,-52.813786,,,,,,,
1520025056.786229,0.084175,0.320374,-0.127279,-0.039288,-0.087780,0.038350,0.079798,-0.314921,-0.945757,-0.106150,-0.061055,0.054781,-3.164907,-44.941872,-52.839386,,,,,,,
1520025056.796214,0.083545,0.320267,-0.126814,-0.003299,-0.034515,0.048694,0.079205,-0.314820,-0.945841,-0.096554,-0.070083,0.043162,-3.236204,-44.916817,-52.856369,,,,,,,
1520025056.646436,0.091395,0.332860,-0.137766,-0.075522,0.014005,0.042166,0.086259,-0.326747,-0.941167,-0.040116,0.067271,0.213521,-2.619288,-45.675507,-52.236736,,,,,,,
1520025056.816161,0.077111,0.328082,-0.122716,0.118638,0.093015,0.126843,0.072925,-0.322228,-0.943849,-0.058201,-0.058036,-0.012160,-3.741609,-45.235420,-52.550415,,,,,,,
1520025056.806198,0.076702,0.326946,-0.123883,0.057624,0.029807,0.090441,0.072567,-0.321152,-0.944243,-0.072964,-0.065215,0.018843,-3.281091,-44.907829,-52.861233,,,,,,,
1520025056.826145,0.077967,0.329632,-0.121388,0.151413,0.138860,0.138182,0.073695,-0.323695,-0.943287,-0.047267,-0.046025,-0.041897,-3.754230,-45.286003,-52.505932,,,,,,,
1520025056.836129,0.079233,0.331167,-0.120172,0.137930,0.173609,0.120949,0.074849,-0.325147,-0.942697,-0.037831,-0.034213,-0.080725,-3.748995,-45.356838,-52.445126,,,,,,,
1520025056.846137,0.080722,0.332398,-0.119270,0.108864,0.177310,0.084182,0.076220,-0.326311,-0.942185,-0.029788,-0.034621,-0.111542,-3.719497,-45.427567,-52.385979,,,,,,,
1520025056.856128,0.082300,0.333436,-0.118775,0.096836,0.174684,0.046639,0.077679,-0.327292,-0.941725,-0.025479,-0.039438,-0.145479,-3.669270,-45.484756,-52.339878,,,,,,,
1520025056.866112,0.083974,0.334405,-0.118569,0.097319,0.173317,0.022117,0.079229,-0.328207,-0.941277,-0.027029,-0.038522,-0.145927,-3.669270,-45.484756,-52.339878,,,,,,,
1520025056.876074,0.085556,0.335508,-0.118523,0.114544,0.155203,0.011723,0.080687,-0.329249,-0.940789,-0.020506,-0.043569,-0.196036,-3.524741,-45.583565,-52.263786,,,,,,,
1520025056.886082,0.086844,0.336739,-0.118566,0.123212,0.116936,0.003269,0.081864,-0.330411,-0.940280,-0.036438,-0.042132,-0.225796,-3.447568,-45.640316,-52.219395,,,,,,,
1520025056.896066,0.087729,0.337839,-0.118908,0.109044,0.064449,-0.034413,0.082664,-0.331449,-0.939845,-0.037239,-0.041095,-0.226232,-3.447568,-45.640316,-52.219395,,,,,,,
1520025056.906043,0.088517,0.338728,-0.119774,0.090905,0.052084,-0.085948,0.083378,-0.332288,-0.939485,-0.073597,-0.081118,-0.253615,-3.333459,-45.763611,-52.118793,,,,,,,
1520025056.916033,0.089761,0.339260,-0.120810,0.049456,0.107105,-0.087640,0.084531,-0.332790,-0.939205,-0.088483,-0.125569,-0.265873,-3.273737,-45.815964,-52.076572,,,,,,,
1520025056.926017,0.091640,0.339130,-0.121223,-0.031642,0.200001,-0.020645,0.086299,-0.332667,-0.939087,-0.090251,-0.125692,-0.265991,-3.273737,-45.815964,-52.076572,,,,,,,
1520025056.936000,0.094168,0.338133,-0.120687,-0.126863,0.291982,0.061027,0.088705,-0.331727,-0.939196,-0.050695,-0.077865,-0.367170,-3.075499,-45.847420,-52.060970,,,,,,,
1520025056.945972,0.097010,0.336601,-0.119543,-0.169116,0.326294,0.099802,0.091422,-0.330281,-0.939445,0.026727,0.020085,-0.409890,-2.953324,-45.792030,-52.116764,,,,,,,
1520025056.955956,0.099586,0.335092,-0.118392,-0.153962,0.282675,0.086121,0.093891,-0.328857,-0.939701,0.024257,0.018661,-0.409634,-2.953324,-45.792030,-52.116764,,,,,,,
1520025056.965948,0.101521,0.334082,-0.117798,-0.086924,0.186702,0.030600,0.095743,-0.327902,-0.939848,0.118139,0.176825,-0.433672,-2.716068,-45.617828,-52.282173,,,,,,,
1520025056.975924,0.102313,0.334050,-0.117915,0.031178,0.035710,-0.025190,0.096489,-0.327871,-0.939782,0.115928,0.205786,-0.382545,-2.625475,-45.561050,-52.336281,,,,,,,
1520025056.985908,0.101942,0.335616,-0.118715,0.210747,-0.089493,-0.068105,0.096088,-0.329351,-0.939306,0.116330,0.207265,-0.383021,-2.625475,-45.561050,-52.336281,,,,,,,
1520025056.995918,0.101087,0.338937,-0.119830,0.381009,-0.126161,-0.069419,0.095174,-0.332485,-0.938294,0.065608,0.241756,-0.171707,-2.587019,-45.647301,-52.262993,,,,,,,
1520025057.005895,0.100321,0.343506,-0.120816,0.486771,-0.099997,-0.036561,0.094302,-0.336790,-0.936845,0.040219,0.259367,-0.086836,-2.618389,-45.827164,-52.103783,,,,,,,
1520025057.015879,0.099775,0.348661,-0.121448,0.525377,-0.069699,0.002576,0.093616,-0.341640,-0.935157,0.040906,0.264217,-0.088525,-2.618389,-45.827164,-52.103783,,,,,,,
1520025057.025875,0.099268,0.353821,-0.121600,0.508500,-0.053250,0.049231,0.092966,-0.346485,-0.933438,0.045508,0.234729,0.021023,-2.689866,-46.338406,-51.645962,,,,,,,
1520025057.035842,0.098679,0.358423,-0.121154,0.431931,-0.039021,0.101220,0.092258,-0.350798,-0.931896,0.055310,0.195418,0.049785,-2.735909,-46.602669,-51.405205,,,,,,,
1520025057.045826,0.098140,0.362018,-0.119909,0.315698,0.002868,0.168555,0.091632,-0.354162,-0.930684,0.055936,0.198782,0.048573,-2.735909,-46.602669,-51.405205,,,,,,,
1520025057.055829,0.097878,0.364435,-0.117799,0.189897,0.062761,0.235756,0.091304,-0.356421,-0.929853,0.066350,0.153159,0.062407,-2.874895,-47.005783,-51.029213,,,,,,,
1520025057.065817,0.097826,0.365640,-0.114987,0.062320,0.102268,0.284756,0.091213,-0.357547,-0.929430,0.073872,0.162311,0.043474,-2.874895,-47.005783,-51.029213,,,,,,,
1520025057.075801,0.097713,0.365527,-0.111776,-0.075230,0.099947,0.299369,0.091112,-0.357442,-0.929480,0.092741,0.176732,0.021903,-3.033854,-47.151985,-50.884926,,,,,,,
1520025057.085786,0.097264,0.364090,-0.108441,-0.204943,0.063452,0.293792,0.090745,-0.356099,-0.930032,0.116134,0.194555,0.004388,-3.121336,-47.122192,-50.907227,,,,,,,
1520025057.095769,0.098409,0.349418,-0.105898,-0.307806,0.009884,0.273723,0.092314,-0.342351,-0.935026,0.136309,0.234273,-0.000109,-3.222970,-47.024498,-50.991161,,,,,,,
1520025057.105753,0.097215,0.346115,-0.102909,-0.368835,-0.026792,0.238439,0.091306,-0.339245,-0.936256,0.137317,0.231167,0.001121,-3.222970,-47.024498,-50.991161,,,,,,,
1520025057.115728,0.095812,0.342474,-0.100344,-0.389296,-0.062380,0.196415,0.090110,-0.335818,-0.937607,0.080590,0.210131,-0.004059,-3.285639,-46.067467,-51.853470,,,,,,,
1520025057.125713,0.094172,0.338847,-0.098131,-0.374910,-0.098763,0.167804,0.088686,-0.332400,-0.938960,0.061827,0.190707,0.014811,-3.285639,-46.067467,-51.853470,,,,,,,
1520025057.135697,0.092315,0.335552,-0.096090,-0.335413,-0.123135,0.160992,0.087042,-0.329290,-0.940208,0.063470,0.187597,0.016060,-3.534106,-45.655815,-52.200054,,,,,,,
1520025057.145697,0.090337,0.332738,-0.094130,-0.285361,-0.137874,0.158653,0.085266,-0.326632,-0.941298,0.041519,0.168337,0.049101,-3.669289,-45.469116,-52.353462,,,,,,,
1520025057.155658,0.088248,0.330387,-0.092366,-0.238165,-0.157080,0.139191,0.083367,-0.324409,-0.942236,-0.001244,0.134376,0.101584,-3.811283,-45.307434,-52.483330,,,,,,,
1520025057.165642,0.086037,0.328410,-0.090941,-0.199269,-0.181748,0.108907,0.081338,-0.322538,-0.943055,0.000784,0.132505,0.102403,-3.811283,-45.307434,-52.483330,,,,,,,
1520025057.175653,0.083786,0.326751,-0.089922,-0.163435,-0.195898,0.072191,0.079260,-0.320968,-0.943768,-0.028037,0.103621,0.127880,-4.101495,-45.056400,-52.677200,,,,,,,
1520025057.185626,0.081640,0.325557,-0.089385,-0.108348,-0.199450,0.030507,0.077265,-0.319836,-0.944317,-0.042964,0.088635,0.142010,-4.239785,-44.961548,-52.747250,,,,,,,
1520025057.195610,0.079516,0.324927,-0.089277,-0.050219,-0.213506,-0.003680,0.075276,-0.319239,-0.944680,-0.040974,0.088038,0.142373,-4.362336,-44.894753,-52.794132,,,,,,,
1520025057.205608,0.077355,0.324819,-0.089536,0.003550,-0.226448,-0.032610,0.073237,-0.319137,-0.944874,-0.058222,0.079559,0.169209,-4.474933,-44.860947,-52.813438,,,,,,,
1520025057.215594,0.075449,0.325245,-0.090070,0.058162,-0.195750,-0.049707,0.071426,-0.319541,-0.944877,-0.096099,0.062415,0.221976,-4.582105,-44.857445,-52.807224,,,,,,,
1520025057.225578,0.074198,0.326008,-0.090594,0.084603,-0.125555,-0.040565,0.070226,-0.320264,-0.944722,-0.094899,0.063138,0.221822,-4.582105,-44.857445,-52.807224,,,,,,,
1520025057.235564,0.073137,0.326817,-0.090939,0.080013,-0.120050,-0.023573,0.069204,-0.321030,-0.944537,-0.068548,0.055665,0.219562,-4.725685,-44.928215,-52.734356,,,,,,,
1520025057.245532,0.071886,0.327427,-0.091239,0.057692,-0.139224,-0.025075,0.068008,-0.321608,-0.944427,-0.053115,0.052779,0.219910,-4.725685,-44.928215,-52.734356,,,,,,,
1520025057.255516,0.070577,0.327761,-0.091527,0.026804,-0.140351,-0.023493,0.066765,-0.321924,-0.944408,-0.041496,0.058314,0.215099,-4.835731,-45.007580,-52.656651,,,,,,,
1520025057.265508,0.069092,0.327769,-0.091640,-0.006532,-0.157195,-0.005990,0.065361,-0.321932,-0.944504,-0.040093,0.058321,0.215195,-4.835731,-45.007580,-52.656651,,,,,,,
1520025057.275506,0.067495,0.327470,-0.091607,-0.037563,-0.157229,0.003169,0.063860,-0.321649,-0.944703,-0.006075,0.057306,0.198686,-4.973612,-45.028698,-52.625736,,,,,,,
1520025057.285490,0.065943,0.326983,-0.091513,-0.051474,-0.151914,0.007198,0.062404,-0.321187,-0.944957,-0.004619,0.056844,0.198940,-5.057548,-45.012840,-52.631306,,,,,,,
1520025057.295476,0.064308,0.326462,-0.091323,-0.052750,-0.160269,0.017823,0.060869,-0.320694,-0.945225,0.043669,0.039597,0.159748,-5.140202,-44.986641,-52.645702,,,,,,,
1520025057.305462,0.062612,0.325935,-0.091021,-0.054003,-0.159092,0.027401,0.059277,-0.320195,-0.945495,0.064853,0.031316,0.145645,-5.140202,-44.986641,-52.645702,,,,,,,
1520025057.325432,0.059468,0.324968,-0.090344,-0.051974,-0.133561,0.032820,0.056323,-0.319278,-0.945986,0.090177,0.014621,0.099840,-5.418745,-44.900307,-52.691444,,,,,,,
1520025057.315446,0.060965,0.325456,-0.090705,-0.048683,-0.151651,0.027510,0.057729,-0.319741,-0.945745,0.076762,0.021157,0.130452,-5.325212,-44.927917,-52.677448,,,,,,,
1520025057.335419,0.058154,0.324486,-0.089939,-0.048800,-0.114445,0.033981,0.055088,-0.318822,-0.946212,0.100078,0.007558,0.062744,-5.418745,-44.900307,-52.691444,,,,,,,
1520025057.345403,0.057063,0.324055,-0.089604,-0.044393,-0.093310,0.026637,0.054064,-0.318413,-0.946409,0.102629,-0.009285,0.036589,-5.583910,-44.843323,-52.722717,,,,,,,
1520025057.365373,0.065235,0.326031,-0.092421,-0.049235,-0.075565,0.003114,0.061754,-0.320286,-0.945306,0.098967,-0.038479,0.016503,-5.648913,-44.818008,-52.737328,,,,,,,
1520025057.355388,0.066033,0.326523,-0.092527,-0.048447,-0.082814,0.016977,0.062499,-0.320752,-0.945099,0.095857,-0.025882,0.024612,-5.648913,-44.818008,-52.737328,,,,,,,
1520025057.375357,0.064546,0.325553,-0.092501,-0.046728,-0.071556,-0.016028,0.061114,-0.319832,-0.945501,0.099134,-0.041297,0.005514,-5.151480,-44.944336,-52.680717,,,,,,,
1520025057.385343,0.063858,0.325103,-0.092769,-0.042160,-0.081289,-0.031963,0.060472,-0.319406,-0.945686,0.097625,-0.045889,-0.010551,-5.184284,-44.919968,-52.698280,,,,,,,
1520025057.395329,0.070187,0.328850,-0.095424,-0.019666,-0.088725,-0.039050,0.066372,-0.322955,-0.944084,0.079655,-0.056165,-0.011558,-5.184284,-44.919968,-52.698280,,,,,,,
1520025057.405313,0.069583,0.328958,-0.095783,0.024846,-0.063027,-0.029676,0.065799,-0.323057,-0.944089,0.050900,-0.073732,-0.007189,-4.822487,-45.115631,-52.565319,,,,,,,
1520025057.425284,0.069516,0.330784,-0.096100,0.134856,0.017261,0.004432,0.065695,-0.324785,-0.943504,0.023249,-0.075575,-0.012826,-4.845422,-45.124161,-52.555889,,,,,,,
1520025057.435268,0.069747,0.332344,-0.096028,0.159006,0.026020,0.020875,0.065877,-0.326259,-0.942982,0.011256,-0.063770,-0.037975,-4.845422,-45.124161,-52.555889,,,,,,,
1520025057.445235,0.069776,0.335798,-0.095887,0.145158,0.007960,0.021660,0.065826,-0.329523,-0.941850,-0.007491,-0.040274,-0.107863,-4.841177,-45.302235,-52.402863,,,,,,,
1520025057.455240,0.069757,0.336976,-0.095784,0.108012,-0.000691,0.016717,0.065780,-0.330635,-0.941463,-0.017288,-0.022240,-0.135914,-4.854185,-45.480244,-52.247231,,,,,,,
1520025057.465224,0.069668,0.337851,-0.095681,0.082503,-0.006085,0.015186,0.065676,-0.331461,-0.941180,-0.017184,-0.021414,-0.136197,-4.854185,-45.480244,-52.247231,,,,,,,
1520025057.475207,0.069705,0.338690,-0.095446,0.085300,0.017514,0.035545,0.065692,-0.332252,-0.940900,0.010403,0.043479,-0.173327,-4.871641,-45.584808,-52.154396,,,,,,,
1520025057.485196,0.069659,0.339653,-0.095048,0.095806,0.000654,0.042097,0.065626,-0.333160,-0.940584,0.017946,0.044372,-0.190886,-4.878372,-45.626266,-52.117508,,,,,,,
1520025057.495180,0.069165,0.340604,-0.094922,0.092145,-0.065510,0.010973,0.065140,-0.334056,-0.940300,0.018433,0.045268,-0.191170,-4.878372,-45.626266,-52.117508,,,,,,,
1520025057.415282,0.069388,0.329578,-0.096004,0.077746,-0.014947,-0.013710,0.065601,-0.323644,-0.943902,0.023343,-0.076716,-0.012427,-4.845422,-45.124161,-52.555889,,,,,,,
1520025057.505163,0.067738,0.341471,-0.094860,0.082464,-0.160952,0.014875,0.063779,-0.334873,-0.940102,-0.009839,-0.116131,-0.161674,-4.925993,-45.720825,-52.030087,,,,,,,
1520025057.514966,0.066173,0.342212,-0.094518,0.068056,-0.127738,0.044545,0.062290,-0.335572,-0.939953,-0.045246,-0.166107,-0.116627,-5.004495,-45.765030,-51.983711,,,,,,,
1520025057.524950,0.065475,0.342745,-0.093835,0.040881,-0.018176,0.075208,0.061623,-0.336073,-0.939818,-0.044579,-0.165605,-0.116762,-5.004495,-45.765030,-51.983711,,,,,,,
1520025057.534927,0.065879,0.342826,-0.092911,-0.012566,0.102775,0.089430,0.062000,-0.336150,-0.939766,-0.075809,-0.148119,-0.176995,-5.152191,-45.822395,-51.918701,,,,,,,
1520025057.544922,0.067377,0.342213,-0.092056,-0.083408,0.197775,0.068100,0.063422,-0.335573,-0.939877,-0.067847,-0.085875,-0.250980,-5.155159,-45.819115,-51.921303,,,,,,,
1520025057.554906,0.069362,0.340959,-0.091777,-0.142689,0.205226,-0.001189,0.065316,-0.334391,-0.940168,-0.069741,-0.087057,-0.250689,-5.155159,-45.819115,-51.921303,,,,,,,
1520025057.564878,0.071175,0.338995,-0.092338,-0.207990,0.141349,-0.089923,0.067068,-0.332540,-0.940701,-0.044759,0.087484,-0.380786,-4.997399,-45.713806,-52.029442,,,,,,,
1520025057.574878,0.072272,0.336619,-0.093913,-0.227334,0.031852,-0.189662,0.068157,-0.330298,-0.941413,-0.056606,0.176474,-0.390985,-4.882314,-45.617012,-52.125237,,,,,,,
1520025057.584862,0.072692,0.334716,-0.096295,-0.145256,-0.057806,-0.252368,0.068597,-0.328501,-0.942009,-0.071649,0.249781,-0.357078,-4.776981,-45.506870,-52.231163,,,,,,,
1520025057.594851,0.072484,0.334464,-0.099072,0.048588,-0.126345,-0.262924,0.068407,-0.328263,-0.942106,-0.103991,0.293274,-0.295412,-4.687809,-45.427471,-52.308300,,,,,,,
1520025057.604834,0.072056,0.336847,-0.101788,0.328805,-0.130432,-0.228093,0.067948,-0.330513,-0.941352,-0.137482,0.262535,-0.181054,-4.626734,-45.436501,-52.305893,,,,,,,
1520025057.614818,0.071808,0.341694,-0.104082,0.544625,-0.086605,-0.164451,0.067599,-0.335083,-0.939760,-0.163500,0.240677,-0.039915,-4.587231,-45.581371,-52.183189,,,,,,,
1520025057.624803,0.072011,0.347591,-0.105777,0.607283,-0.024145,-0.103494,0.067646,-0.340634,-0.937759,-0.158573,0.221768,0.052353,-4.557168,-45.849426,-51.950470,,,,,,,
1520025057.634789,0.072159,0.353135,-0.106980,0.536279,-0.031274,-0.064246,0.067647,-0.345841,-0.935851,-0.146794,0.197525,0.106429,-4.522631,-46.165428,-51.672897,,,,,,,
1520025057.644773,0.072251,0.357223,-0.107828,0.367846,-0.012446,-0.048006,0.067631,-0.349674,-0.934427,-0.146778,0.201359,0.105005,-4.522631,-46.165428,-51.672897,,,,,,,
1520025057.654759,0.072642,0.359487,-0.108570,0.186094,0.021932,-0.057565,0.067939,-0.351794,-0.933609,-0.121650,0.163867,0.128128,-4.489822,-46.672333,-51.218391,,,,,,,
1520025057.674729,0.074074,0.359693,-0.110867,-0.061159,0.038178,-0.145107,0.069270,-0.351987,-0.933438,-0.121699,0.167233,0.088819,-4.458380,-46.792820,-51.111092,,,,,,,
1520025057.664745,0.073242,0.360168,-0.109505,0.042068,0.028523,-0.092104,0.068482,-0.352431,-0.933329,-0.120911,0.167678,0.088709,-4.458380,-46.792820,-51.111092,,,,,,,
1520025057.684715,0.075210,0.358344,-0.112858,-0.138521,0.045575,-0.214717,0.070366,-0.350724,-0.933832,-0.104729,0.192124,-0.027503,-4.326838,-46.820694,-51.096870,,,,,,,
1520025057.704684,0.077821,0.353634,-0.119112,-0.247337,-0.006439,-0.362853,0.072932,-0.346309,-0.935281,-0.077220,0.210033,-0.067389,-4.212813,-46.767403,-51.155170,,,,,,,
1520025057.694700,0.076566,0.356265,-0.115627,-0.202915,0.033785,-0.294799,0.071688,-0.348777,-0.934460,-0.075976,0.212500,-0.068210,-4.212813,-46.767403,-51.155170,,,,,,,
1520025057.714670,0.078777,0.350733,-0.123159,-0.259145,-0.056944,-0.412219,0.073905,-0.343586,-0.936209,-0.025001,0.225377,-0.090571,-3.901130,-46.574825,-51.355194,,,,,,,
1520025057.724637,0.079293,0.348039,-0.127442,-0.225953,-0.108968,-0.423464,0.074461,-0.341055,-0.937090,-0.010206,0.213492,-0.075011,-3.737041,-46.456749,-51.474205,,,,,,,
1520025057.734621,0.079420,0.345842,-0.131566,-0.174407,-0.129666,-0.393797,0.074639,-0.338989,-0.937825,-0.002282,0.193222,-0.035396,-3.590009,-46.350227,-51.580589,,,,,,,
1520025057.744626,0.079577,0.344159,-0.135069,-0.132176,-0.091531,-0.322587,0.074831,-0.337405,-0.938381,0.010221,0.169024,0.021755,-3.468728,-46.267303,-51.663269,,,,,,,
1520025057.754594,0.079785,0.342865,-0.137683,-0.103069,-0.060632,-0.233495,0.075061,-0.336187,-0.938799,0.058865,0.135518,0.126513,-3.363747,-46.205757,-51.725258,,,,,,,
1520025057.764578,0.079861,0.341804,-0.139370,-0.090963,-0.047830,-0.145809,0.075161,-0.335188,-0.939149,0.058765,0.134519,0.126862,-3.363747,-46.205757,-51.725258,,,,,,,
1520025057.774581,0.079570,0.340936,-0.140204,-0.077653,-0.059516,-0.065615,0.074911,-0.334369,-0.939460,0.072688,0.097782,0.221626,-3.228886,-46.114887,-51.814865,,,,,,,
1520025057.784562,0.079034,0.340245,-0.140246,-0.065254,-0.051143,0.007138,0.074426,-0.333718,-0.939730,0.063102,0.081811,0.249148,-3.219146,-46.075996,-51.850060,,,,,,,
1520025057.794546,0.078447,0.339717,-0.139666,-0.055750,-0.036603,0.064922,0.073887,-0.333220,-0.939950,0.063640,0.081313,0.249367,-3.219146,-46.075996,-51.850060,,,,,,,
1520025057.804537,0.077691,0.339268,-0.138593,-0.051254,-0.041371,0.106583,0.073189,-0.332797,-0.940154,0.061287,0.086520,0.253768,-3.286949,-46.009544,-51.904789,,,,,,,
1520025057.824478,0.076048,0.338314,-0.136184,-0.060717,-0.048948,0.101168,0.071668,-0.331898,-0.940589,0.035052,0.075550,0.231574,-3.352399,-45.979012,-51.927650,,,,,,,
1520025057.814494,0.076888,0.338818,-0.137339,-0.055649,-0.038164,0.114076,0.072445,-0.332373,-0.940362,0.034274,0.076025,0.231347,-3.352399,-45.979012,-51.927650,,,,,,,
1520025057.844457,0.074098,0.336832,-0.134239,-0.094295,-0.063132,0.077082,0.069870,-0.330499,-0.941216,-0.056916,0.078500,0.146493,-3.572162,-45.872849,-52.006832,,,,,,,
1520025057.854441,0.073473,0.335864,-0.133273,-0.105131,-0.017419,0.087645,0.069305,-0.329585,-0.941579,-0.056351,0.077586,0.146855,-3.572162,-45.872849,-52.006832,,,,,,,
1520025057.864449,0.073505,0.334943,-0.132106,-0.095959,0.062431,0.109296,0.069357,-0.328715,-0.941879,-0.083396,0.069209,0.119674,-3.697967,-45.766006,-52.092094,,,,,,,
1520025057.834492,0.075069,0.337675,-0.135158,-0.075382,-0.069293,0.089136,0.070763,-0.331294,-0.940870,-0.033456,0.081432,0.159956,-3.496868,-45.913036,-51.976475,,,,,,,
1520025057.884422,0.074674,0.333501,-0.128652,-0.088993,0.118601,0.188447,0.070495,-0.327353,-0.942269,-0.081710,0.055273,0.117028,-3.723464,-45.710091,-52.139355,,,,,,,
1520025057.874438,0.074087,0.334210,-0.130599,-0.080726,0.118104,0.147003,0.069924,-0.328023,-0.942078,-0.081139,0.055944,0.116837,-3.723464,-45.710091,-52.139355,,,,,,,
1520025057.894404,0.074929,0.332368,-0.126371,-0.145857,0.094341,0.211915,0.070762,-0.326283,-0.942620,-0.084922,0.035084,0.164147,-3.746994,-45.610687,-52.224651,,,,,,,
1520025057.914357,0.074553,0.328033,-0.121322,-0.274911,0.040070,0.226575,0.070512,-0.322182,-0.944048,-0.094163,0.019661,0.176211,-3.788879,-45.535465,-52.287231,,,,,,,
1520025057.904373,0.074908,0.330490,-0.123904,-0.224784,0.073023,0.221134,0.070788,-0.324507,-0.943231,-0.094440,0.021986,0.175393,-3.788879,-45.535465,-52.287231,,,,,,,
1520025057.924359,0.073941,0.325303,-0.118749,-0.295043,0.014498,0.221901,0.070000,-0.319596,-0.944965,-0.117378,0.002732,0.165485,-3.924350,-45.273144,-52.504578,,,,,,,
1520025057.944332,0.072333,0.319884,-0.113942,-0.277441,-0.007038,0.192311,0.068604,-0.314457,-0.946790,-0.117600,0.009784,0.149304,-3.924350,-45.273144,-52.504578,,,,,,,
1520025057.934348,0.073134,0.322541,-0.116242,-0.291731,-0.005726,0.215521,0.069301,-0.316978,-0.945898,-0.118297,0.012305,0.148412,-3.924350,-45.273144,-52.504578,,,,,,,
1520025057.964280,0.071332,0.315392,-0.110399,-0.199528,0.005082,0.126536,0.067756,-0.310189,-0.948257,-0.059104,0.025109,0.067810,-4.278067,-44.647602,-53.010178,,,,,,,
1520025057.974264,0.070834,0.313943,-0.109231,-0.137147,-0.018508,0.092406,0.067315,-0.308811,-0.948738,-0.058664,0.023731,0.068291,-4.278067,-44.647602,-53.010178,,,,,,,
1520025057.984271,0.070403,0.312911,-0.108423,-0.101436,-0.017728,0.062116,0.066929,-0.307830,-0.949085,-0.038716,-0.010988,0.009769,-4.386717,-44.443253,-53.172768,,,,,,,
1520025057.954316,0.071756,0.317422,-0.111978,-0.250194,0.006419,0.159763,0.068113,-0.312119,-0.947598,-0.082395,0.034439,0.098142,-4.204800,-44.791889,-52.894188,,,,,,,
1520025058.004242,0.069132,0.311209,-0.107577,-0.083758,-0.075382,0.028189,0.065759,-0.306210,-0.949690,-0.042703,-0.032307,-0.022447,-4.427173,-44.382568,-53.220081,,,,,,,
1520025057.994258,0.069927,0.312039,-0.107939,-0.088131,-0.041372,0.034578,0.066496,-0.307000,-0.949384,-0.043440,-0.031516,-0.022754,-4.427173,-44.382568,-53.220081,,,,,,,
1520025058.014227,0.064140,0.313823,-0.105976,-0.075310,-0.096539,0.031502,0.060966,-0.308697,-0.949205,-0.039726,-0.067630,-0.047377,-4.511416,-44.286079,-53.293331,,,,,,,
1520025058.024212,0.062883,0.313153,-0.105554,-0.070124,-0.121901,0.037942,0.059785,-0.308060,-0.949487,-0.056474,-0.073181,-0.060187,-4.826043,-44.411606,-53.161148,,,,,,,
1520025058.034196,0.061466,0.312462,-0.105093,-0.071231,-0.125060,0.040049,0.058453,-0.307403,-0.949783,-0.055142,-0.073838,-0.059891,-4.826043,-44.411606,-53.161148,,,,,,,
1520025058.044162,0.060423,0.311721,-0.104698,-0.079561,-0.080641,0.031459,0.057476,-0.306697,-0.950070,-0.092877,-0.039845,-0.095721,-4.987199,-44.332886,-53.211952,,,,,,,
1520025058.064153,0.058969,0.309515,-0.103753,-0.127587,-0.054160,0.039190,0.056134,-0.304597,-0.950826,-0.107709,-0.012954,-0.132518,-5.050876,-44.290623,-53.241135,,,,,,,
1520025058.054169,0.059676,0.310752,-0.104265,-0.107358,-0.060477,0.038470,0.056784,-0.305775,-0.950409,-0.108359,-0.011776,-0.132935,-5.050876,-44.290623,-53.241135,,,,,,,
1520025058.074131,0.058488,0.308458,-0.103413,-0.098505,-0.029903,0.021626,0.055696,-0.303590,-0.951174,-0.129701,0.011460,-0.176985,-5.146873,-44.166538,-53.334938,,,,,,,
1520025058.084104,0.058478,0.307872,-0.103248,-0.047185,0.016764,0.009835,0.055697,-0.303032,-0.951352,-0.121172,-0.005547,-0.205890,-5.178589,-44.107841,-53.380424,,,,,,,
1520025058.094088,0.059187,0.307586,-0.103184,-0.025765,0.095242,0.003974,0.056376,-0.302759,-0.951398,-0.121852,-0.005820,-0.205844,-5.181835,-44.075500,-53.406811,,,,,,,
1520025058.104068,0.060940,0.307047,-0.102944,-0.068723,0.216318,0.025848,0.058054,-0.302245,-0.951461,-0.095713,-0.092271,-0.280168,-5.144862,-44.059826,-53.423321,,,,,,,
1520025058.114080,0.063849,0.305796,-0.102444,-0.148848,0.332999,0.043853,0.060846,-0.301052,-0.951665,-0.057397,-0.089573,-0.324245,-5.055923,-44.029320,-53.456955,,,,,,,
1520025058.124064,0.067722,0.303668,-0.101859,-0.237066,0.428174,0.040343,0.064574,-0.299022,-0.952059,-0.061125,-0.091603,-0.323851,-4.909767,-43.958954,-53.528439,,,,,,,
1520025058.134037,0.072502,0.300843,-0.101325,-0.298484,0.515870,0.026631,0.069186,-0.296325,-0.952578,0.028333,-0.003785,-0.393827,-4.711151,-43.841202,-53.642735,,,,,,,
1520025058.154019,0.084593,0.294552,-0.101058,-0.292807,0.651839,-0.043379,0.080854,-0.290312,-0.953510,0.077456,0.106306,-0.423656,-4.459396,-43.686493,-53.790272,,,,,,,
1520025058.144035,0.078169,0.297622,-0.100985,-0.327742,0.597138,0.000680,0.074656,-0.293247,-0.953117,0.083653,0.109241,-0.424049,-4.459396,-43.686493,-53.790272,,,,,,,
1520025058.164005,0.090895,0.292263,-0.101558,-0.197524,0.595505,-0.073791,0.086921,-0.288120,-0.953641,0.130913,0.272739,-0.472628,-3.792430,-43.348053,-54.114258,,,,,,,
1520025058.183974,0.100034,0.292215,-0.103856,0.166483,0.313574,-0.137204,0.095634,-0.288074,-0.952821,0.128045,0.284580,-0.447814,-3.429542,-43.229206,-54.233414,,,,,,,
1520025058.173990,0.096121,0.291259,-0.102422,-0.051288,0.463005,-0.099184,0.091931,-0.287158,-0.953462,0.131748,0.283664,-0.447173,-3.429542,-43.229206,-54.233414,,,,,,,
1520025058.193951,0.102636,0.295462,-0.105727,0.396431,0.173040,-0.145130,0.098016,-0.291181,-0.951633,0.043265,0.214613,-0.114788,-2.874814,-43.244934,-54.253113,,,,,,,
1520025058.203946,0.104269,0.300457,-0.107476,0.546611,0.096592,-0.099958,0.099418,-0.295957,-0.950013,0.041863,0.219388,-0.116408,-2.874814,-43.244934,-54.253113,,,,,,,
1520025058.213930,0.105301,0.306191,-0.108453,0.583087,0.071334,-0.007649,0.100218,-0.301429,-0.948207,0.041063,0.224861,-0.118214,-2.589760,-43.714481,-53.889946,,,,,,,
1520025058.223912,0.106083,0.311447,-0.108236,0.490429,0.091581,0.104851,0.100790,-0.306437,-0.946540,-0.002783,0.140650,0.044562,-2.535610,-44.027149,-53.637390,,,,,,,
1520025058.233902,0.106777,0.315154,-0.106642,0.302003,0.129599,0.217817,0.101326,-0.309963,-0.945334,0.034722,0.126492,0.089026,-2.523787,-44.303814,-53.409657,,,,,,,
1520025058.243886,0.107581,0.316928,-0.103826,0.098130,0.176796,0.304934,0.102026,-0.311650,-0.944704,0.064096,0.135990,0.083421,-2.544984,-44.487003,-53.256157,,,,,,,
1520025058.253872,0.107982,0.316867,-0.100037,-0.091578,0.146375,0.374018,0.102407,-0.311591,-0.944682,0.092249,0.159720,0.025782,-2.582561,-44.558334,-53.194683,,,,,,,
1520025058.263858,0.107354,0.315213,-0.095578,-0.243422,0.047765,0.410579,0.101868,-0.310019,-0.945257,0.092788,0.158148,0.026358,-2.657512,-44.525097,-53.218819,,,,,,,
1520025058.273842,0.105570,0.312700,-0.091079,-0.305849,-0.068270,0.391108,0.100264,-0.307628,-0.946209,0.088579,0.185070,0.019085,-2.796654,-44.402264,-53.314228,,,,,,,
1520025058.283817,0.102919,0.309922,-0.087035,-0.318712,-0.163343,0.340567,0.097843,-0.304984,-0.947318,0.068371,0.190543,0.014136,-2.994419,-44.233032,-53.443996,,,,,,,
,,,,,,,,,,,,,,,,44.565288,-123.271688,70.018257,-1.000000,-1.000000,1520025057.671463,
1520025058.293813,0.099729,0.307010,-0.083555,-0.327221,-0.229826,0.287030,0.094908,-0.302210,-0.948505,0.044863,0.182947,0.006198,-3.226227,-44.052757,-53.579239,,,,,,,
1520025058.303797,0.096156,0.304024,-0.080716,-0.319611,-0.283629,0.224139,0.091605,-0.299362,-0.949732,0.048166,0.180099,0.007426,-3.226227,-44.052757,-53.579239,,,,,,,
1520025058.313785,0.092433,0.301456,-0.078614,-0.254558,-0.317106,0.162310,0.088139,-0.296910,-0.950829,-0.029057,0.187276,0.029015,-3.724185,-43.686577,-53.846100,,,,,,,
1520025058.323770,0.088723,0.299820,-0.077104,-0.148395,-0.326882,0.120454,0.084654,-0.295348,-0.951632,-0.033354,0.160888,0.061434,-3.967622,-43.531822,-53.953934,,,,,,,
1520025058.333754,0.085260,0.299229,-0.076000,-0.044646,-0.306778,0.093545,0.081373,-0.294783,-0.952093,-0.030073,0.160323,0.061895,-3.967622,-43.531822,-53.953934,,,,,,,
1520025058.343720,0.082182,0.299455,-0.075307,0.035850,-0.281533,0.058768,0.078437,-0.294999,-0.952273,-0.035819,0.127443,0.095110,-4.412646,-43.390503,-54.033154,,,,,,,
1520025058.353713,0.079241,0.300338,-0.074997,0.102385,-0.288072,0.030077,0.075615,-0.295843,-0.952239,-0.044136,0.106161,0.118361,-4.412646,-43.390503,-54.033154,,,,,,,
1520025058.363697,0.076061,0.301741,-0.075069,0.153060,-0.333973,-0.004306,0.072555,-0.297183,-0.952060,-0.041076,0.107501,0.118182,-4.412646,-43.390503,-54.033154,,,,,,,
1520025058.373686,0.072810,0.303491,-0.075442,0.182242,-0.333118,-0.027246,0.069421,-0.298853,-0.951771,-0.063318,0.072794,0.199085,-4.941490,-43.516685,-53.885700,,,,,,,
1520025058.383653,0.069660,0.305302,-0.075980,0.182537,-0.330123,-0.042165,0.066385,-0.300581,-0.951443,-0.066614,0.069822,0.226864,-4.941490,-43.516685,-53.885700,,,,,,,
1520025058.393637,0.066685,0.306939,-0.076626,0.163607,-0.310159,-0.053125,0.063521,-0.302142,-0.951144,-0.063750,0.071383,0.226565,-4.941490,-43.516685,-53.885700,,,,,,,
1520025058.403632,0.064019,0.308449,-0.077300,0.153020,-0.279456,-0.055385,0.060956,-0.303581,-0.950854,-0.057630,0.061806,0.218615,-5.421999,-43.806770,-53.603710,,,,,,,
1520025058.413621,0.061707,0.309952,-0.077929,0.157158,-0.240116,-0.048834,0.058730,-0.305013,-0.950536,-0.060149,0.061177,0.215535,-5.551913,-43.892700,-53.520058,,,,,,,
1520025058.423605,0.059891,0.311700,-0.078421,0.186619,-0.180412,-0.031128,0.056971,-0.306677,-0.950107,-0.058390,0.062842,0.215106,-5.551913,-43.892700,-53.520058,,,,,,,
1520025058.433607,0.058941,0.314016,-0.078697,0.249981,-0.074901,-0.005263,0.056027,-0.308881,-0.949449,-0.056042,0.062558,0.222139,-5.752764,-44.074524,-53.349144,,,,,,,
1520025058.443589,0.058931,0.317034,-0.078687,0.315321,0.019041,0.028078,0.055962,-0.311749,-0.948515,-0.036873,0.052075,0.188108,-5.802411,-44.199272,-53.240452,,,,,,,
1520025058.453573,0.059304,0.320383,-0.078349,0.336034,0.052348,0.057306,0.056254,-0.314930,-0.947446,-0.037165,0.055256,0.187040,-5.802411,-44.199272,-53.240452,,,,,,,
1520025058.473547,0.059891,0.326263,-0.077376,0.253080,0.014960,0.054691,0.056698,-0.320505,-0.945548,0.037434,0.056834,0.147422,-5.806659,-44.694374,-52.825039,,,,,,,
1520025058.483531,0.059591,0.328244,-0.077093,0.175820,-0.032199,0.032962,0.056376,-0.322381,-0.944930,0.037755,0.058709,0.146803,-5.806659,-44.694374,-52.825039,,,,,,,
1520025058.493517,0.058859,0.329387,-0.077031,0.095473,-0.087920,0.005828,0.055663,-0.323463,-0.944602,0.059022,0.049919,0.138221,-5.846500,-44.932510,-52.618217,,,,,,,
1520025058.503502,0.057535,0.329992,-0.077167,0.055415,-0.154046,-0.014212,0.054401,-0.324035,-0.944480,0.066907,0.045623,0.134131,-5.889606,-44.991615,-52.562878,,,,,,,
1520025058.513486,0.055833,0.330569,-0.077464,0.064212,-0.184969,-0.029047,0.052783,-0.324581,-0.944384,0.068525,0.046170,0.134035,-5.889606,-44.991615,-52.562878,,,,,,,
1520025058.463562,0.059750,0.323568,-0.077836,0.306022,0.058769,0.068516,0.056616,-0.317952,-0.946415,0.012445,0.048588,0.154881,-5.808700,-44.531620,-52.962090,,,,,,,
1520025058.523473,0.054192,0.331428,-0.077952,0.096439,-0.175526,-0.044452,0.051217,-0.325393,-0.944191,0.072013,0.020950,0.118293,-6.040573,-45.056862,-52.489807,,,,,,,
1520025058.543442,0.051766,0.333816,-0.079268,0.135079,-0.131073,-0.060738,0.048887,-0.327651,-0.943533,0.068819,0.008803,0.088263,-6.116372,-45.105675,-52.439083,,,,,,,
1520025058.533458,0.052868,0.332532,-0.078571,0.118994,-0.145891,-0.054655,0.049949,-0.326438,-0.943898,0.067758,0.007590,0.088628,-6.116372,-45.105675,-52.439083,,,,,,,
1520025058.553428,0.050805,0.335081,-0.080088,0.126867,-0.119616,-0.075791,0.047959,-0.328846,-0.943165,0.041504,-0.018536,0.077473,-6.215480,-45.240929,-52.310753,,,,,,,
1520025058.563414,0.053225,0.340878,-0.082166,0.107139,-0.092384,-0.099550,0.050139,-0.334314,-0.941127,0.020983,-0.015417,0.076839,-6.247746,-45.313457,-52.244095,,,,,,,
1520025058.573398,0.053054,0.341851,-0.083435,0.105401,-0.051261,-0.118694,0.049960,-0.335232,-0.940810,0.021161,-0.014500,0.076522,-6.247746,-45.313457,-52.244095,,,,,,,
1520025058.583384,0.053140,0.342969,-0.084840,0.124761,-0.035426,-0.128983,0.050022,-0.336285,-0.940431,0.013897,-0.013981,0.057145,-6.060997,-45.691414,-51.936001,,,,,,,
1520025058.593370,0.053405,0.344339,-0.086346,0.150461,-0.020605,-0.137027,0.050246,-0.337574,-0.939957,-0.012023,-0.034587,0.025437,-6.023279,-45.760643,-51.879406,,,,,,,
1520025058.603354,0.053741,0.345903,-0.087917,0.166480,-0.016354,-0.139933,0.050534,-0.339046,-0.939412,-0.012310,-0.033116,0.024891,-6.023279,-45.760643,-51.879406,,,,,,,
1520025058.613339,0.049157,0.349973,-0.087745,0.178301,0.021791,-0.144972,0.046158,-0.342873,-0.938247,-0.049515,-0.040230,-0.043686,-5.920577,-45.936752,-51.735394,,,,,,,
1520025058.623325,0.050186,0.351982,-0.089411,0.222983,0.053747,-0.144114,0.047089,-0.344759,-0.937510,-0.053071,-0.019454,-0.079550,-6.171311,-46.143963,-51.521240,,,,,,,
1520025058.633309,0.051558,0.354700,-0.090912,0.298072,0.097744,-0.120297,0.048327,-0.347309,-0.936505,-0.054309,-0.016903,-0.080555,-6.171311,-46.143963,-51.521240,,,,,,,
1520025058.643284,0.053330,0.358093,-0.092165,0.356060,0.144925,-0.092512,0.049923,-0.350489,-0.935236,-0.029186,0.021646,-0.148856,-5.977660,-46.410919,-51.303833,,,,,,,
1520025058.653280,0.055332,0.361447,-0.093089,0.329907,0.173888,-0.060926,0.051730,-0.353628,-0.933955,0.027249,0.045675,-0.195654,-5.863035,-46.593552,-51.151295,,,,,,,
1520025058.663264,0.057076,0.364404,-0.093919,0.291667,0.127061,-0.064899,0.053299,-0.356393,-0.932815,0.025680,0.048440,-0.196793,-5.863035,-46.593552,-51.151295,,,,,,,
1520025058.673237,0.057971,0.367154,-0.094862,0.280133,0.035683,-0.074884,0.054077,-0.358961,-0.931785,0.063660,-0.062319,-0.210732,-5.643225,-46.927055,-50.870369,,,,,,,
1520025058.683236,0.058224,0.369967,-0.095823,0.287521,-0.025791,-0.072743,0.054254,-0.361585,-0.930759,0.003775,-0.157107,-0.193737,-5.581007,-47.073170,-50.742077,,,,,,,
1520025058.693220,0.058235,0.372563,-0.096770,0.250250,-0.027998,-0.071277,0.054210,-0.364003,-0.929819,-0.050166,-0.161464,-0.179037,-5.581007,-47.073170,-50.742077,,,,,,,
1520025058.703190,0.058657,0.374072,-0.097476,0.117949,0.031274,-0.052181,0.054570,-0.365409,-0.929246,-0.069737,-0.105935,-0.198882,-5.533503,-47.359772,-50.479912,,,,,,,
1520025058.713192,0.059679,0.373918,-0.098022,-0.058602,0.100752,-0.055180,0.055522,-0.365265,-0.929246,-0.068080,-0.042450,-0.255385,-5.498289,-47.440842,-50.407581,,,,,,,
1520025058.723176,0.061419,0.372071,-0.098894,-0.215023,0.149508,-0.107983,0.057180,-0.363546,-0.929820,-0.063268,0.042409,-0.326772,-5.498289,-47.440842,-50.407581,,,,,,,
1520025058.733158,0.063117,0.369311,-0.100646,-0.272669,0.084460,-0.207248,0.058822,-0.360973,-0.930719,-0.076263,0.160625,-0.399618,-5.316863,-47.351852,-50.510612,,,,,,,
1520025058.743150,0.064087,0.366540,-0.103484,-0.248406,-0.039757,-0.306242,0.059789,-0.358388,-0.931656,-0.097112,0.251744,-0.457351,-5.177887,-47.227112,-50.641666,,,,,,,
1520025058.753134,0.063867,0.364685,-0.107298,-0.125568,-0.199528,-0.386492,0.059626,-0.356655,-0.932331,-0.122188,0.279262,-0.453365,-5.047465,-47.109875,-50.763882,,,,,,,
1520025058.763092,0.062301,0.364663,-0.111836,0.082817,-0.355473,-0.434290,0.058167,-0.356635,-0.932431,-0.146439,0.261771,-0.374377,-5.047465,-47.109875,-50.763882,,,,,,,
1520025058.773087,0.059922,0.367254,-0.116797,0.356539,-0.430203,-0.448770,0.055893,-0.359054,-0.931642,-0.165741,0.226028,-0.250655,-4.917618,-47.079124,-50.805141,,,,,,,
1520025058.783071,0.057452,0.372376,-0.121726,0.592192,-0.417519,-0.420030,0.053485,-0.363830,-0.929929,-0.167178,0.196212,-0.151172,-4.917779,-47.246613,-50.649406,,,,,,,
1520025058.793064,0.055420,0.378962,-0.126141,0.700568,-0.347483,-0.357178,0.051461,-0.369956,-0.927623,-0.160424,0.180869,-0.080983,-4.917779,-47.246613,-50.649406,,,,,,,
1520025058.803056,0.054019,0.385652,-0.129840,0.672633,-0.251231,-0.288165,0.050027,-0.376163,-0.925202,-0.138955,0.167438,-0.047821,-4.934718,-47.899719,-50.030537,,,,,,,
1520025058.813040,0.053540,0.391245,-0.132713,0.534041,-0.126645,-0.218929,0.049471,-0.381340,-0.923110,-0.106493,0.147346,-0.019852,-4.926186,-48.257240,-49.686623,,,,,,,
1520025058.823030,0.053889,0.394865,-0.134821,0.314818,-0.018346,-0.161822,0.049718,-0.384684,-0.921708,-0.086797,0.151011,-0.017943,-4.926186,-48.257240,-49.686623,,,,,,,
1520025058.832997,0.055038,0.396159,-0.136359,0.079099,0.081084,-0.131687,0.050750,-0.385878,-0.921153,-0.079284,0.168120,-0.040029,-4.827350,-48.744511,-49.218483,,,,,,,
1520025058.842981,0.057051,0.395453,-0.137902,-0.103433,0.155593,-0.155043,0.052620,-0.385226,-0.921321,-0.068748,0.173572,-0.080098,-4.827350,-48.744511,-49.218483,,,,,,,
1520025058.852985,0.059311,0.393672,-0.139852,-0.181222,0.142042,-0.203374,0.054742,-0.383582,-0.921883,-0.048791,0.181403,-0.115821,-4.593198,-48.794365,-49.191479,,,,,,,
1520025058.862970,0.061401,0.391616,-0.142326,-0.189773,0.107418,-0.255850,0.056716,-0.381683,-0.922552,-0.018356,0.202438,-0.110331,-4.426201,-48.720520,-49.279903,,,,,,,
1520025058.872954,0.063483,0.389828,-0.145579,-0.146783,0.074761,-0.331933,0.058681,-0.380030,-0.923111,-0.020320,0.200785,-0.109772,-4.426201,-48.720520,-49.279903,,,,,,,
1520025058.882939,0.065392,0.388642,-0.149676,-0.076269,0.021054,-0.401171,0.060473,-0.378932,-0.923447,-0.020510,0.190135,-0.044083,-4.059681,-48.570580,-49.459141,,,,,,,
1520025058.892927,0.066959,0.388009,-0.154214,-0.024678,-0.023690,-0.428070,0.061935,-0.378346,-0.923590,-0.021972,0.189549,-0.043940,-4.059681,-48.570580,-49.459141,,,,,,,
1520025058.902911,0.068421,0.387585,-0.158716,-0.014314,-0.021363,-0.414018,0.063296,-0.377953,-0.923658,-0.028522,0.182488,0.008406,-3.656819,-48.537746,-49.522762,,,,,,,
1520025058.922883,0.071581,0.386434,-0.166259,-0.033527,0.040446,-0.302262,0.066246,-0.376888,-0.923887,-0.015327,0.160960,0.115873,-3.465491,-48.545631,-49.528790,,,,,,,
1520025058.912895,0.069971,0.387023,-0.162829,-0.035358,0.007749,-0.371677,0.064743,-0.377433,-0.923771,-0.013824,0.161506,0.115757,-3.465491,-48.545631,-49.528790,,,,,,,
1520025058.932867,0.073189,0.386138,-0.168800,-0.002250,0.072385,-0.215263,0.067740,-0.376614,-0.923890,0.005136,0.151669,0.172135,-3.107851,-48.536125,-49.561832,,,,,,,
1520025058.942851,0.074687,0.386331,-0.170455,0.039745,0.092635,-0.132363,0.069118,-0.376792,-0.923715,0.029698,0.129508,0.271875,-2.960591,-48.537148,-49.569839,,,,,,,
1520025058.962796,0.077713,0.387102,-0.171349,0.026390,0.159039,0.006166,0.071890,-0.377506,-0.923212,0.031778,0.117710,0.303660,-2.843704,-48.556671,-49.557564,,,,,,,
1520025058.952812,0.076164,0.386773,-0.171251,0.049855,0.126565,-0.051068,0.070469,-0.377202,-0.923446,0.033199,0.117405,0.303894,-2.843704,-48.556671,-49.557564,,,,,,,
1520025058.972807,0.079250,0.387084,-0.170969,-0.016912,0.166816,0.043803,0.073310,-0.377490,-0.923107,0.022225,0.087634,0.306942,-2.673265,-48.599991,-49.524574,,,,,,,
1520025058.992758,0.081640,0.385321,-0.169368,-0.143044,0.131821,0.072417,0.075570,-0.375857,-0.923591,0.020011,0.090518,0.291389,-2.606996,-48.596848,-49.531193,,,,,,,
1520025058.982774,0.080588,0.386517,-0.170253,-0.076964,0.157397,0.067244,0.074562,-0.376965,-0.923222,0.021019,0.091625,0.291019,-2.606996,-48.596848,-49.531193,,,,,,,
1520025059.002762,0.082542,0.383607,-0.168538,-0.185363,0.118818,0.059909,0.076456,-0.374268,-0.924163,0.009817,0.087998,0.283905,-2.523496,-48.500378,-49.629974,,,,,,,
1520025059.022726,0.084647,0.379735,-0.166779,-0.201518,0.160272,0.070369,0.078523,-0.370674,-0.925438,-0.031221,0.098762,0.242546,-2.493572,-48.410805,-49.718857,,,,,,,
1520025059.012742,0.083475,0.381686,-0.167704,-0.200315,0.128360,0.062861,0.077378,-0.372486,-0.924806,-0.030076,0.100574,0.241914,-2.493572,-48.410805,-49.718857,,,,,,,
1520025059.032718,0.086036,0.377852,-0.165776,-0.191065,0.181639,0.080195,0.079869,-0.368925,-0.926021,-0.051762,0.095869,0.191906,-2.419048,-48.208553,-49.918659,,,,,,,
1520025059.042680,0.087500,0.376230,-0.164561,-0.162848,0.194773,0.106317,0.081277,-0.367416,-0.926498,-0.089608,0.085083,0.107864,-2.368077,-48.109043,-50.017014,,,,,,,
1520025059.052664,0.088948,0.375093,-0.163082,-0.111274,0.199519,0.134969,0.082655,-0.366360,-0.926795,-0.090986,0.084026,0.108161,-2.319732,-48.020897,-50.103905,,,,,,,
1520025059.062674,0.090371,0.374575,-0.161385,-0.051086,0.206346,0.158447,0.083990,-0.365877,-0.926865,-0.095480,0.079042,0.094483,-2.280890,-47.955162,-50.168610,,,,,,,
1520025059.072648,0.091734,0.374602,-0.159530,-0.002495,0.201402,0.176363,0.085253,-0.365902,-0.926740,-0.080843,0.050655,0.078291,-2.251497,-47.918701,-50.204762,,,,,,,
1520025059.082632,0.092799,0.374980,-0.157623,0.028258,0.166544,0.181106,0.086227,-0.366254,-0.926511,-0.081817,0.051008,0.078061,-2.231469,-47.908295,-50.215580,,,,,,,
1520025059.092630,0.093472,0.375512,-0.155747,0.038969,0.127275,0.176952,0.086832,-0.366749,-0.926259,-0.074579,0.038365,0.083653,-2.229264,-47.914989,-50.209297,,,,,,,
1520025059.102616,0.093926,0.376126,-0.154015,0.048831,0.102721,0.162148,0.087232,-0.367320,-0.925995,-0.057080,0.019389,0.085816,-2.246614,-47.929432,-50.194733,,,,,,,
1520025059.112600,0.094062,0.376915,-0.152523,0.071598,0.055836,0.140064,0.087331,-0.368054,-0.925694,-0.057179,0.020123,0.085515,-2.271565,-47.948776,-50.175133,,,,,,,
1520025059.122585,0.093806,0.377934,-0.151325,0.096576,0.007843,0.113751,0.087058,-0.369001,-0.925343,-0.053946,0.014829,0.084690,-2.307040,-47.978310,-50.145267,,,,,,,
1520025059.132554,0.093298,0.379171,-0.150432,0.122622,-0.024235,0.087490,0.086546,-0.370150,-0.924932,-0.063886,-0.011869,0.084935,-2.355567,-48.021111,-50.102032,,,,,,,
1520025059.142538,0.092800,0.380723,-0.149817,0.160271,-0.024389,0.066830,0.086032,-0.371592,-0.924401,-0.063373,-0.010427,0.084405,-2.409707,-48.076645,-50.046165,,,,,,,
1520025059.152535,0.092748,0.382720,-0.149333,0.207169,0.027674,0.063502,0.085915,-0.373445,-0.923665,-0.065086,-0.011916,0.075780,-2.457508,-48.149574,-49.973671,,,,,,,
1520025059.162523,0.086136,0.389646,-0.145976,0.248284,0.112896,0.084675,0.079581,-0.379861,-0.921614,-0.055945,-0.028068,0.023680,-2.481574,-48.245178,-49.880188,,,,,,,
1520025059.172507,0.087621,0.392306,-0.145045,0.256186,0.207726,0.116998,0.080861,-0.382320,-0.920485,-0.057225,-0.025609,0.022551,-2.927283,-48.564255,-49.545265,,,,,,,
1520025059.182484,0.089663,0.394864,-0.143739,0.239572,0.266445,0.150946,0.082653,-0.384682,-0.919341,-0.045253,-0.028755,-0.013856,-2.889149,-48.688522,-49.425392,,,,,,,
1520025059.192460,0.092070,0.397288,-0.142171,0.225356,0.314390,0.171051,0.084779,-0.386919,-0.918208,-0.021455,-0.011610,-0.100346,-2.833220,-48.804962,-49.313667,,,,,,,
1520025059.202444,0.094770,0.399590,-0.140494,0.212493,0.338815,0.176203,0.087173,-0.389041,-0.917087,-0.023849,-0.009488,-0.101468,-2.766000,-48.912762,-49.210571,,,,,,,
1520025059.212442,0.097531,0.401689,-0.138751,0.186862,0.346230,0.181095,0.089625,-0.390973,-0.916028,-0.020702,-0.013309,-0.138522,-2.687156,-49.013588,-49.114521,,,,,,,
1520025059.222430,0.100121,0.403501,-0.137058,0.159430,0.315240,0.168814,0.091927,-0.392640,-0.915086,-0.008004,-0.009566,-0.180449,-2.606545,-49.103775,-49.028709,,,,,,,
1520025059.232414,0.102205,0.405127,-0.135613,0.147175,0.246981,0.141800,0.093769,-0.394135,-0.914256,-0.009845,-0.008071,-0.181279,-2.606545,-49.103775,-49.028709,,,,,,,
1520025059.242389,0.103575,0.406638,-0.134452,0.135959,0.162828,0.115838,0.094959,-0.395524,-0.913534,-0.018924,-0.029601,-0.183772,-2.475465,-49.249023,-48.889618,,,,,,,
1520025059.252393,0.104558,0.407797,-0.133382,0.093533,0.140345,0.108640,0.095809,-0.396588,-0.912983,-0.061614,-0.122669,-0.186367,-2.446095,-49.314114,-48.825447,,,,,,,
1520025059.262377,0.105800,0.408387,-0.132305,0.032998,0.181479,0.103381,0.096918,-0.397130,-0.912631,-0.062723,-0.122127,-0.186719,-2.431580,-49.362701,-48.777046,,,,,,,
1520025059.272364,0.107681,0.408406,-0.131259,-0.021065,0.243793,0.094014,0.098634,-0.397147,-0.912439,-0.050004,-0.041558,-0.290533,-2.401776,-49.383736,-48.757233,,,,,,,
1520025059.292333,0.112047,0.406952,-0.129108,-0.114578,0.263613,0.088126,0.102681,-0.395812,-0.912573,-0.032826,-0.037644,-0.341989,-2.337015,-49.377407,-48.766781,,,,,,,
1520025059.282349,0.109847,0.407900,-0.130201,-0.075265,0.262697,0.090956,0.100632,-0.396683,-0.912423,-0.030778,-0.036773,-0.342139,-2.337015,-49.377407,-48.766781,,,,,,,
1520025059.302319,0.114439,0.405683,-0.128160,-0.141787,0.283404,0.065288,0.104921,-0.394647,-0.912823,0.033247,0.043481,-0.389912,-2.171266,-49.292213,-48.860542,,,,,,,
1520025059.312305,0.117078,0.404279,-0.127566,-0.146347,0.285022,0.027949,0.107395,-0.393356,-0.913092,0.053570,0.138183,-0.398218,-2.071532,-49.224247,-48.933334,,,,,,,
1520025059.322289,0.119472,0.403158,-0.127448,-0.096633,0.227383,-0.011806,0.109633,-0.392325,-0.913270,0.051332,0.137153,-0.398040,-2.071532,-49.224247,-48.933334,,,,,,,
1520025059.332274,0.121260,0.403022,-0.127701,0.024942,0.151161,-0.026861,0.111272,-0.392200,-0.913125,0.054362,0.194202,-0.387473,-1.828617,-49.096909,-49.070747,,,,,,,
1520025059.342259,0.122494,0.404475,-0.128137,0.190754,0.092325,-0.018700,0.112329,-0.393536,-0.912421,0.030738,0.207242,-0.283197,-1.733597,-49.092087,-49.079025,,,,,,,
1520025059.352243,0.123314,0.407398,-0.128493,0.325264,0.061269,0.012421,0.112934,-0.396222,-0.911183,-0.004475,0.207226,-0.197536,-1.670621,-49.165581,-49.007587,,,,,,,
1520025059.362215,0.123731,0.411290,-0.128428,0.399642,0.039939,0.071286,0.113124,-0.399792,-0.909598,-0.030757,0.218747,-0.126214,-1.639064,-49.309456,-48.863895,,,,,,,
1520025059.372209,0.118465,0.393260,-0.125448,0.387264,0.033539,0.156369,0.109166,-0.383202,-0.917191,-0.035115,0.194206,-0.062103,-1.644053,-49.496590,-48.674156,,,,,,,
1520025059.382193,0.117966,0.396665,-0.123499,0.287741,0.021568,0.238823,0.108554,-0.386344,-0.915944,-0.034503,0.197349,-0.063349,-1.644053,-49.496590,-48.674156,,,,,,,
1520025059.392179,0.117027,0.398783,-0.120536,0.139419,0.023160,0.314038,0.107598,-0.388297,-0.915231,0.032203,0.127768,-0.004630,-1.966170,-48.752823,-49.407341,,,,,,,
1520025059.402171,0.115999,0.399380,-0.116761,-0.020112,0.050929,0.364579,0.106630,-0.388847,-0.915111,0.055265,0.125069,0.014964,-2.100365,-48.834827,-49.320759,,,,,,,
1520025059.442111,0.118859,0.376214,-0.100087,-0.659114,0.055886,0.392684,0.110286,-0.367402,-0.923500,0.127812,0.186723,0.013436,-2.076784,-48.129128,-50.010632,,,,,,,
1520025059.412155,0.114867,0.398518,-0.112320,-0.170992,0.059537,0.407771,0.105633,-0.388053,-0.915564,0.074665,0.133460,0.020346,-2.100365,-48.834827,-49.320759,,,,,,,
1520025059.422123,0.121265,0.385938,-0.110300,-0.328878,0.073151,0.427381,0.112070,-0.376428,-0.919642,0.082342,0.141519,0.037166,-2.415079,-48.761703,-49.378662,,,,,,,
1520025059.432127,0.120126,0.381892,-0.105166,-0.503276,0.075782,0.422154,0.111204,-0.372677,-0.921274,0.105333,0.157406,0.028436,-2.076784,-48.129128,-50.010632,,,,,,,
1520025059.452088,0.117321,0.369165,-0.095475,-0.779063,-0.007900,0.323241,0.109166,-0.360837,-0.926218,0.125957,0.217359,-0.036276,-2.401392,-47.568283,-50.529999,,,,,,,
1520025059.462083,0.115523,0.359937,-0.091999,-0.843065,-0.127091,0.221622,0.107880,-0.352215,-0.929681,0.099349,0.226407,-0.074287,-2.556984,-47.179157,-50.885929,,,,,,,
1520025059.472067,0.112693,0.351796,-0.089400,-0.828449,-0.210975,0.126803,0.105568,-0.344584,-0.932801,0.101662,0.218775,-0.071167,-2.556984,-47.179157,-50.885929,,,,,,,
1520025059.482055,0.109700,0.344243,-0.087780,-0.743937,-0.252019,0.049308,0.103057,-0.337484,-0.935673,0.053345,0.205343,-0.075558,-2.855141,-46.250580,-51.715771,,,,,,,
1520025059.492038,0.106857,0.337751,-0.087018,-0.621418,-0.258818,-0.012513,0.100628,-0.331366,-0.938121,-0.050136,0.193381,-0.037542,-3.012857,-45.850338,-52.062061,,,,,,,
1520025059.502022,0.104401,0.332531,-0.086948,-0.489593,-0.237836,-0.060250,0.098503,-0.326436,-0.940073,-0.062660,0.166448,0.001703,-3.148611,-45.509338,-52.352417,,,,,,,
1520025059.511997,0.102450,0.328474,-0.087407,-0.370823,-0.201855,-0.093259,0.096803,-0.322599,-0.941573,-0.062776,0.130780,0.054259,-3.148611,-45.509338,-52.352417,,,,,,,
1520025059.521989,0.100915,0.325290,-0.088227,-0.291663,-0.175380,-0.114193,0.095460,-0.319584,-0.942737,-0.064973,0.107685,0.096637,-3.326426,-45.030769,-52.753708,,,,,,,
1520025059.531973,0.099527,0.322645,-0.089339,-0.244378,-0.175545,-0.137881,0.094236,-0.317077,-0.943707,-0.074796,0.094039,0.138515,-3.372192,-44.871326,-52.886497,,,,,,,
1520025059.541963,0.098113,0.320175,-0.090701,-0.233323,-0.186387,-0.159034,0.092978,-0.314733,-0.944615,-0.094885,0.076940,0.190740,-3.372192,-44.871326,-52.886497,,,,,,,
1520025059.551950,0.096778,0.317570,-0.092267,-0.252068,-0.181394,-0.179619,0.091796,-0.312259,-0.945552,-0.112044,0.070453,0.230204,-3.435006,-44.623653,-53.091614,,,,,,,
1520025059.561934,0.095590,0.314804,-0.094074,-0.259028,-0.173236,-0.204254,0.090754,-0.309631,-0.946516,-0.121211,0.065078,0.259657,-3.454792,-44.499496,-53.194439,,,,,,,
1520025059.571920,0.094432,0.312220,-0.096067,-0.230079,-0.179661,-0.215483,0.089733,-0.307172,-0.947414,-0.121960,0.061231,0.274471,-3.454792,-44.499496,-53.194439,,,,,,,
1520025059.581905,0.093126,0.310320,-0.098048,-0.149497,-0.194108,-0.201283,0.088550,-0.305364,-0.948110,-0.114322,0.056310,0.284658,-3.460324,-44.248245,-53.403259,,,,,,,
1520025059.591889,0.091751,0.309350,-0.099863,-0.058505,-0.192467,-0.175135,0.087273,-0.304440,-0.948525,-0.104531,0.051861,0.288491,-3.460324,-44.248245,-53.403259,,,,,,,
