Timestamp,accelX,accelY,accelZ,gyroX(rad/s),gyroY(rad/s),gyroZ(rad/s),Roll(rads),Pitch(rads),Yaw(rads),Lat,Long,Speed(mph),TrueHeading,Alt(feet),ActivityType,ActivityConfidence,Pressure(kilopascals),RelativeAltitude(meters),magX(µT),magY(µT),magZ(µT),calMagX,calMagY,calMagZ
15-Mar-2018 17:31:25.274, 0.0087, 0.0172,-0.9885, 0.0000, 0.0000, 0.0000, 0.0000, 0.0000, 0.0000,,, 0.0000, 0.0000, 0.000000,Unknown,Low, 0.0000, 0.0000, 0.0000, 0.0000, 0.0000, 0.0000, 0.0000, 0.0000
15-Mar-2018 17:31:25.290, 0.0095, 0.0176,-0.9871, 0.0000, 0.0000, 0.0000, 0.0000, 0.0000, 0.0000,44.567577,-123.274492, 0.0000, 0.0000, 243.977051,Unknown,Low, 0.0000, 0.0000, 0.0000, 0.0000, 0.0000, 0.0000, 0.0000, 0.0000
15-Mar-2018 17:31:25.299, 0.0084, 0.0172,-0.9883, 0.0000, 0.0000, 0.0000, 0.0000, 0.0000, 0.0000,44.567577,-123.274492, 0.0000, 0.0000, 243.977051,Unknown,Low, 0.0000, 0.0000, 0.0000, 0.0000, 0.0000, 0.0000, 0.0000, 0.0000
15-Mar-2018 17:31:25.312, 0.0090, 0.0171,-0.9896, 0.0000, 0.0000, 0.0000, 0.0000, 0.0000, 0.0000,44.567577,-123.274492, 0.0000, 0.0000, 243.977051,Unknown,Low, 0.0000, 0.0000, 79.0923, 39.8063,-504.3929, 0.0000, 0.0000, 0.0000
15-Mar-2018 17:31:25.321, 0.0085, 0.0172,-0.9878, 0.0000, 0.0000, 0.0000, 0.0000, 0.0000, 0.0000,44.567577,-123.274492, 0.0000, 0.0000, 243.977051,Unknown,Low, 0.0000, 0.0000, 79.0923, 39.8063,-504.3929, 0.0000, 0.0000, 0.0000
15-Mar-2018 17:31:25.329, 0.0100, 0.0167,-0.9897, 0.0000, 0.0000, 0.0000, 0.0000, 0.0000, 0.0000,44.567577,-123.274492, 0.0000, 0.0000, 243.977051,Unknown,Low, 0.0000, 0.0000, 79.0923, 39.8063,-504.3929, 0.0000, 0.0000, 0.0000
15-Mar-2018 17:31:25.339, 0.0108, 0.0172,-0.9886, 0.0000, 0.0000, 0.0000, 0.0000, 0.0000, 0.0000,44.567577,-123.274492, 0.0000, 0.0000, 243.977051,Unknown,Low, 0.0000, 0.0000, 79.0923, 39.8063,-504.3929, 0.0000, 0.0000, 0.0000
15-Mar-2018 17:31:25.350, 0.0088, 0.0170,-0.9873, 0.0000, 0.0000, 0.0000, 0.0000, 0.0000, 0.0000,44.567577,-123.274492, 0.0000, 0.0000, 243.977051,Unknown,Low, 0.0000, 0.0000, 77.1328, 39.9856,-503.1993, 0.0000, 0.0000, 0.0000
15-Mar-2018 17:31:25.364, 0.0097, 0.0169,-0.9875,-0.0296, 0.0539,-0.0068, 0.0096,-0.0179,-0.0000,44.567577,-123.274492, 0.0000, 0.0000, 243.977051,Unknown,Low, 0.0000, 0.0000, 77.1328, 39.9856,-503.1993, 0.0000, 0.0000, 0.0000
15-Mar-2018 17:31:25.368, 0.0088, 0.0169,-0.9917,-0.0296, 0.0539,-0.0068, 0.0096,-0.0179,-0.0000,44.567577,-123.274492, 0.0000, 0.0000, 243.977051,Unknown,Low, 0.0000, 0.0000, 77.1328, 39.9856,-503.1993, 0.0000, 0.0000, 0.0000
15-Mar-2018 17:31:25.379, 0.0098, 0.0165,-0.9910,-0.0296, 0.0539,-0.0079, 0.0104,-0.0183,-0.0001,44.567577,-123.274492, 0.0000, 0.0000, 243.977051,Unknown,Low, 0.0000, 0.0000, 77.1328, 39.9856,-503.1993, 0.0000, 0.0000, 0.0000
15-Mar-2018 17:31:25.388, 0.0099, 0.0181,-0.9897,-0.0307, 0.0550,-0.0079, 0.0112,-0.0188,-0.0002,44.567577,-123.274492, 0.0000, 0.0000, 243.977051,Unknown,Low, 0.0000, 0.0000, 77.8454, 39.2684,-504.5634, 0.0000, 0.0000, 0.0000
15-Mar-2018 17:31:25.398, 0.0086, 0.0180,-0.9871,-0.0307, 0.0550,-0.0079, 0.0112,-0.0188,-0.0002,44.567577,-123.274492, 0.0000, 0.0000, 243.977051,Unknown,Low, 0.0000, 0.0000, 77.8454, 39.2684,-504.5634, 0.0000, 0.0000, 0.0000
15-Mar-2018 17:31:25.407, 0.0075, 0.0174,-0.9886,-0.0296, 0.0529,-0.0068, 0.0117,-0.0191,-0.0004,44.567577,-123.274492, 0.0000, 0.0000, 243.977051,Unknown,Low, 0.0000, 0.0000, 77.8454, 39.2684,-504.5634, 0.0000, 0.0000, 0.0000
15-Mar-2018 17:31:25.417, 0.0083, 0.0173,-0.9892,-0.0307, 0.0529,-0.0068, 0.0120,-0.0194,-0.0005,44.567577,-123.274492, 0.0000, 0.0000, 243.977051,Unknown,Low, 0.0000, 0.0000, 77.8454, 39.2684,-504.5634, 0.0000, 0.0000, 0.0000
15-Mar-2018 17:31:25.432, 0.0081, 0.0149,-0.9861,-0.0307, 0.0529,-0.0068, 0.0120,-0.0194,-0.0005,44.567577,-123.274492, 0.0000, 0.0000, 243.977051,Unknown,Low, 0.0000, 0.0000, 76.9547, 40.8822,-505.4160, 0.0000, 0.0000, 0.0000
15-Mar-2018 17:31:25.436, 0.0085, 0.0158,-0.9894,-0.0296, 0.0507,-0.0068, 0.0124,-0.0195,-0.0006,44.567577,-123.274492, 0.0000, 0.0000, 243.977051,Unknown,Low, 0.0000, 0.0000, 76.9547, 40.8822,-505.4160, 0.0000, 0.0000, 0.0000
15-Mar-2018 17:31:25.450, 0.0094, 0.0159,-0.9894,-0.0296, 0.0518,-0.0079, 0.0129,-0.0196,-0.0007,44.567577,-123.274492, 0.0000, 0.0000, 243.977051,Unknown,Low, 0.0000, 0.0000, 76.9547, 40.8822,-505.4160, 0.0000, 0.0000, 0.0000
15-Mar-2018 17:31:25.456, 0.0087, 0.0168,-0.9883,-0.0296, 0.0518,-0.0079, 0.0129,-0.0196,-0.0007,44.567577,-123.274492, 0.0000, 0.0000, 243.977051,Unknown,Low, 0.0000, 0.0000, 76.9547, 40.8822,-505.4160, 0.0000, 0.0000, 0.0000
15-Mar-2018 17:31:25.467, 0.0078, 0.0174,-0.9904,-0.0307, 0.0529,-0.0079, 0.0133,-0.0199,-0.0008,44.567577,-123.274492, 0.0000, 0.0000, 243.977051,Unknown,Low, 0.0000, 0.0000, 78.9142, 41.0615,-504.5634, 0.0000, 0.0000, 0.0000
15-Mar-2018 17:31:25.479, 0.0090, 0.0183,-0.9878,-0.0307, 0.0539,-0.0079, 0.0137,-0.0201,-0.0009,44.567577,-123.274492, 0.0000, 0.0000, 243.977051,Unknown,Low, 0.0000, 0.0000, 78.9142, 41.0615,-504.5634, 0.0000, 0.0000, 0.0000
15-Mar-2018 17:31:25.490, 0.0093, 0.0176,-0.9892,-0.0307, 0.0539,-0.0079, 0.0137,-0.0201,-0.0009,44.567577,-123.274492, 0.0000, 0.0000, 243.977051,Unknown,Low, 0.0000, 0.0000, 78.9142, 41.0615,-504.5634, 0.0000, 0.0000, 0.0000
15-Mar-2018 17:31:25.520, 0.0088, 0.0165,-0.9888,-0.0307, 0.0550,-0.0079, 0.0145,-0.0206,-0.0011,44.567577,-123.274492, 0.0000, 0.0000, 243.977051,Unknown,Low, 0.0000, 0.0000, 78.9142, 41.0615,-504.5634, 0.0000, 0.0000, 0.0000
15-Mar-2018 17:31:25.534, 0.0083, 0.0180,-0.9892,-0.0296, 0.0539,-0.0079, 0.0149,-0.0208,-0.0012,44.567577,-123.274492, 0.0000, 0.0000, 243.977051,Unknown,Low, 0.0000, 0.0000, 77.6673, 40.8822,-505.0750, 0.0000, 0.0000, 0.0000
15-Mar-2018 17:31:25.540, 0.0088, 0.0179,-0.9902,-0.0307, 0.0539,-0.0068, 0.0154,-0.0211,-0.0013,44.567577,-123.274492, 0.0000, 0.0000, 243.977051,Unknown,Low, 0.0000, 0.0000, 77.6673, 40.8822,-505.0750, 0.0000, 0.0000, 0.0000
15-Mar-2018 17:31:25.546, 0.0079, 0.0172,-0.9879,-0.0307, 0.0539,-0.0068, 0.0154,-0.0211,-0.0013,44.567577,-123.274492, 0.0000, 0.0000, 243.977051,Unknown,Low, 0.0000, 0.0000, 77.6673, 40.8822,-505.0750, 0.0000, 0.0000, 0.0000
15-Mar-2018 17:31:25.553, 0.0079, 0.0172,-0.9879,-0.0307, 0.0539,-0.0079, 0.0157,-0.0213,-0.0015,44.567577,-123.274492, 0.0000, 0.0000, 243.977051,Unknown,Low, 0.0000, 0.0000, 77.6673, 40.8822,-505.0750, 0.0000, 0.0000, 0.0000
15-Mar-2018 17:31:25.565, 0.0088, 0.0173,-0.9888,-0.0307, 0.0539,-0.0079, 0.0157,-0.0213,-0.0015,44.567577,-123.274492, 0.0000, 0.0000, 243.977051,Unknown,Low, 0.0000, 0.0000, 78.7361, 40.1649,-504.7339, 0.0000, 0.0000, 0.0000
15-Mar-2018 17:31:25.570, 0.0088, 0.0173,-0.9888,-0.0286, 0.0550,-0.0057, 0.0162,-0.0216,-0.0016,44.567577,-123.274492, 0.0000, 0.0000, 243.977051,Unknown,Low, 0.0000, 0.0000, 78.7361, 40.1649,-504.7339, 0.0000, 0.0000, 0.0000
15-Mar-2018 17:31:25.580, 0.0091, 0.0175,-0.9888,-0.0286, 0.0550,-0.0057, 0.0162,-0.0216,-0.0016,44.567577,-123.274492, 0.0000, 0.0000, 243.977051,Unknown,Low, 0.0000, 0.0000, 78.7361, 40.1649,-504.7339, 0.0000, 0.0000, 0.0000
15-Mar-2018 17:31:25.586, 0.0090, 0.0163,-0.9898,-0.0328, 0.0571,-0.0069, 0.0166,-0.0219,-0.0017,44.567577,-123.274492, 0.0000, 0.0000, 243.977051,Unknown,Low, 0.0000, 0.0000, 78.7361, 40.1649,-504.7339, 0.0000, 0.0000, 0.0000
15-Mar-2018 17:31:25.612, 0.0093, 0.0167,-0.9885,-0.0296, 0.0529,-0.0079, 0.0174,-0.0223,-0.0019,44.567577,-123.274492, 0.0000, 0.0000, 243.977051,Unknown,Low, 0.0000, 0.0000, 78.7361, 40.1649,-504.7339, 0.0000, 0.0000, 0.0000
15-Mar-2018 17:31:25.622, 0.0081, 0.0163,-0.9879,-0.0296, 0.0529,-0.0079, 0.0174,-0.0223,-0.0019,44.567577,-123.274492, 0.0000, 0.0000, 243.977051,Unknown,Low, 0.0000, 0.0000, 78.0235, 40.5236,-503.0287, 0.0000, 0.0000, 0.0000
15-Mar-2018 17:31:25.638, 0.0080, 0.0154,-0.9891,-0.0318, 0.0539,-0.0069, 0.0178,-0.0225,-0.0020,44.567577,-123.274492, 0.0000, 0.0000, 243.977051,Unknown,Low, 0.0000, 0.0000, 78.0235, 40.5236,-503.0287, 0.0000, 0.0000, 0.0000
15-Mar-2018 17:31:25.656, 0.0081, 0.0171,-0.9879,-0.0317, 0.0518,-0.0079, 0.0182,-0.0227,-0.0021,44.567577,-123.274492, 0.0000, 0.0000, 243.977051,Unknown,Low, 0.0000, 0.0000, 78.0235, 40.5236,-503.0287, 0.0000, 0.0000, 0.0000
15-Mar-2018 17:31:25.658, 0.0081, 0.0171,-0.9879,-0.0317, 0.0518,-0.0079, 0.0182,-0.0227,-0.0021,44.567577,-123.274492, 0.0000, 0.0000, 243.977051,Unknown,Low, 0.0000, 0.0000, 78.0235, 40.5236,-503.0287, 0.0000, 0.0000, 0.0000
15-Mar-2018 17:31:25.669, 0.0091, 0.0173,-0.9889,-0.0317, 0.0539,-0.0079, 0.0177,-0.0225,-0.0021,44.567577,-123.274492, 0.0000, 0.0000, 243.977051,Unknown,Low, 0.0000, 0.0000, 78.9142, 40.7029,-503.5403, 0.0000, 0.0000, 0.0000
15-Mar-2018 17:31:25.674, 0.0097, 0.0164,-0.9889,-0.0307, 0.0529,-0.0079, 0.0173,-0.0223,-0.0021,44.567577,-123.274492, 0.0000, 0.0000, 243.977051,Stationary,High, 0.0000, 0.0000, 78.9142, 40.7029,-503.5403, 0.0000, 0.0000, 0.0000
15-Mar-2018 17:31:25.679, 0.0097, 0.0164,-0.9889,-0.0307, 0.0529,-0.0079, 0.0173,-0.0223,-0.0021,44.567577,-123.274492, 0.0000, 0.0000, 243.977051,Stationary,High, 0.0000, 0.0000, 78.9142, 40.7029,-503.5403, 0.0000, 0.0000, 0.0000
15-Mar-2018 17:31:25.687, 0.0106, 0.0156,-0.9889,-0.0286, 0.0529,-0.0079, 0.0170,-0.0220,-0.0021,44.567577,-123.274492, 0.0000, 0.0000, 243.977051,Stationary,High, 0.0000, 0.0000, 78.9142, 40.7029,-503.5403, 0.0000, 0.0000, 0.0000
15-Mar-2018 17:31:25.697, 0.0093, 0.0176,-0.9892,-0.0286, 0.0529,-0.0079, 0.0170,-0.0220,-0.0021,44.567577,-123.274492, 0.0000, 0.0000, 243.977051,Stationary,High, 0.0000, 0.0000, 78.9142, 40.7029,-503.5403, 0.0000, 0.0000, 0.0000
15-Mar-2018 17:31:25.700, 0.0093, 0.0176,-0.9892,-0.0286, 0.0529,-0.0079, 0.0170,-0.0220,-0.0021,44.567577,-123.274492, 0.0000, 0.0000, 243.977051,Stationary,High, 0.0000, 0.0000, 78.9142, 40.7029,-503.5403, 0.0000, 0.0000, 0.0000
15-Mar-2018 17:31:25.716, 0.0071, 0.0179,-0.9882,-0.0307, 0.0550,-0.0068, 0.0163,-0.0217,-0.0021,44.567577,-123.274492, 0.0000, 0.0000, 243.977051,Stationary,High, 0.0000, 0.0000, 78.9142, 40.7029,-503.5403, 0.0000, 0.0000, 0.0000
15-Mar-2018 17:31:25.718, 0.0071, 0.0179,-0.9882,-0.0296, 0.0529,-0.0068, 0.0163,-0.0217,-0.0021,44.567577,-123.274492, 0.0000, 0.0000, 243.977051,Stationary,High, 0.0000, 0.0000, 78.9142, 40.7029,-503.5403, 0.0000, 0.0000, 0.0000
15-Mar-2018 17:31:25.731, 0.0086, 0.0162,-0.9891,-0.0296, 0.0529,-0.0068, 0.0163,-0.0217,-0.0021,44.567577,-123.274492, 0.0000, 0.0000, 243.977051,Stationary,High, 0.0000, 0.0000, 79.0923, 40.1649,-505.7570, 0.0000, 0.0000, 0.0000
15-Mar-2018 17:31:25.735, 0.0084, 0.0170,-0.9902,-0.0296, 0.0529,-0.0068, 0.0160,-0.0215,-0.0021,44.567577,-123.274492, 0.0000, 0.0000, 243.977051,Stationary,High, 0.0000, 0.0000, 79.0923, 40.1649,-505.7570, 0.0000, 0.0000, 0.0000
15-Mar-2018 17:31:25.748, 0.0079, 0.0169,-0.9869,-0.0307, 0.0529,-0.0058, 0.0157,-0.0214,-0.0021,44.567577,-123.274492, 0.0000, 0.0000, 243.977051,Stationary,High, 0.0000, 0.0000, 79.0923, 40.1649,-505.7570, 0.0000, 0.0000, 0.0000
15-Mar-2018 17:31:25.752, 0.0079, 0.0179,-0.9879,-0.0307, 0.0529,-0.0058, 0.0157,-0.0214,-0.0021,44.567577,-123.274492, 0.0000, 0.0000, 243.977051,Stationary,High, 0.0000, 0.0000, 79.0923, 40.1649,-505.7570, 0.0000, 0.0000, 0.0000
15-Mar-2018 17:31:25.768, 0.0086, 0.0181,-0.9904,-0.0296, 0.0529,-0.0068, 0.0151,-0.0212,-0.0021,44.567577,-123.274492, 0.0000, 0.0000, 243.977051,Stationary,High, 0.0000, 0.0000, 78.5579, 39.9856,-504.5634, 0.0000, 0.0000, 0.0000
15-Mar-2018 17:31:25.773, 0.0079, 0.0173,-0.9893,-0.0296, 0.0529,-0.0068, 0.0151,-0.0212,-0.0021,44.567577,-123.274492, 0.0000, 0.0000, 243.977051,Stationary,High, 0.0000, 0.0000, 78.5579, 39.9856,-504.5634, 0.0000, 0.0000, 0.0000
15-Mar-2018 17:31:25.780, 0.0090, 0.0162,-0.9893,-0.0307, 0.0539,-0.0058, 0.0149,-0.0211,-0.0021,44.567577,-123.274492, 0.0000, 0.0000, 243.977051,Stationary,High, 0.0000, 0.0000, 78.5579, 39.9856,-504.5634, 0.0000, 0.0000, 0.0000
15-Mar-2018 17:31:25.783, 0.0090, 0.0162,-0.9893,-0.0307, 0.0539,-0.0058, 0.0149,-0.0211,-0.0021,44.567577,-123.274492, 0.0000, 0.0000, 243.977051,Stationary,High, 0.0000, 0.0000, 78.5579, 39.9856,-504.5634, 0.0000, 0.0000, 0.0000
15-Mar-2018 17:31:25.801, 0.0086, 0.0181,-0.9886,-0.0296, 0.0529,-0.0079, 0.0145,-0.0208,-2.4598,44.567577,-123.274492, 0.0000, 0.0000, 243.977051,Stationary,High, 0.0000, 0.0000, 78.2017, 39.9856,-504.9044,-13.5392, 12.2957,-39.5424
15-Mar-2018 17:31:25.807, 0.0086, 0.0181,-0.9886,-0.0296, 0.0518,-0.0079, 0.0143,-0.0208,-2.4598,44.567577,-123.274492, 0.0000, 0.0000, 243.977051,Stationary,High, 0.0000, 0.0000, 78.2017, 39.9856,-504.9044,-13.5392, 12.2957,-39.5424
15-Mar-2018 17:31:25.813, 0.0097, 0.0161,-0.9864,-0.0296, 0.0518,-0.0079, 0.0143,-0.0208,-2.4598,44.567577,-123.274492, 0.0000, 0.0000, 243.977051,Stationary,High, 0.0000, 0.0000, 78.2017, 39.9856,-504.9044,-13.5392, 12.2957,-39.5424
15-Mar-2018 17:31:25.822, 0.0083, 0.0173,-0.9884,-0.0296, 0.0529,-0.0079, 0.0141,-0.0206,-2.4598,44.567577,-123.274492, 0.0000, 0.0000, 243.977051,Stationary,High, 0.0000, 0.0000, 78.2017, 39.9856,-504.9044,-13.5392, 12.2957,-39.5424
15-Mar-2018 17:31:25.846, 0.0073, 0.0171,-0.9890,-0.0307, 0.0550,-0.0068, 0.0138,-0.0204,-2.4598,44.567577,-123.274492, 0.0000, 0.0000, 243.977051,Stationary,High, 0.0000, 0.0000, 77.6673, 40.1649,-504.3929,-35.8090, 2.3801,-73.1531
15-Mar-2018 17:31:25.852, 0.0090, 0.0168,-0.9881,-0.0318, 0.0529,-0.0069, 0.0136,-0.0204,-2.4598,44.567577,-123.274492, 0.0000, 0.0000, 243.977051,Stationary,High, 0.0000, 0.0000, 77.6673, 40.1649,-504.3929,-35.8211, 2.3711,-73.1475
15-Mar-2018 17:31:25.857, 0.0090, 0.0168,-0.9881,-0.0318, 0.0529,-0.0069, 0.0136,-0.0204,-2.4598,44.567577,-123.274492, 0.0000, 0.0000, 243.977051,Stationary,High, 0.0000, 0.0000, 77.6673, 40.1649,-504.3929,-35.8211, 2.3711,-73.1475
15-Mar-2018 17:31:25.863, 0.0077, 0.0158,-0.9877,-0.0318, 0.0529,-0.0069, 0.0136,-0.0204,-2.4598,44.567577,-123.274492, 0.0000, 0.0000, 243.977051,Stationary,High, 0.0000, 0.0000, 77.6673, 40.1649,-504.3929,-35.8211, 2.3711,-73.1475
15-Mar-2018 17:31:25.868, 0.0092, 0.0168,-0.9905,-0.0328, 0.0539,-0.0079, 0.0134,-0.0203,-2.4597,44.567577,-123.274492, 0.0000, 0.0000, 243.977051,Stationary,High, 0.0000, 0.0000, 76.4203, 40.3443,-504.2224,-35.8361, 2.3675,-73.1403
15-Mar-2018 17:31:25.880, 0.0067, 0.0154,-0.9869,-0.0328, 0.0539,-0.0079, 0.0134,-0.0203,-2.4597,44.567577,-123.274492, 0.0000, 0.0000, 243.977051,Stationary,High, 0.0000, 0.0000, 76.4203, 40.3443,-504.2224,-35.8361, 2.3675,-73.1403
15-Mar-2018 17:31:25.889, 0.0090, 0.0188,-0.9877,-0.0307, 0.0529,-0.0068, 0.0131,-0.0202,-2.4597,44.567577,-123.274492, 0.0000, 0.0000, 243.977051,Stationary,High, 0.0000, 0.0000, 76.4203, 40.3443,-504.2224,-35.8516, 2.3627,-73.1328
15-Mar-2018 17:31:25.899, 0.0085, 0.0169,-0.9919,-0.0317, 0.0518,-0.0079, 0.0130,-0.0202,-2.4597,44.567577,-123.274492, 0.0000, 0.0000, 243.977051,Stationary,High, 0.0000, 0.0000, 76.4203, 40.3443,-504.2224,-35.8516, 2.3627,-73.1328
15-Mar-2018 17:31:25.910, 0.0075, 0.0178,-0.9890,-0.0307, 0.0529,-0.0079, 0.0128,-0.0201,-2.4598,44.567577,-123.274492, 0.0000, 0.0000, 243.977051,Stationary,High, 0.0000, 0.0000, 78.2017, 39.2684,-503.5403,-35.8791, 2.3536,-73.1196
15-Mar-2018 17:31:25.926, 0.0082, 0.0175,-0.9896,-0.0339, 0.0539,-0.0069, 0.0127,-0.0202,-2.4597,44.567577,-123.274492, 0.0000, 0.0000, 243.977051,Stationary,High, 0.0000, 0.0000, 78.2017, 39.2684,-503.5403,-35.8905, 2.3477,-73.1142
15-Mar-2018 17:31:25.930, 0.0085, 0.0177,-0.9900,-0.0339, 0.0539,-0.0069, 0.0127,-0.0202,-2.4597,44.567577,-123.274492, 0.0000, 0.0000, 243.977051,Stationary,High, 0.0000, 0.0000, 78.2017, 39.2684,-503.5403,-35.8905, 2.3477,-73.1142
15-Mar-2018 17:31:25.937, 0.0103, 0.0171,-0.9890,-0.0339, 0.0539,-0.0069, 0.0127,-0.0202,-2.4597,44.567577,-123.274492, 0.0000, 0.0000, 243.977051,Stationary,High, 0.0000, 0.0000, 78.2017, 39.2684,-503.5403,-35.8905, 2.3477,-73.1142
15-Mar-2018 17:31:25.950, 0.0096, 0.0184,-0.9875,-0.0328, 0.0529,-0.0069, 0.0126,-0.0201,-2.4597,44.567577,-123.274492, 0.0000, 0.0000, 243.977051,Stationary,High, 0.0000, 0.0000, 78.2017, 39.2684,-503.5403,-35.9035, 2.3531,-73.1076
15-Mar-2018 17:31:25.957, 0.0086, 0.0180,-0.9856,-0.0307, 0.0539,-0.0068, 0.0125,-0.0201,-2.4597,44.567577,-123.274492, 0.0000, 0.0000, 243.977051,Stationary,High, 0.0000, 0.0000, 78.2017, 38.9098,-503.8813,-35.9095, 2.3496,-73.1048
15-Mar-2018 17:31:25.967, 0.0075, 0.0169,-0.9886,-0.0307, 0.0539,-0.0068, 0.0125,-0.0201,-2.4597,44.567577,-123.274492, 0.0000, 0.0000, 243.977051,Stationary,High, 0.0000, 0.0000, 78.2017, 38.9098,-503.8813,-35.9095, 2.3496,-73.1048
15-Mar-2018 17:31:25.977, 0.0079, 0.0189,-0.9879,-0.0318, 0.0539,-0.0058, 0.0123,-0.0201,-2.4597,44.567577,-123.274492, 0.0000, 0.0000, 243.977051,Stationary,High, 0.0000, 0.0000, 78.2017, 38.9098,-503.8813,-35.9166, 2.3516,-73.1013
15-Mar-2018 17:31:25.987, 0.0080, 0.0170,-0.9879,-0.0307, 0.0539,-0.0079, 0.0122,-0.0201,-2.4597,44.567577,-123.274492, 0.0000, 0.0000, 243.977051,Stationary,High, 0.0000, 0.0000, 78.2017, 38.9098,-503.8813,-35.9280, 2.3474,-73.0958
15-Mar-2018 17:31:25.997, 0.0079, 0.0172,-0.9861,-0.0307, 0.0539,-0.0079, 0.0122,-0.0201,-2.4597,44.567577,-123.274492, 0.0000, 0.0000, 243.977051,Stationary,High, 0.0000, 0.0000, 79.0923, 40.8822,-504.7339,-35.9280, 2.3474,-73.0958
15-Mar-2018 17:31:26.006, 0.0090, 0.0180,-0.9878,-0.0307, 0.0529,-0.0068, 0.0120,-0.0200,-2.4597,44.567577,-123.274492, 0.0000, 0.0000, 243.977051,Stationary,High, 0.0000, 0.0000, 79.0923, 40.8822,-504.7339,-35.9402, 2.3489,-73.0898
15-Mar-2018 17:31:26.017, 0.0093, 0.0160,-0.9878,-0.0329, 0.0539,-0.0058, 0.0119,-0.0200,-2.4597,44.567577,-123.274492, 0.0000, 0.0000, 243.977051,Stationary,High, 0.0000, 0.0000, 79.0923, 40.8822,-504.7339,-35.9498, 2.3452,-73.0852
15-Mar-2018 17:31:26.025, 0.0072, 0.0157,-0.9871,-0.0329, 0.0539,-0.0058, 0.0119,-0.0200,-2.4597,44.567577,-123.274492, 0.0000, 0.0000, 243.977051,Stationary,High, 0.0000, 0.0000, 79.0923, 40.8822,-504.7339,-35.9498, 2.3452,-73.0852
15-Mar-2018 17:31:26.035, 0.0099, 0.0177,-0.9867,-0.0329, 0.0539,-0.0058, 0.0119,-0.0200,-2.4597,44.567577,-123.274492, 0.0000, 0.0000, 243.977051,Stationary,High, 0.0000, 0.0000, 79.2705, 40.7029,-502.5172,-35.9498, 2.3452,-73.0852
15-Mar-2018 17:31:26.046, 0.0085, 0.0183,-0.9866,-0.0328, 0.0539,-0.0069, 0.0117,-0.0199,-2.4597,44.567577,-123.274492, 0.0000, 0.0000, 243.977051,Stationary,High, 0.0000, 0.0000, 79.2705, 40.7029,-502.5172,-35.9712, 2.3360,-73.0749
15-Mar-2018 17:31:26.056, 0.0067, 0.0172,-0.9871,-0.0307, 0.0529,-0.0079, 0.0116,-0.0199,-2.4597,44.567577,-123.274492, 0.0000, 0.0000, 243.977051,Stationary,High, 0.0000, 0.0000, 79.2705, 40.7029,-502.5172,-35.9726, 2.3382,-73.0742
15-Mar-2018 17:31:26.066, 0.0080, 0.0166,-0.9875,-0.0296, 0.0539,-0.0068, 0.0115,-0.0198,-2.4597,44.567577,-123.274492, 0.0000, 0.0000, 243.977051,Stationary,High, 0.0000, 0.0000, 79.2705, 40.7029,-502.5172,-35.9801, 2.3362,-73.0705
15-Mar-2018 17:31:26.077, 0.0086, 0.0166,-0.9869,-0.0297, 0.0561,-0.0057, 0.0115,-0.0198,-2.4597,44.567577,-123.274492, 0.0000, 65.4755, 243.977051,Stationary,High, 0.0000, 0.0000, 78.0235, 41.5994,-504.3929,-35.9908, 2.3316,-73.0654
15-Mar-2018 17:31:26.089, 0.0098, 0.0186,-0.9877,-0.0275, 0.0539,-0.0068, 0.0114,-0.0198,-2.4597,44.567577,-123.274492, 0.0000, 65.4755, 243.977051,Stationary,High, 0.0000, 0.0000, 78.0235, 41.5994,-504.3929,-35.9902, 2.3324,-73.0657
15-Mar-2018 17:31:26.100, 0.0092, 0.0161,-0.9875,-0.0286, 0.0497,-0.0079, 0.0113,-0.0197,-2.4597,44.567577,-123.274492,-2.2369, 65.4755, 243.977051,Stationary,High, 0.0000, 0.0000, 78.0235, 41.5994,-504.3929,-35.9970, 2.3263,-73.0625
15-Mar-2018 17:31:26.107, 0.0080, 0.0174,-0.9898,-0.0296, 0.0539,-0.0089, 0.0113,-0.0198,-2.4597,44.567577,-123.274492,-2.2369, 65.4755, 243.977051,Stationary,High, 0.0000, 0.0000, 78.0235, 41.5994,-504.3929,-36.0027, 2.3243,-73.0598
15-Mar-2018 17:31:26.114, 0.0084, 0.0174,-0.9878,-0.0296, 0.0539,-0.0089, 0.0113,-0.0198,-2.4597,44.567577,-123.274492,-2.2369, 65.4755, 243.977051,Stationary,High, 0.0000, 0.0000, 79.0923, 40.5236,-504.7339,-36.0027, 2.3243,-73.0598
15-Mar-2018 17:31:26.129, 0.0095, 0.0181,-0.9873,-0.0296, 0.0539,-0.0089, 0.0112,-0.0197,-2.4597,44.567577,-123.274492,-2.2369, 65.4755, 243.977051,Stationary,High, 0.0000, 0.0000, 79.0923, 40.5236,-504.7339,-36.0048, 2.3254,-73.0587
15-Mar-2018 17:31:26.136, 0.0089, 0.0183,-0.9880,-0.0296, 0.0507,-0.0079, 0.0111,-0.0197,-2.4597,44.567577,-123.274492,-2.2369, 65.4755, 243.977051,Stationary,High, 0.0000, 0.0000, 79.0923, 40.5236,-504.7339,-36.0121, 2.3202,-73.0553
15-Mar-2018 17:31:26.143, 0.0094, 0.0177,-0.9847,-0.0296, 0.0507,-0.0079, 0.0111,-0.0197,-2.4597,44.567577,-123.274492,-2.2369, 65.4755, 243.977051,Stationary,High, 0.0000, 0.0000, 79.0923, 40.5236,-504.7339,-36.0121, 2.3202,-73.0553
15-Mar-2018 17:31:26.154, 0.0081, 0.0168,-0.9872,-0.0286, 0.0539,-0.0068, 0.0110,-0.0197,-2.4597,44.567577,-123.274492,-2.2369, 65.4755, 243.977051,Stationary,High, 0.0000, 0.0000, 78.3798, 39.0891,-505.4160,-36.0161, 2.3212,-73.0533
15-Mar-2018 17:31:26.164, 0.0085, 0.0184,-0.9886,-0.0296, 0.0529,-0.0068, 0.0110,-0.0197,-2.4597,44.567577,-123.274492,-2.2369, 65.4755, 243.977051,Stationary,High, 0.0000, 0.0000, 78.3798, 39.0891,-505.4160,-36.0200, 2.3177,-73.0515
15-Mar-2018 17:31:26.179, 0.0097, 0.0178,-0.9890,-0.0297, 0.0539,-0.0058, 0.0110,-0.0196,-2.4597,44.567577,-123.274492,-2.2369, 65.4755, 243.977051,Stationary,High, 0.0000, 0.0000, 78.3798, 39.0891,-505.4160,-36.0214, 2.3177,-73.0507
15-Mar-2018 17:31:26.193, 0.0088, 0.0186,-0.9870,-0.0307, 0.0529,-0.0079, 0.0109,-0.0196,-2.4597,44.567577,-123.274492,-2.2369, 65.4755, 243.977051,Stationary,High, 0.0000, 0.0000, 78.3798, 39.0891,-505.4160,-36.0279, 2.3158,-73.0476
15-Mar-2018 17:31:26.199, 0.0088, 0.0186,-0.9870,-0.0307, 0.0529,-0.0079, 0.0109,-0.0196,-2.4597,44.567577,-123.274492,-2.2369, 65.4755, 243.977051,Stationary,High, 0.0000, 0.0000, 78.3798, 39.0891,-505.4160,-36.0279, 2.3158,-73.0476
15-Mar-2018 17:31:26.202, 0.0080, 0.0176,-0.9880,-0.0296, 0.0518,-0.0079, 0.0108,-0.0196,-2.4597,44.567577,-123.274492,-2.2369, 65.4755, 243.977051,Stationary,High, 0.0000, 0.0000, 78.2017, 40.3443,-505.2455,-36.0323, 2.3129,-73.0455
15-Mar-2018 17:31:26.214, 0.0067, 0.0172,-0.9870,-0.0286, 0.0539,-0.0068, 0.0107,-0.0195,-2.4597,44.567577,-123.274492,-2.2369, 65.4755, 243.977051,Stationary,High, 0.0000, 0.0000, 78.2017, 40.3443,-505.2455,-36.0393, 2.3118,-73.0421
15-Mar-2018 17:31:26.222, 0.0090, 0.0180,-0.9884,-0.0286, 0.0539,-0.0068, 0.0107,-0.0195,-2.4597,44.567577,-123.274492,-2.2369, 65.4755, 243.977051,Stationary,High, 0.0000, 0.0000, 78.2017, 40.3443,-505.2455,-36.0393, 2.3118,-73.0421
15-Mar-2018 17:31:26.239, 0.0086, 0.0177,-0.9885,-0.0286, 0.0518,-0.0068, 0.0106,-0.0195,-2.4597,44.567598,-123.274524,-2.2369, 65.4755, 241.875015,Stationary,High, 0.0000, 0.0000, 78.9142, 39.9856,-503.8813,-36.0518, 2.3044,-73.0362
15-Mar-2018 17:31:26.251, 0.0081, 0.0178,-0.9879,-0.0296, 0.0529,-0.0079, 0.0105,-0.0194,-2.4597,44.567598,-123.274524,-2.2369, 65.4755, 241.875015,Stationary,High, 0.0000, 0.0000, 78.9142, 39.9856,-503.8813,-36.0540, 2.3042,-73.0351
15-Mar-2018 17:31:26.258, 0.0109, 0.0167,-0.9879,-0.0286, 0.0508,-0.0057, 0.0104,-0.0194,-2.4597,44.567598,-123.274524,-2.2369, 65.4755, 241.875015,Stationary,High, 0.0000, 0.0000, 78.9142, 39.9856,-503.8813,-36.0600, 2.3007,-73.0323
15-Mar-2018 17:31:26.262, 0.0102, 0.0189,-0.9886,-0.0286, 0.0508,-0.0057, 0.0104,-0.0194,-2.4597,44.567598,-123.274524,-2.2369, 65.4755, 241.875015,Stationary,High, 0.0000, 0.0000, 78.9142, 39.9856,-503.8813,-36.0600, 2.3007,-73.0323
15-Mar-2018 17:31:26.279, 0.0093, 0.0178,-0.9883,-0.0286, 0.0518,-0.0068, 0.0104,-0.0194,-2.4597,44.567598,-123.274524,-2.2369, 65.4755, 241.875015,Stationary,High, 0.0000, 0.0000, 75.8859, 39.4477,-505.4160,-36.0652, 2.2994,-73.0297
15-Mar-2018 17:31:26.289, 0.0104, 0.0175,-0.9867,-0.0286, 0.0539,-0.0068, 0.0104,-0.0194,-2.4597,44.567598,-123.274524,-2.2369, 65.4755, 241.875015,Stationary,High, 0.0000, 0.0000, 75.8859, 39.4477,-505.4160,-36.0673, 2.2986,-73.0287
15-Mar-2018 17:31:26.301, 0.0103, 0.0178,-0.9878,-0.0307, 0.0529,-0.0068, 0.0104,-0.0193,-2.4597,44.567598,-123.274524,-2.2369, 65.4755, 241.875015,Stationary,High, 0.0000, 0.0000, 75.8859, 39.4477,-505.4160,-36.0688, 2.2988,-73.0280
15-Mar-2018 17:31:26.306, 0.0110, 0.0175,-0.9875,-0.0296, 0.0539,-0.0068, 0.0104,-0.0193,-2.4597,44.567598,-123.274524,-2.2369, 65.4755, 241.875015,Stationary,High, 99.4878, 0.0000, 75.8859, 39.4477,-505.4160,-36.0698, 2.2958,-73.0275
15-Mar-2018 17:31:26.312, 0.0083, 0.0179,-0.9880,-0.0296, 0.0539,-0.0068, 0.0104,-0.0193,-2.4597,44.567598,-123.274524,-2.2369, 65.4755, 241.875015,Stationary,High, 99.4878, 0.0000, 75.8859, 39.4477,-505.4160,-36.0698, 2.2958,-73.0275
15-Mar-2018 17:31:26.322, 0.0073, 0.0176,-0.9874,-0.0286, 0.0529,-0.0068, 0.0103,-0.0193,-2.4597,44.567598,-123.274524,-2.2369, 65.4755, 241.875015,Stationary,High, 99.4878, 0.0000, 77.3110, 40.5236,-503.7108,-36.0709, 2.2958,-73.0270
15-Mar-2018 17:31:26.332, 0.0083, 0.0177,-0.9881,-0.0286, 0.0529,-0.0068, 0.0103,-0.0193,-2.4597,44.567598,-123.274524,-2.2369, 65.4755, 241.875015,Stationary,High, 99.4878, 0.0000, 77.3110, 40.5236,-503.7108,-36.0709, 2.2958,-73.0270
15-Mar-2018 17:31:26.341, 0.0093, 0.0185,-0.9894,-0.0296, 0.0529,-0.0068, 0.0101,-0.0192,-2.4597,44.567598,-123.274524,-2.2369, 65.4755, 241.875015,Stationary,High, 99.4878, 0.0000, 77.3110, 40.5236,-503.7108,-36.0787, 2.2933,-73.0233
15-Mar-2018 17:31:26.352, 0.0095, 0.0172,-0.9885,-0.0286, 0.0518,-0.0068, 0.0100,-0.0192,-2.4597,44.567598,-123.274524,-2.2369, 65.4755, 241.875015,Stationary,High, 99.4878, 0.0000, 77.3110, 40.5236,-503.7108,-36.0912, 2.2867,-73.0173
15-Mar-2018 17:31:26.361, 0.0070, 0.0183,-0.9863,-0.0286, 0.0518,-0.0068, 0.0100,-0.0192,-2.4597,44.567598,-123.274524,-2.2369, 65.4755, 241.875015,Stationary,High, 99.4878, 0.0000, 77.6673, 39.8063,-505.4160,-36.0912, 2.2867,-73.0173
15-Mar-2018 17:31:26.371, 0.0078, 0.0179,-0.9879,-0.0296, 0.0539,-0.0079, 0.0099,-0.0191,-2.4597,44.567598,-123.274524,-2.2369, 65.4755, 241.875015,Stationary,High, 99.4878, 0.0000, 77.6673, 39.8063,-505.4160,-36.0966, 2.2855,-73.0146
15-Mar-2018 17:31:26.381, 0.0092, 0.0176,-0.9877,-0.0296, 0.0518,-0.0068, 0.0098,-0.0191,-2.4597,44.567598,-123.274524,-2.2369, 65.4755, 241.875015,Stationary,High, 99.4878, 0.0000, 77.6673, 39.8063,-505.4160,-36.1058, 2.2802,-73.0103
15-Mar-2018 17:31:26.390, 0.0077, 0.0183,-0.9880,-0.0296, 0.0518,-0.0068, 0.0098,-0.0191,-2.4597,44.567598,-123.274524,-2.2369, 65.4755, 241.875015,Stationary,High, 99.4878, 0.0000, 77.6673, 39.8063,-505.4160,-36.1058, 2.2802,-73.0103
15-Mar-2018 17:31:26.400, 0.0082, 0.0177,-0.9895,-0.0286, 0.0518,-0.0079, 0.0097,-0.0191,-2.4597,44.567598,-123.274524,-2.2369, 65.4755, 241.875015,Stationary,High, 99.4878, 0.0000, 77.8454, 39.2684,-504.5634,-36.1140, 2.2785,-73.0063
15-Mar-2018 17:31:26.410, 0.0102, 0.0181,-0.9868,-0.0296, 0.0518,-0.0090, 0.0096,-0.0190,-2.4597,44.567598,-123.274524,-2.2369, 65.4755, 241.875015,Stationary,High, 99.4878, 0.0000, 77.8454, 39.2684,-504.5634,-36.1140, 2.2785,-73.0063
15-Mar-2018 17:31:26.420, 0.0089, 0.0184,-0.9890,-0.0296, 0.0518,-0.0090, 0.0096,-0.0190,-2.4597,44.567598,-123.274524,-2.2369, 65.4755, 241.875015,Stationary,High, 99.4878, 0.0000, 77.8454, 39.2684,-504.5634,-36.1140, 2.2785,-73.0063
15-Mar-2018 17:31:26.430, 0.0088, 0.0177,-0.9888,-0.0296, 0.0529,-0.0079, 0.0096,-0.0190,-2.4597,44.567598,-123.274524,-2.2369, 65.4755, 241.875015,Stationary,High, 99.4878, 0.0000, 77.8454, 39.2684,-504.5634,-36.1255, 2.2735,-73.0007
15-Mar-2018 17:31:26.440, 0.0076, 0.0164,-0.9882,-0.0296, 0.0539,-0.0079, 0.0095,-0.0190,-2.4597,44.567598,-123.274524,-2.2369, 65.4755, 241.875015,Stationary,High, 99.4878, 0.0000, 78.5579, 39.6270,-505.9276,-36.1279, 2.2729,-72.9996
15-Mar-2018 17:31:26.450, 0.0086, 0.0176,-0.9873,-0.0297, 0.0539,-0.0058, 0.0095,-0.0189,-2.4597,44.567598,-123.274524,-2.2369, 65.4755, 241.875015,Stationary,High, 99.4878, 0.0000, 78.5579, 39.6270,-505.9276,-36.1304, 2.2707,-72.9984
15-Mar-2018 17:31:26.459, 0.0086, 0.0173,-0.9868,-0.0296, 0.0529,-0.0068, 0.0094,-0.0189,-2.4597,44.567598,-123.274524,-2.2369, 65.4755, 241.875015,Stationary,High, 99.4878, 0.0000, 78.5579, 39.6270,-505.9276,-36.1304, 2.2707,-72.9984
15-Mar-2018 17:31:26.469, 0.0088, 0.0177,-0.9875,-0.0286, 0.0550,-0.0079, 0.0094,-0.0189,-2.4597,44.567598,-123.274524,-2.2369, 65.4755, 241.875015,Stationary,High, 99.4878, 0.0000, 78.5579, 39.6270,-505.9276,-36.1375, 2.2647,-72.9951
15-Mar-2018 17:31:26.481, 0.0090, 0.0165,-0.9879,-0.0296, 0.0529,-0.0068, 0.0094,-0.0188,-2.4597,44.567598,-123.274524,-2.2369, 65.4755, 241.875015,Stationary,High, 99.4878, 0.0000, 77.6673, 39.8063,-505.7570,-36.1401, 2.2610,-72.9939
15-Mar-2018 17:31:26.489, 0.0100, 0.0167,-0.9865,-0.0286, 0.0518,-0.0079, 0.0093,-0.0188,-2.4597,44.567598,-123.274524,-2.2369, 65.4755, 241.875015,Stationary,High, 99.4878, 0.0000, 77.6673, 39.8063,-505.7570,-36.1401, 2.2610,-72.9939
15-Mar-2018 17:31:26.499, 0.0081, 0.0181,-0.9875,-0.0286, 0.0518,-0.0068, 0.0093,-0.0187,-2.4597,44.567598,-123.274524,-2.2369, 65.4755, 241.875015,Stationary,High, 99.4878, 0.0000, 77.6673, 39.8063,-505.7570,-36.1459, 2.2548,-72.9912
15-Mar-2018 17:31:26.509, 0.0082, 0.0182,-0.9872,-0.0286, 0.0507,-0.0068, 0.0093,-0.0187,-2.4597,44.567598,-123.274524,-2.2369, 65.4755, 241.875015,Stationary,High, 99.4878, 0.0000, 77.6673, 39.8063,-505.7570,-36.1469, 2.2512,-72.9908
15-Mar-2018 17:31:26.518, 0.0093, 0.0186,-0.9890,-0.0286, 0.0529,-0.0057, 0.0092,-0.0187,-2.4597,44.567598,-123.274524,-2.2369, 65.4755, 241.875015,Stationary,High, 99.4878, 0.0000, 79.6267, 39.2684,-504.5634,-36.1517, 2.2504,-72.9885
15-Mar-2018 17:31:26.528, 0.0078, 0.0180,-0.9847,-0.0318, 0.0529,-0.0069, 0.0092,-0.0187,-2.4597,44.567598,-123.274524,-2.2369, 65.4755, 241.875015,Stationary,High, 99.4878, 0.0000, 79.6267, 39.2684,-504.5634,-36.1517, 2.2504,-72.9885
15-Mar-2018 17:31:26.540, 0.0093, 0.0186,-0.9882,-0.0296, 0.0539,-0.0079, 0.0091,-0.0187,-2.4597,44.567598,-123.274524,-2.2369, 65.4755, 241.875015,Stationary,High, 99.4878, 0.0000, 79.6267, 39.2684,-504.5634,-36.1569, 2.2517,-72.9858
15-Mar-2018 17:31:26.546, 0.0096, 0.0180,-0.9862,-0.0296, 0.0518,-0.0068, 0.0091,-0.0187,-2.4597,44.567598,-123.274524,-2.2369, 65.4755, 241.875015,Stationary,High, 99.4878, 0.0000, 79.6267, 39.2684,-504.5634,-36.1569, 2.2517,-72.9858
15-Mar-2018 17:31:26.557, 0.0084, 0.0179,-0.9872,-0.0307, 0.0550,-0.0079, 0.0091,-0.0187,-2.4597,44.567598,-123.274524,-2.2369, 65.4755, 241.875015,Stationary,High, 99.4878, 0.0000, 79.0923, 38.7305,-504.3929,-36.1620, 2.2515,-72.9833
15-Mar-2018 17:31:26.570, 0.0108, 0.0181,-0.9886,-0.0296, 0.0539,-0.0089, 0.0091,-0.0187,-2.4597,44.567598,-123.274524,-2.2369, 65.4755, 241.875015,Stationary,High, 99.4878, 0.0000, 79.0923, 38.7305,-504.3929,-36.1611, 2.2509,-72.9838
15-Mar-2018 17:31:26.577, 0.0093, 0.0172,-0.9884,-0.0296, 0.0539,-0.0079, 0.0091,-0.0187,-2.4597,44.567598,-123.274524,-2.2369, 65.4755, 241.875015,Stationary,High, 99.4878, 0.0000, 79.0923, 38.7305,-504.3929,-36.1630, 2.2498,-72.9829
15-Mar-2018 17:31:26.587, 0.0097, 0.0181,-0.9881,-0.0286, 0.0529,-0.0068, 0.0091,-0.0187,-2.4597,44.567598,-123.274524,-2.2369, 65.4755, 241.875015,Stationary,High, 99.4878, 0.0000, 79.0923, 38.7305,-504.3929,-36.1630, 2.2498,-72.9829
15-Mar-2018 17:31:26.601, 0.0098, 0.0165,-0.9866,-0.0286, 0.0550,-0.0079, 0.0091,-0.0186,-2.4597,44.567598,-123.274524,-2.2369, 65.4755, 241.875015,Stationary,High, 99.4878, 0.0000, 78.5579, 39.2684,-504.5634,-36.1615, 2.2468,-72.9837
15-Mar-2018 17:31:26.615, 0.0090, 0.0169,-0.9887,-0.0275, 0.0529,-0.0078, 0.0091,-0.0186,-2.4597,44.567598,-123.274524,-2.2369, 65.4755, 241.875015,Stationary,High, 99.4878, 0.0000, 78.5579, 39.2684,-504.5634,-36.1603, 2.2460,-72.9844
15-Mar-2018 17:31:26.620, 0.0073, 0.0180,-0.9893,-0.0275, 0.0529,-0.0078, 0.0091,-0.0186,-2.4597,44.567598,-123.274524,-2.2369, 65.4755, 241.875015,Stationary,High, 99.4878, 0.0000, 78.5579, 39.2684,-504.5634,-36.1616, 2.2413,-72.9839
15-Mar-2018 17:31:26.626, 0.0083, 0.0175,-0.9885,-0.0275, 0.0529,-0.0078, 0.0091,-0.0186,-2.4597,44.567598,-123.274524,-2.2369, 65.4755, 241.875015,Stationary,High, 99.4878, 0.0000, 78.5579, 39.2684,-504.5634,-36.1616, 2.2413,-72.9839
15-Mar-2018 17:31:26.643, 0.0096, 0.0174,-0.9897,-0.0286, 0.0518,-0.0079, 0.0090,-0.0185,-2.4597,44.567598,-123.274524,-2.2369, 65.4755, 241.875015,Stationary,High, 99.4878, 0.0000, 77.8454, 39.9856,-504.2224,-36.1632, 2.2400,-72.9831
15-Mar-2018 17:31:26.655, 0.0105, 0.0174,-0.9858,-0.0286, 0.0539,-0.0057, 0.0091,-0.0185,-2.4597,44.567598,-123.274524,-2.2369, 65.4755, 241.875015,Stationary,High, 99.4878, 0.0000, 77.8454, 39.9856,-504.2224,-36.1661, 2.2376,-72.9817
15-Mar-2018 17:31:26.658, 0.0092, 0.0172,-0.9870,-0.0286, 0.0539,-0.0057, 0.0091,-0.0185,-2.4597,44.567598,-123.274524,-2.2369, 65.4755, 241.875015,Stationary,High, 99.4878, 0.0000, 77.8454, 39.9856,-504.2224,-36.1661, 2.2376,-72.9817
15-Mar-2018 17:31:26.673, 0.0085, 0.0175,-0.9899,-0.0286, 0.0529,-0.0068, 0.0090,-0.0185,-2.4597,44.567598,-123.274524,-2.2369, 65.4755, 241.875015,Stationary,High, 99.4878, 0.0000, 77.8454, 39.9856,-504.2224,-36.1662, 2.2363,-72.9817
15-Mar-2018 17:31:26.678, 0.0090, 0.0173,-0.9890,-0.0286, 0.0507,-0.0068, 0.0090,-0.0185,-2.4597,44.567598,-123.274524,-2.2369, 65.4755, 241.875015,Stationary,High, 99.4878, 0.0000, 78.5579, 42.1373,-504.5634,-36.1676, 2.2347,-72.9811
15-Mar-2018 17:31:26.685, 0.0095, 0.0178,-0.9881,-0.0286, 0.0507,-0.0068, 0.0090,-0.0185,-2.4597,44.567598,-123.274524,-2.2369, 65.4755, 241.875015,Stationary,High, 99.4878, 0.0000, 78.5579, 42.1373,-504.5634,-36.1676, 2.2347,-72.9811
15-Mar-2018 17:31:26.695, 0.0094, 0.0167,-0.9879,-0.0286, 0.0507,-0.0068, 0.0090,-0.0185,-2.4597,44.567598,-123.274524,-2.2369, 65.4755, 241.875015,Stationary,High, 99.4878, 0.0000, 78.5579, 42.1373,-504.5634,-36.1676, 2.2347,-72.9811
15-Mar-2018 17:31:26.706, 0.0092, 0.0176,-0.9884,-0.0286, 0.0529,-0.0068, 0.0090,-0.0184,-2.4597,44.567598,-123.274524,-2.2369, 65.4755, 241.875015,Stationary,High, 99.4878, 0.0000, 78.5579, 42.1373,-504.5634,-36.1709, 2.2349,-72.9794
15-Mar-2018 17:31:26.714, 0.0093, 0.0176,-0.9881,-0.0286, 0.0529,-0.0068, 0.0090,-0.0184,-2.4597,44.567598,-123.274524,-2.2369, 65.4755, 241.875015,Stationary,High, 99.4878, 0.0000, 78.5579, 42.1373,-504.5634,-36.1709, 2.2349,-72.9794
15-Mar-2018 17:31:26.724, 0.0087, 0.0163,-0.9875,-0.0286, 0.0529,-0.0068, 0.0090,-0.0184,-2.4597,44.567598,-123.274524,-2.2369, 65.4755, 241.875015,Stationary,High, 99.4878, 0.0000, 77.8454, 38.9098,-504.2224,-36.1709, 2.2349,-72.9794
15-Mar-2018 17:31:26.735, 0.0080, 0.0180,-0.9881,-0.0286, 0.0518,-0.0068, 0.0090,-0.0184,-2.4596,44.567598,-123.274524,-2.2369, 65.4755, 241.875015,Stationary,High, 99.4878, 0.0000, 77.8454, 38.9098,-504.2224,-36.1726, 2.2316,-72.9787
15-Mar-2018 17:31:26.746, 0.0096, 0.0178,-0.9886,-0.0286, 0.0539,-0.0068, 0.0089,-0.0184,-2.4596,44.567598,-123.274524,-2.2369, 65.4755, 241.875015,Stationary,High, 99.4878, 0.0000, 77.8454, 38.9098,-504.2224,-36.1738, 2.2278,-72.9782
15-Mar-2018 17:31:26.763, 0.0087, 0.0176,-0.9870,-0.0307, 0.0529,-0.0068, 0.0089,-0.0184,-2.4596,44.567598,-123.274524,-2.2369, 65.4755, 241.875015,Stationary,High, 99.4878, 0.0000, 77.8454, 38.9098,-504.2224,-36.1765, 2.2276,-72.9769
15-Mar-2018 17:31:26.769, 0.0083, 0.0174,-0.9891,-0.0286, 0.0550,-0.0068, 0.0089,-0.0184,-2.4596,44.567598,-123.274524,-2.2369, 65.4755, 241.875015,Stationary,High, 99.4878, 0.0000, 78.0235, 40.1649,-504.3929,-36.1760, 2.2276,-72.9771
15-Mar-2018 17:31:26.774, 0.0097, 0.0179,-0.9874,-0.0286, 0.0550,-0.0068, 0.0089,-0.0184,-2.4596,44.567598,-123.274524,-2.2369, 65.4755, 241.875015,Stationary,High, 99.4878, 0.0000, 78.0235, 40.1649,-504.3929,-36.1760, 2.2276,-72.9771
15-Mar-2018 17:31:26.783, 0.0096, 0.0170,-0.9883,-0.0286, 0.0550,-0.0068, 0.0089,-0.0184,-2.4596,44.567598,-123.274524,-2.2369, 65.4755, 241.875015,Stationary,High, 99.4878, 0.0000, 78.0235, 40.1649,-504.3929,-36.1760, 2.2276,-72.9771
15-Mar-2018 17:31:26.796, 0.0087, 0.0168,-0.9866,-0.0275, 0.0539,-0.0078, 0.0089,-0.0183,-2.4596,44.567598,-123.274524,-2.2369, 65.4755, 241.875015,Stationary,High, 99.4878, 0.0000, 78.0235, 40.1649,-504.3929,-36.1774, 2.2286,-72.9764
15-Mar-2018 17:31:26.804, 0.0092, 0.0179,-0.9887,-0.0286, 0.0518,-0.0068, 0.0089,-0.0183,-2.4596,44.567598,-123.274524,-2.2369, 65.4755, 241.875015,Stationary,High, 99.4878, 0.0000, 79.0923, 39.8063,-505.4160,-36.1749, 2.2261,-72.9777
15-Mar-2018 17:31:26.813, 0.0103, 0.0166,-0.9873,-0.0286, 0.0518,-0.0068, 0.0089,-0.0183,-2.4596,44.567598,-123.274524,-2.2369, 65.4755, 241.875015,Stationary,High, 99.4878, 0.0000, 79.0923, 39.8063,-505.4160,-36.1749, 2.2261,-72.9777
15-Mar-2018 17:31:26.824, 0.0108, 0.0168,-0.9869,-0.0307, 0.0497,-0.0068, 0.0089,-0.0183,-2.4596,44.567598,-123.274524,-2.2369, 65.4755, 241.875015,Stationary,High, 99.4878, 0.0000, 79.0923, 39.8063,-505.4160,-36.1743, 2.2206,-72.9782
15-Mar-2018 17:31:26.836, 0.0092, 0.0177,-0.9877,-0.0297, 0.0529,-0.0058, 0.0089,-0.0183,-2.4596,44.567598,-123.274524,-2.2369, 65.4755, 241.875015,Stationary,High, 99.4878, 0.0000, 79.0923, 39.8063,-505.4160,-36.1766, 2.2215,-72.9770
15-Mar-2018 17:31:26.852, 0.0084, 0.0182,-0.9867,-0.0296, 0.0518,-0.0079, 0.0089,-0.0182,-2.4596,44.567598,-123.274524,-2.2369, 65.4755, 241.875015,Stationary,High, 99.4878, 0.0000, 78.2017, 40.7029,-504.2224,-36.1742, 2.2203,-72.9782
15-Mar-2018 17:31:26.858, 0.0086, 0.0186,-0.9851,-0.0297, 0.0518,-0.0058, 0.0089,-0.0183,-2.4596,44.567598,-123.274524,-2.2369, 65.4755, 241.875015,Stationary,High, 99.4878, 0.0000, 78.2017, 40.7029,-504.2224,-36.1750, 2.2197,-72.9779
15-Mar-2018 17:31:26.862, 0.0092, 0.0182,-0.9888,-0.0297, 0.0518,-0.0058, 0.0089,-0.0183,-2.4596,44.567598,-123.274524,-2.2369, 65.4755, 241.875015,Stationary,High, 99.4878, 0.0000, 78.2017, 40.7029,-504.2224,-36.1750, 2.2197,-72.9779
15-Mar-2018 17:31:26.872, 0.0100, 0.0177,-0.9897,-0.0297, 0.0518,-0.0058, 0.0089,-0.0183,-2.4596,44.567598,-123.274524,-2.2369, 65.4755, 241.875015,Stationary,High, 99.4878, 0.0000, 78.2017, 40.7029,-504.2224,-36.1750, 2.2197,-72.9779
15-Mar-2018 17:31:26.884, 0.0080, 0.0172,-0.9868,-0.0307, 0.0539,-0.0068, 0.0089,-0.0183,-2.4596,44.567598,-123.274524,-2.2369, 65.4755, 241.875015,Stationary,High, 99.4878, 0.0000, 78.2017, 39.6270,-503.1993,-36.1775, 2.2214,-72.9766
15-Mar-2018 17:31:26.891, 0.0085, 0.0176,-0.9872,-0.0286, 0.0529,-0.0068, 0.0089,-0.0183,-2.4596,44.567598,-123.274524,-2.2369, 65.4755, 241.875015,Stationary,High, 99.4878, 0.0000, 78.2017, 39.6270,-503.1993,-36.1775, 2.2214,-72.9766
15-Mar-2018 17:31:26.901, 0.0092, 0.0186,-0.9878,-0.0286, 0.0529,-0.0068, 0.0089,-0.0183,-2.4596,44.567598,-123.274524,-2.2369, 65.4755, 241.875015,Stationary,High, 99.4878, 0.0000, 78.2017, 39.6270,-503.1993,-36.1775, 2.2214,-72.9766
15-Mar-2018 17:31:26.911, 0.0090, 0.0181,-0.9869,-0.0307, 0.0550,-0.0058, 0.0089,-0.0183,-2.4596,44.567598,-123.274524,-2.2369, 65.4755, 241.875015,Stationary,High, 99.4878, 0.0000, 78.2017, 39.6270,-503.1993,-36.1790, 2.2208,-72.9759
15-Mar-2018 17:31:26.921, 0.0088, 0.0161,-0.9891,-0.0296, 0.0529,-0.0079, 0.0089,-0.0183,-2.4596,44.567598,-123.274524,-2.2369, 65.4755, 241.875015,Stationary,High, 99.4878, 0.0000, 78.0235, 39.8063,-505.7570,-36.1797, 2.2220,-72.9755
15-Mar-2018 17:31:26.930, 0.0095, 0.0174,-0.9866,-0.0296, 0.0529,-0.0079, 0.0089,-0.0183,-2.4596,44.567598,-123.274524,-2.2369, 65.4755, 241.875015,Stationary,High, 99.4878, 0.0000, 78.0235, 39.8063,-505.7570,-36.1797, 2.2220,-72.9755
15-Mar-2018 17:31:26.942, 0.0105, 0.0170,-0.9873,-0.0296, 0.0529,-0.0079, 0.0089,-0.0182,-2.4596,44.567598,-123.274524,-2.2369, 65.4755, 241.875015,Stationary,High, 99.4878, 0.0000, 78.0235, 39.8063,-505.7570,-36.1804, 2.2217,-72.9752
15-Mar-2018 17:31:26.950, 0.0113, 0.0171,-0.9873,-0.0285, 0.0486,-0.0089, 0.0089,-0.0182,-2.4596,44.567598,-123.274524,-2.2369, 65.4755, 241.875015,Stationary,High, 99.4878, 0.0000, 78.0235, 39.8063,-505.7570,-36.1804, 2.2217,-72.9752
15-Mar-2018 17:31:26.960, 0.0082, 0.0182,-0.9870,-0.0285, 0.0486,-0.0089, 0.0089,-0.0182,-2.4596,44.567598,-123.274524,-2.2369, 65.4755, 241.875015,Stationary,High, 99.4878, 0.0000, 77.6673, 38.3719,-504.7339,-36.1804, 2.2217,-72.9752
15-Mar-2018 17:31:26.972, 0.0088, 0.0173,-0.9858,-0.0307, 0.0539,-0.0068, 0.0088,-0.0182,-2.4596,44.567598,-123.274524,-2.2369, 65.4755, 241.875015,Stationary,High, 99.4878, 0.0000, 77.6673, 38.3719,-504.7339,-36.1794, 2.2165,-72.9758
15-Mar-2018 17:31:26.979, 0.0089, 0.0168,-0.9880,-0.0296, 0.0539,-0.0068, 0.0088,-0.0182,-2.4596,44.567598,-123.274524,-2.2369, 65.4755, 241.875015,Stationary,High, 99.4878, 0.0000, 77.6673, 38.3719,-504.7339,-36.1794, 2.2165,-72.9758
15-Mar-2018 17:31:26.990, 0.0103, 0.0167,-0.9873,-0.0296, 0.0539,-0.0068, 0.0088,-0.0182,-2.4596,44.567598,-123.274524,-2.2369, 65.4755, 241.875015,Stationary,High, 99.4878, 0.0000, 77.6673, 38.3719,-504.7339,-36.1794, 2.2165,-72.9758
15-Mar-2018 17:31:27.002, 0.0100, 0.0181,-0.9864,-0.0296, 0.0529,-0.0068, 0.0088,-0.0182,-2.4596,44.567598,-123.274524,-2.2369, 65.4755, 241.875015,Stationary,High, 99.4878, 0.0000, 78.0235, 41.2408,-505.0750,-36.1831, 2.2175,-72.9739
15-Mar-2018 17:31:27.009, 0.0067, 0.0172,-0.9859,-0.0297, 0.0518,-0.0058, 0.0089,-0.0182,-2.4596,44.567598,-123.274524,-2.2369, 65.4755, 241.875015,Stationary,High, 99.4878, 0.0000, 78.0235, 41.2408,-505.0750,-36.1831, 2.2175,-72.9739
15-Mar-2018 17:31:27.020, 0.0084, 0.0181,-0.9873,-0.0297, 0.0518,-0.0058, 0.0089,-0.0182,-2.4596,44.567598,-123.274524,-2.2369, 65.4755, 241.875015,Stationary,High, 99.4878, 0.0000, 78.0235, 41.2408,-505.0750,-36.1831, 2.2175,-72.9739
15-Mar-2018 17:31:27.032, 0.0103, 0.0185,-0.9893,-0.0286, 0.0529,-0.0079, 0.0088,-0.0182,-2.4596,44.567598,-123.274524,-2.2369, 65.4755, 241.875015,Stationary,High, 99.4878, 0.0000, 78.0235, 41.2408,-505.0750,-36.1810, 2.2161,-72.9750
15-Mar-2018 17:31:27.038, 0.0091, 0.0173,-0.9892,-0.0318, 0.0518,-0.0069, 0.0088,-0.0182,-2.4596,44.567598,-123.274524,-2.2369, 65.4755, 241.875015,Stationary,High, 99.4878, 0.0000, 78.5579, 40.3443,-504.5634,-36.1810, 2.2161,-72.9750
15-Mar-2018 17:31:27.050, 0.0110, 0.0169,-0.9877,-0.0318, 0.0518,-0.0069, 0.0088,-0.0182,-2.4596,44.567598,-123.274524,-2.2369, 65.4755, 241.875015,Stationary,High, 99.4878, 0.0000, 78.5579, 40.3443,-504.5634,-36.1810, 2.2161,-72.9750
15-Mar-2018 17:31:27.058, 0.0097, 0.0168,-0.9892,-0.0328, 0.0444,-0.0080, 0.0088,-0.0183,-2.4596,44.567598,-123.274524,-2.2369, 65.4755, 241.875015,Stationary,High, 99.4878, 0.0000, 78.5579, 40.3443,-504.5634,-36.1821, 2.2193,-72.9744
15-Mar-2018 17:31:27.068, 0.0087, 0.0176,-0.9850,-0.0350, 0.0465,-0.0069, 0.0087,-0.0183,-2.4596,44.567598,-123.274524,-2.2369, 65.4755, 241.875015,Stationary,High, 99.4878, 0.0000, 78.5579, 40.3443,-504.5634,-36.1845, 2.2201,-72.9731
15-Mar-2018 17:31:27.080, 0.0077, 0.0173,-0.9877,-0.0307, 0.0475,-0.0079, 0.0086,-0.0183,-2.4596,44.567598,-123.274524,-2.2369, 65.4755, 241.875015,Stationary,High, 99.4878, 0.0000, 78.5579, 40.3443,-504.5634,-36.1891, 2.2219,-72.9708
15-Mar-2018 17:31:27.087, 0.0085, 0.0173,-0.9887,-0.0296, 0.0507,-0.0090, 0.0086,-0.0183,-2.4596,44.567598,-123.274524,-2.2369, 65.4755, 241.875015,Stationary,High, 99.4878, 0.0000, 78.0235, 41.9580,-505.4160,-36.1946, 2.2233,-72.9680
15-Mar-2018 17:31:27.098, 0.0072, 0.0181,-0.9882,-0.0296, 0.0518,-0.0068, 0.0086,-0.0183,-2.4596,44.567598,-123.274524,-2.2369, 65.4755, 241.875015,Stationary,High, 99.4878, 0.0000, 78.0235, 41.9580,-505.4160,-36.1991, 2.2225,-72.9658
15-Mar-2018 17:31:27.110, 0.0090, 0.0179,-0.9867,-0.0328, 0.0486,-0.0069, 0.0085,-0.0183,-2.4596,44.567598,-123.274524,-2.2369, 65.4755, 241.875015,Stationary,High, 99.4878, 0.0000, 78.0235, 41.9580,-505.4160,-36.2014, 2.2217,-72.9647
15-Mar-2018 17:31:27.117, 0.0086, 0.0196,-0.9876,-0.0307, 0.0475,-0.0079, 0.0084,-0.0183,-2.4596,44.567598,-123.274524,-2.2369, 65.4755, 241.875015,Stationary,High, 99.4878, 0.0000, 78.0235, 41.9580,-505.4160,-36.2074, 2.2241,-72.9617
15-Mar-2018 17:31:27.127, 0.0086, 0.0180,-0.9853,-0.0318, 0.0507,-0.0069, 0.0084,-0.0184,-2.4596,44.567598,-123.274524,-2.2369, 65.4755, 241.875015,Stationary,High, 99.4878, 0.0000, 78.0235, 40.5236,-504.7339,-36.2108, 2.2245,-72.9600
15-Mar-2018 17:31:27.139, 0.0097, 0.0177,-0.9864,-0.0286, 0.0582,-0.0068, 0.0085,-0.0183,-2.4596,44.567598,-123.274524,-2.2369, 65.4755, 241.875015,Stationary,High, 99.4878, 0.0000, 78.0235, 40.5236,-504.7339,-36.2148, 2.2292,-72.9579
15-Mar-2018 17:31:27.147, 0.0073, 0.0173,-0.9867,-0.0222, 0.0688,-0.0088, 0.0087,-0.0183,-2.4596,44.567598,-123.274524,-2.2369, 65.4755, 241.875015,Stationary,High, 99.4878, 0.0000, 78.0235, 40.5236,-504.7339,-36.2133, 2.2291,-72.9586
15-Mar-2018 17:31:27.156, 0.0103, 0.0178,-0.9862,-0.0232, 0.0720,-0.0077, 0.0087,-0.0182,-2.4596,44.567598,-123.274524,-2.2369, 65.4755, 241.875015,Stationary,High, 99.4878, 0.0000, 78.0235, 40.5236,-504.7339,-36.2016, 2.2241,-72.9645
15-Mar-2018 17:31:27.169, 0.0098, 0.0168,-0.9875,-0.0222, 0.0709,-0.0088, 0.0089,-0.0182,-2.4596,44.567598,-123.274524,-2.2369, 65.4755, 241.875015,Stationary,High, 99.4878, 0.0000, 78.9142, 40.7029,-504.9044,-36.1912, 2.2189,-72.9699
15-Mar-2018 17:31:27.182, 0.0107, 0.0172,-0.9880,-0.0222, 0.0741,-0.0077, 0.0092,-0.0180,-2.4596,44.567598,-123.274524,-2.2369, 65.4755, 241.875015,Stationary,High, 99.4878, 0.0000, 78.9142, 40.7029,-504.9044,-36.1768, 2.2138,-72.9772
15-Mar-2018 17:31:27.186, 0.0104, 0.0160,-0.9907,-0.0329, 0.0423,-0.0058, 0.0092,-0.0180,-2.4596,44.567598,-123.274524,-2.2369, 65.4755, 241.875015,Stationary,High, 99.4878, 0.0000, 78.9142, 40.7029,-504.9044,-36.1611, 2.2064,-72.9852
15-Mar-2018 17:31:27.196, 0.0111, 0.0164,-0.9907,-0.0329, 0.0423,-0.0058, 0.0092,-0.0180,-2.4596,44.567598,-123.274524,-2.2369, 65.4755, 241.875015,Stationary,High, 99.4878, 0.0000, 78.9142, 40.7029,-504.9044,-36.1611, 2.2064,-72.9852
15-Mar-2018 17:31:27.209, 0.0102, 0.0174,-0.9869,-0.0392, 0.0232,-0.0060, 0.0088,-0.0181,-2.4596,44.567598,-123.274524,-2.2369, 65.4755, 241.875015,Stationary,High, 99.4878, 0.0000, 79.0923, 39.8063,-506.0981,-36.1521, 2.2027,-72.9897
15-Mar-2018 17:31:27.215, 0.0060, 0.0179,-0.9849,-0.0350, 0.0348,-0.0059, 0.0085,-0.0182,-2.4596,44.567598,-123.274524,-2.2369, 65.4755, 241.875015,Stationary,High, 99.4878, 0.0000, 79.0923, 39.8063,-506.0981,-36.1693, 2.2066,-72.9811
15-Mar-2018 17:31:27.225, 0.0094, 0.0179,-0.9852,-0.0350, 0.0348,-0.0059, 0.0085,-0.0182,-2.4596,44.567598,-123.274524,-2.2369, 65.4755, 241.875015,Stationary,High, 99.4878, 0.0000, 79.0923, 39.8063,-506.0981,-36.1693, 2.2066,-72.9811
15-Mar-2018 17:31:27.239, 0.0067, 0.0177,-0.9883,-0.0307, 0.0476,-0.0058, 0.0084,-0.0183,-2.4595,44.567598,-123.274524,-2.2369, 65.4755, 241.875015,Stationary,High, 99.4878, 0.0000, 79.0923, 39.8063,-506.0981,-36.2094, 2.2203,-72.9608
15-Mar-2018 17:31:27.247,-0.0217, 0.0195,-0.9924,-0.0371, 0.0249, 0.0463, 0.0080,-0.0183,-2.4591,44.567598,-123.274524,-2.2369, 65.4755, 241.875015,Stationary,High, 99.4878, 0.0000, 78.3798, 40.5236,-504.0518,-36.2140, 2.2226,-72.9585
15-Mar-2018 17:31:27.258,-0.0177, 0.0173,-0.9858,-0.0371, 0.0249, 0.0463, 0.0080,-0.0183,-2.4591,44.567598,-123.274524,-2.2369, 65.4755, 241.875015,Stationary,High, 99.4878, 0.0000, 78.3798, 40.5236,-504.0518,-36.2140, 2.2226,-72.9585
15-Mar-2018 17:31:27.269, 0.0186, 0.0163,-0.9850,-0.0333, 0.0411, 0.0709, 0.0072,-0.0184,-2.4580,44.567598,-123.274524,-2.2369, 65.4755, 241.875015,Stationary,High, 99.4878, 0.0000, 78.3798, 40.5236,-504.0518,-36.2395, 2.2444,-72.9451
15-Mar-2018 17:31:27.275, 0.0301, 0.0159,-0.9894,-0.0290, 0.0478, 0.0145, 0.0072,-0.0184,-2.4574,44.567598,-123.274524,-2.2369, 65.4755, 241.875015,Stationary,High, 99.4878, 0.0000, 78.3798, 40.5236,-504.0518,-36.2987, 2.2744,-72.9147
15-Mar-2018 17:31:27.284, 0.0230, 0.0178,-0.9892,-0.0290, 0.0478, 0.0145, 0.0072,-0.0184,-2.4574,44.567598,-123.274524,-2.2369, 65.4755, 241.875015,Stationary,High, 99.4878, 0.0000, 76.5984, 39.4477,-505.0750,-36.2987, 2.2744,-72.9147
15-Mar-2018 17:31:27.300, 0.0068, 0.0171,-0.9847,-0.0329, 0.0423,-0.0048, 0.0075,-0.0184,-2.4574,44.567598,-123.274524,-2.2369, 65.4755, 241.875015,Stationary,High, 99.4878, 0.0000, 76.5984, 39.4477,-505.0750,-36.2987, 2.3081,-72.9137
15-Mar-2018 17:31:27.306, 0.0038, 0.0190,-0.9863,-0.0266, 0.0625,-0.0014, 0.0076,-0.0184,-2.4573,44.567598,-123.274524,-2.2369, 65.4755, 241.875015,Stationary,High, 99.4878, 0.0000, 76.5984, 39.4477,-505.0750,-36.2759, 2.3125,-72.9249
15-Mar-2018 17:31:27.314, 0.0019, 0.0171,-0.9905,-0.0266, 0.0625,-0.0014, 0.0076,-0.0184,-2.4573,44.567598,-123.274524,-2.2369, 65.4755, 241.875015,Stationary,High, 99.4883,-0.0423, 76.5984, 39.4477,-505.0750,-36.2759, 2.3125,-72.9249
15-Mar-2018 17:31:27.329, 0.0005, 0.0183,-0.9877,-0.0289, 0.0531, 0.0103, 0.0074,-0.0183,-2.4570,44.567598,-123.274524,-2.2369, 65.4755, 241.875015,Stationary,High, 99.4883,-0.0423, 79.6267, 39.6270,-505.2455,-36.2724, 2.3128,-72.9266
15-Mar-2018 17:31:27.334, 0.0135, 0.0182,-0.9868,-0.0278, 0.0552, 0.0081, 0.0074,-0.0183,-2.4567,44.567598,-123.274524,-2.2369, 65.4755, 241.875015,Stationary,High, 99.4883,-0.0423, 79.6267, 39.6270,-505.2455,-36.2831, 2.3152,-72.9212
15-Mar-2018 17:31:27.343, 0.0146, 0.0166,-0.9881,-0.0278, 0.0552, 0.0081, 0.0074,-0.0183,-2.4567,44.567598,-123.274524,-2.2369, 65.4755, 241.875015,Stationary,High, 99.4883,-0.0423, 79.6267, 39.6270,-505.2455,-36.2831, 2.3152,-72.9212
15-Mar-2018 17:31:27.355, 0.0127, 0.0179,-0.9880,-0.0340, 0.0444,-0.0005, 0.0075,-0.0183,-2.4566,44.567598,-123.274524,-2.2369, 65.4755, 241.875015,Stationary,High, 99.4883,-0.0423, 79.6267, 39.6270,-505.2455,-36.2828, 2.3301,-72.9209
15-Mar-2018 17:31:27.366, 0.0107, 0.0177,-0.9892,-0.0339, 0.0401,-0.0059, 0.0073,-0.0184,-2.4566,44.567598,-123.274524,-2.2369, 65.4755, 241.875015,Stationary,High, 99.4883,-0.0423, 78.5579, 39.2684,-504.5634,-36.2718, 2.3327,-72.9263
15-Mar-2018 17:31:27.372, 0.0077, 0.0179,-0.9860,-0.0339, 0.0401,-0.0059, 0.0073,-0.0184,-2.4566,44.567598,-123.274524,-2.2369, 65.4755, 241.875015,Stationary,High, 99.4883,-0.0423, 78.5579, 39.2684,-504.5634,-36.2718, 2.3327,-72.9263
15-Mar-2018 17:31:27.390, 0.0065, 0.0186,-0.9884,-0.0318, 0.0465,-0.0069, 0.0072,-0.0184,-2.4566,44.567598,-123.274524,-2.2369, 65.4755, 241.875015,Stationary,High, 99.4883,-0.0423, 78.5579, 39.2684,-504.5634,-36.2939, 2.3422,-72.9150
15-Mar-2018 17:31:27.398, 0.0081, 0.0179,-0.9882,-0.0307, 0.0454,-0.0069, 0.0071,-0.0185,-2.4566,44.567598,-123.274524,-2.2369, 65.4755, 241.875015,Stationary,High, 99.4883,-0.0423, 78.5579, 39.2684,-504.5634,-36.2995, 2.3447,-72.9121
15-Mar-2018 17:31:27.403, 0.0087, 0.0189,-0.9886,-0.0307, 0.0454,-0.0069, 0.0071,-0.0185,-2.4566,44.567598,-123.274524,-2.2369, 65.4755, 241.875015,Stationary,High, 99.4883,-0.0423, 79.0923, 39.4477,-504.3929,-36.2995, 2.3447,-72.9121
15-Mar-2018 17:31:27.420, 0.0088, 0.0173,-0.9858,-0.0307, 0.0486,-0.0068, 0.0071,-0.0185,-2.4566,44.567598,-123.274524,-2.2369, 65.4755, 241.875015,Stationary,High, 99.4883,-0.0423, 79.0923, 39.4477,-504.3929,-36.3070, 2.3463,-72.9083
15-Mar-2018 17:31:27.424, 0.0073, 0.0169,-0.9854,-0.0297, 0.0486,-0.0058, 0.0070,-0.0185,-2.4566,44.567598,-123.274524,-2.2369, 65.4755, 241.875015,Stationary,High, 99.4883,-0.0423, 79.0923, 39.4477,-504.3929,-36.3081, 2.3494,-72.9077
15-Mar-2018 17:31:27.431, 0.0076, 0.0157,-0.9882,-0.0297, 0.0486,-0.0058, 0.0070,-0.0185,-2.4566,44.567598,-123.274524,-2.2369, 65.4755, 241.875015,Stationary,High, 99.4883,-0.0423, 79.0923, 39.4477,-504.3929,-36.3081, 2.3494,-72.9077
15-Mar-2018 17:31:27.451, 0.0084, 0.0181,-0.9877,-0.0318, 0.0486,-0.0058, 0.0070,-0.0185,-2.4565,44.567598,-123.274524,-2.2369, 65.4755, 241.875015,Stationary,High, 99.4883,-0.0423, 78.9142, 38.5512,-504.5634,-36.3121, 2.3514,-72.9056
15-Mar-2018 17:31:27.455, 0.0084, 0.0181,-0.9877,-0.0318, 0.0486,-0.0058, 0.0070,-0.0185,-2.4565,44.567598,-123.274524,-2.2369, 65.4755, 241.875015,Stationary,High, 99.4883,-0.0423, 78.9142, 38.5512,-504.5634,-36.3121, 2.3514,-72.9056
15-Mar-2018 17:31:27.461, 0.0076, 0.0186,-0.9875,-0.0296, 0.0507,-0.0079, 0.0070,-0.0185,-2.4565,44.567598,-123.274524,-2.2369, 65.4755, 241.875015,Stationary,High, 99.4883,-0.0423, 78.9142, 38.5512,-504.5634,-36.3150, 2.3476,-72.9043
15-Mar-2018 17:31:27.470, 0.0053, 0.0186,-0.9848,-0.0296, 0.0507,-0.0079, 0.0070,-0.0185,-2.4565,44.567598,-123.274524,-2.2369, 65.4755, 241.875015,Stationary,High, 99.4883,-0.0423, 78.9142, 38.5512,-504.5634,-36.3150, 2.3476,-72.9043
15-Mar-2018 17:31:27.480, 0.0076, 0.0182,-0.9876,-0.0275, 0.0592,-0.0068, 0.0070,-0.0185,-2.4565,44.567598,-123.274524,-2.2369, 65.4755, 241.875015,Stationary,High, 99.4883,-0.0423, 78.9142, 38.5512,-504.5634,-36.3126, 2.3478,-72.9055
15-Mar-2018 17:31:27.490, 0.0079, 0.0171,-0.9889,-0.0264, 0.0582,-0.0078, 0.0072,-0.0184,-2.4565,44.567598,-123.274524,-2.2369, 65.4755, 241.875015,Stationary,High, 99.4883,-0.0423, 77.8454, 38.5512,-505.2455,-36.3135, 2.3497,-72.9050
15-Mar-2018 17:31:27.500, 0.0048, 0.0181,-0.9862,-0.0264, 0.0582,-0.0078, 0.0072,-0.0184,-2.4565,44.567598,-123.274524,-2.2369, 65.4755, 241.875015,Stationary,High, 99.4883,-0.0423, 77.8454, 38.5512,-505.2455,-36.3135, 2.3497,-72.9050
15-Mar-2018 17:31:27.510, 0.0114, 0.0168,-0.9960,-0.0275, 0.0561,-0.0057, 0.0071,-0.0184,-2.4565,44.567598,-123.274524,-2.2369, 65.4755, 241.875015,Stationary,High, 99.4883,-0.0423, 77.8454, 38.5512,-505.2455,-36.3002, 2.3443,-72.9118
15-Mar-2018 17:31:27.520, 0.0058, 0.0187,-0.9778,-0.0328, 0.0433,-0.0069, 0.0069,-0.0185,-2.4565,44.567598,-123.274524,-2.2369, 65.4755, 241.875015,Stationary,High, 99.4883,-0.0423, 77.8454, 38.5512,-505.2455,-36.3018, 2.3407,-72.9111
15-Mar-2018 17:31:27.529, 0.0067, 0.0180,-0.9885,-0.0328, 0.0433,-0.0069, 0.0069,-0.0185,-2.4565,44.567598,-123.274524,-2.2369, 65.4755, 241.875015,Stationary,High, 99.4883,-0.0423, 78.7361, 40.8822,-504.0518,-36.3018, 2.3407,-72.9111
15-Mar-2018 17:31:27.539, 0.0093, 0.0175,-0.9878,-0.0264, 0.0613,-0.0078, 0.0070,-0.0184,-2.4565,44.567598,-123.274524,-2.2369, 65.4755, 241.875015,Stationary,High, 99.4883,-0.0423, 78.7361, 40.8822,-504.0518,-36.3217, 2.3485,-72.9010
15-Mar-2018 17:31:27.549, 0.0074, 0.0174,-0.9902,-0.0286, 0.0582,-0.0068, 0.0072,-0.0184,-2.4565,44.567598,-123.274524,-2.2369, 65.4755, 241.875015,Stationary,High, 99.4883,-0.0423, 78.7361, 40.8822,-504.0518,-36.3161, 2.3461,-72.9038
15-Mar-2018 17:31:27.559, 0.0091, 0.0173,-0.9902,-0.0286, 0.0582,-0.0068, 0.0072,-0.0184,-2.4565,44.567598,-123.274524,-2.2369, 65.4755, 241.875015,Stationary,High, 99.4883,-0.0423, 78.7361, 40.8822,-504.0518,-36.3161, 2.3461,-72.9038
15-Mar-2018 17:31:27.569, 0.0044, 0.0178,-0.9776,-0.0467, 0.0019,-0.0083, 0.0067,-0.0185,-2.4565,44.567598,-123.274524,-2.2369, 65.4755, 241.875015,Stationary,High, 99.4883,-0.0423, 78.5579, 39.2684,-506.2686,-36.3002, 2.3424,-72.9118
15-Mar-2018 17:31:27.579, 0.0087, 0.0175,-0.9946,-0.0296, 0.0571,-0.0089, 0.0067,-0.0185,-2.4565,44.567598,-123.274524,-2.2369, 65.4755, 241.875015,Stationary,High, 99.4883,-0.0423, 78.5579, 39.2684,-506.2686,-36.3002, 2.3424,-72.9118
15-Mar-2018 17:31:27.588, 0.0056, 0.0174,-0.9864,-0.0328, 0.0391,-0.0080, 0.0066,-0.0185,-2.4565,44.567598,-123.274524,-2.2369, 65.4755, 241.875015,Stationary,High, 99.4883,-0.0423, 78.5579, 39.2684,-506.2686,-36.3383, 2.3529,-72.8925
15-Mar-2018 17:31:27.598, 0.0068, 0.0181,-0.9873,-0.0350, 0.0401,-0.0069, 0.0064,-0.0186,-2.4565,44.567598,-123.274524,-2.2369, 65.4755, 241.875015,Stationary,High, 99.4883,-0.0423, 78.5579, 39.2684,-506.2686,-36.3394, 2.3529,-72.8920
15-Mar-2018 17:31:27.608, 0.0048, 0.0185,-0.9846,-0.0349, 0.0380,-0.0091, 0.0063,-0.0186,-2.4565,44.567598,-123.274524,-2.2369, 65.4755, 241.875015,Stationary,High, 99.4883,-0.0423, 77.1328, 39.6270,-505.2455,-36.3394, 2.3529,-72.8920
15-Mar-2018 17:31:27.618, 0.0072, 0.0170,-0.9942,-0.0339, 0.0412,-0.0080, 0.0061,-0.0187,-2.4565,44.567598,-123.274524,-2.2369, 65.4755, 241.875015,Stationary,High, 99.4883,-0.0423, 77.1328, 39.6270,-505.2455,-36.3625, 2.3585,-72.8802
15-Mar-2018 17:31:27.630, 0.0035, 0.0186,-0.9871,-0.0371, 0.0348,-0.0070, 0.0059,-0.0187,-2.4565,44.567598,-123.274524,-2.2369, 65.4755, 241.875015,Stationary,High, 99.4883,-0.0423, 77.1328, 39.6270,-505.2455,-36.3792, 2.3634,-72.8717
15-Mar-2018 17:31:27.638, 0.0054, 0.0177,-0.9799,-0.0350, 0.0380,-0.0069, 0.0058,-0.0187,-2.4565,44.567598,-123.274524,-2.2369, 65.4755, 241.875015,Stationary,High, 99.4883,-0.0423, 77.1328, 39.6270,-505.2455,-36.3792, 2.3634,-72.8717
15-Mar-2018 17:31:27.649, 0.0082, 0.0188,-0.9927,-0.0328, 0.0454,-0.0069, 0.0056,-0.0188,-2.4565,44.567598,-123.274524,-2.2369, 65.4755, 241.875015,Stationary,High, 99.4883,-0.0423, 79.6267, 38.9098,-503.8813,-36.4010, 2.3688,-72.8607
15-Mar-2018 17:31:27.657, 0.0063, 0.0175,-0.9858,-0.0328, 0.0423,-0.0069, 0.0055,-0.0189,-2.4565,44.567598,-123.274524,-2.2369, 65.4755, 241.875015,Stationary,High, 99.4883,-0.0423, 79.6267, 38.9098,-503.8813,-36.4139, 2.3716,-72.8542
15-Mar-2018 17:31:27.667, 0.0050, 0.0182,-0.9928,-0.0381, 0.0369,-0.0081, 0.0054,-0.0189,-2.4565,44.567598,-123.274524,-2.2369, 64.4330, 241.875015,Stationary,High, 99.4883,-0.0423, 79.6267, 38.9098,-503.8813,-36.4139, 2.3716,-72.8542
15-Mar-2018 17:31:27.679, 0.0051, 0.0179,-0.9922,-0.0435, 0.0178,-0.0082, 0.0048,-0.0191,-2.4565,44.567598,-123.274524,-2.2369, 64.4330, 241.875015,Stationary,High, 99.4883,-0.0423, 79.6267, 38.9098,-503.8813,-36.4284, 2.3781,-72.8467
15-Mar-2018 17:31:27.687, 0.0055, 0.0176,-0.9877,-0.0520,-0.0098,-0.0063, 0.0042,-0.0193,-2.4565,44.567598,-123.274524,-2.2369, 64.4330, 241.875015,Stationary,High, 99.4883,-0.0423, 78.3798, 40.8822,-506.0981,-36.4498, 2.3850,-72.8358
15-Mar-2018 17:31:27.696, 0.0060, 0.0184,-0.9890,-0.0552,-0.0151,-0.0074, 0.0039,-0.0194,-2.4565,44.567598,-123.274524,-2.2369, 64.4330, 241.875015,Stationary,High, 99.4883,-0.0423, 78.3798, 40.8822,-506.0981,-36.4498, 2.3850,-72.8358
15-Mar-2018 17:31:27.710, 0.0054, 0.0189,-0.9888,-0.0605,-0.0193,-0.0064, 0.0028,-0.0199,-2.4565,44.567598,-123.274524,-2.2369, 64.4330, 241.875015,Stationary,High, 99.4883,-0.0423, 78.3798, 40.8822,-506.0981,-36.5397, 2.4163,-72.7897
15-Mar-2018 17:31:27.716, 0.0017, 0.0191,-0.9838,-0.0605,-0.0289,-0.0075, 0.0021,-0.0201,-2.4565,44.567598,-123.274524,-2.2369, 64.4330, 241.875015,Stationary,High, 99.4883,-0.0423, 78.3798, 40.8822,-506.0981,-36.5397, 2.4163,-72.7897
15-Mar-2018 17:31:27.726, 0.0019, 0.0192,-0.9926,-0.0563,-0.0151,-0.0074, 0.0018,-0.0202,-2.4565,44.567598,-123.274524,-2.2369, 64.4330, 241.875015,Stationary,High, 99.4883,-0.0423, 78.5579, 39.9856,-503.8813,-36.6446, 2.4599,-72.7355
15-Mar-2018 17:31:27.738,-0.0000, 0.0190,-0.9901,-0.0616,-0.0300,-0.0065, 0.0005,-0.0207,-2.4565,44.567598,-123.274524,-2.2369, 64.4330, 241.875015,Stationary,High, 99.4883,-0.0423, 78.5579, 39.9856,-503.8813,-36.6948, 2.4779,-72.7096
15-Mar-2018 17:31:27.745,-0.0020, 0.0205,-0.9701,-0.0605,-0.0215,-0.0075, 0.0000,-0.0209,-2.4565,44.567598,-123.274524,-2.2369, 64.4330, 241.875015,Stationary,High, 99.4883,-0.0423, 78.5579, 39.9856,-503.8813,-36.7549, 2.4998,-72.6784
15-Mar-2018 17:31:27.756,-0.0011, 0.0197,-0.9838,-0.0371, 0.0380,-0.0080,-0.0001,-0.0209,-2.4565,44.567598,-123.274524,-2.2369, 64.4330, 241.875015,Stationary,High, 99.4883,-0.0423, 78.5579, 39.9856,-503.8813,-36.7549, 2.4998,-72.6784
15-Mar-2018 17:31:27.765, 0.0001, 0.0204,-0.9903,-0.0349, 0.0443,-0.0101,-0.0003,-0.0210,-2.4565,44.567598,-123.274524,-2.2369, 64.4330, 241.875015,Stationary,High, 99.4883,-0.0423, 78.5579, 39.9856,-503.8813,-36.8308, 2.5283,-72.6390
15-Mar-2018 17:31:27.776, 0.0002, 0.0191,-0.9857,-0.0327, 0.0454,-0.0133,-0.0004,-0.0211,-2.4566,44.567598,-123.274524,-2.2369, 64.4330, 241.875015,Stationary,High, 99.4883,-0.0423, 78.2017, 39.6270,-504.5634,-36.8462, 2.5335,-72.6310
15-Mar-2018 17:31:27.784,-0.0009, 0.0189,-0.9884,-0.0306, 0.0486,-0.0122,-0.0004,-0.0210,-2.4566,44.567598,-123.274524,-2.2369, 64.4330, 241.875015,Stationary,High, 99.4883,-0.0423, 78.2017, 39.6270,-504.5634,-36.8462, 2.5335,-72.6310
