Timestamp,accelX,accelY,accelZ,gyroX(rad/s),gyroY(rad/s),gyroZ(rad/s),Roll(rads),Pitch(rads),Yaw(rads),Lat,Long,Speed(mph),TrueHeading,Alt(feet),ActivityType,ActivityConfidence,Pressure(kilopascals),RelativeAltitude(meters),magX(µT),magY(µT),magZ(µT),calMagX,calMagY,calMagZ
15-Mar-2018 17:26:37.270, 0.0087, 0.0165,-0.9847, 0.0000, 0.0000, 0.0000, 0.0000, 0.0000, 0.0000,44.567589,-123.274478,-2.2369, 0.0000, 241.242157,Unknown,Low, 0.0000, 0.0000, 0.0000, 0.0000, 0.0000, 0.0000, 0.0000, 0.0000
15-Mar-2018 17:26:37.281, 0.0086, 0.0160,-0.9834, 0.0000, 0.0000, 0.0000, 0.0000, 0.0000, 0.0000,44.567589,-123.274478,-2.2369, 0.0000, 241.242157,Unknown,Low, 0.0000, 0.0000, 0.0000, 0.0000, 0.0000, 0.0000, 0.0000, 0.0000
15-Mar-2018 17:26:37.283, 0.0086, 0.0160,-0.9834, 0.0000, 0.0000, 0.0000, 0.0000, 0.0000, 0.0000,44.567589,-123.274478,-2.2369, 0.0000, 241.242157,Unknown,Low, 0.0000, 0.0000, 0.0000, 0.0000, 0.0000, 0.0000, 0.0000, 0.0000
15-Mar-2018 17:26:37.284, 0.0086, 0.0160,-0.9834, 0.0000, 0.0000, 0.0000, 0.0000, 0.0000, 0.0000,44.567589,-123.274478,-2.2369, 0.0000, 241.242157,Unknown,Low, 0.0000, 0.0000, 0.0000, 0.0000, 0.0000, 0.0000, 0.0000, 0.0000
15-Mar-2018 17:26:37.301, 0.0097, 0.0170,-0.9869, 0.0000, 0.0000, 0.0000, 0.0000, 0.0000, 0.0000,44.567589,-123.274478,-2.2369, 0.0000, 241.242157,Unknown,Low, 0.0000, 0.0000, 0.0000, 0.0000, 0.0000, 0.0000, 0.0000, 0.0000
15-Mar-2018 17:26:37.310, 0.0078, 0.0170,-0.9854, 0.0000, 0.0000, 0.0000, 0.0000, 0.0000, 0.0000,44.567589,-123.274478,-2.2369, 0.0000, 241.242157,Unknown,Low, 0.0000, 0.0000, 0.0000, 0.0000, 0.0000, 0.0000, 0.0000, 0.0000
15-Mar-2018 17:26:37.314, 0.0078, 0.0170,-0.9854, 0.0000, 0.0000, 0.0000, 0.0000, 0.0000, 0.0000,44.567589,-123.274478,-2.2369, 0.0000, 241.242157,Unknown,Low, 0.0000, 0.0000, 0.0000, 0.0000, 0.0000, 0.0000, 0.0000, 0.0000
15-Mar-2018 17:26:37.323, 0.0085, 0.0169,-0.9845, 0.0000, 0.0000, 0.0000, 0.0000, 0.0000, 0.0000,44.567589,-123.274478,-2.2369, 0.0000, 241.242157,Unknown,Low, 0.0000, 0.0000, 0.0000, 0.0000, 0.0000, 0.0000, 0.0000, 0.0000
15-Mar-2018 17:26:37.335, 0.0083, 0.0165,-0.9856,-0.0286, 0.0561,-0.0068, 0.0095,-0.0174, 0.0005,44.567589,-123.274478,-2.2369, 0.0000, 241.242157,Unknown,Low, 0.0000, 0.0000, 0.0000, 0.0000, 0.0000, 0.0000, 0.0000, 0.0000
15-Mar-2018 17:26:37.339, 0.0094, 0.0161,-0.9880,-0.0286, 0.0561,-0.0068, 0.0095,-0.0174, 0.0005,44.567589,-123.274478,-2.2369, 0.0000, 241.242157,Unknown,Low, 0.0000, 0.0000, 0.0000, 0.0000, 0.0000, 0.0000, 0.0000, 0.0000
15-Mar-2018 17:26:37.388, 0.0078, 0.0179,-0.9851,-0.0275, 0.0550,-0.0068, 0.0096,-0.0171, 0.0007,44.567589,-123.274478,-2.2369, 0.0000, 241.242157,Unknown,Low, 0.0000, 0.0000, 0.0000, 0.0000, 0.0000, 0.0000, 0.0000, 0.0000
15-Mar-2018 17:26:37.407, 0.0103, 0.0161,-0.9865,-0.0286, 0.0550,-0.0068, 0.0095,-0.0171, 0.0007,44.567589,-123.274478,-2.2369, 0.0000, 241.242157,Unknown,Low, 0.0000, 0.0000, 0.0000, 0.0000, 0.0000, 0.0000, 0.0000, 0.0000
15-Mar-2018 17:26:37.414, 0.0103, 0.0161,-0.9865,-0.0286, 0.0550,-0.0068, 0.0095,-0.0171, 0.0007,44.567589,-123.274478,-2.2369, 0.0000, 241.242157,Unknown,Low, 0.0000, 0.0000, 78.0235, 39.8063,-502.0056, 0.0000, 0.0000, 0.0000
15-Mar-2018 17:26:37.418, 0.0093, 0.0168,-0.9857,-0.0286, 0.0550,-0.0068, 0.0095,-0.0171, 0.0007,44.567589,-123.274478,-2.2369, 0.0000, 241.242157,Unknown,Low, 0.0000, 0.0000, 78.0235, 39.8063,-502.0056, 0.0000, 0.0000, 0.0000
15-Mar-2018 17:26:37.429, 0.0082, 0.0184,-0.9844,-0.0286, 0.0539,-0.0068, 0.0095,-0.0171, 0.0008,44.567589,-123.274478,-2.2369, 0.0000, 241.242157,Unknown,Low, 0.0000, 0.0000, 78.0235, 39.8063,-502.0056, 0.0000, 0.0000, 0.0000
15-Mar-2018 17:26:37.452, 0.0084, 0.0157,-0.9847,-0.0286, 0.0539,-0.0068, 0.0095,-0.0171, 0.0008,44.567589,-123.274478,-2.2369, 0.0000, 241.242157,Unknown,Low, 0.0000, 0.0000, 78.0235, 39.8063,-502.0056, 0.0000, 0.0000, 0.0000
15-Mar-2018 17:26:37.501, 0.0087, 0.0172,-0.9844,-0.0275, 0.0539,-0.0068, 0.0095,-0.0171, 0.0010,44.567589,-123.274478,-2.2369, 0.0000, 241.242157,Unknown,Low, 0.0000, 0.0000, 76.9547, 41.2408,-501.3235, 0.0000, 0.0000, 0.0000
15-Mar-2018 17:26:37.504, 0.0093, 0.0170,-0.9858,-0.0275, 0.0539,-0.0068, 0.0095,-0.0171, 0.0010,44.567589,-123.274478,-2.2369, 0.0000, 241.242157,Unknown,Low, 0.0000, 0.0000, 76.9547, 41.2408,-501.3235, 0.0000, 0.0000, 0.0000
15-Mar-2018 17:26:37.515, 0.0093, 0.0170,-0.9858,-0.0275, 0.0539,-0.0068, 0.0095,-0.0171, 0.0010,44.567589,-123.274478,-2.2369, 0.0000, 241.242157,Stationary,High, 0.0000, 0.0000, 76.9547, 41.2408,-501.3235, 0.0000, 0.0000, 0.0000
15-Mar-2018 17:26:37.518, 0.0100, 0.0167,-0.9854,-0.0275, 0.0539,-0.0068, 0.0095,-0.0171, 0.0010,44.567589,-123.274478,-2.2369, 0.0000, 241.242157,Stationary,High, 0.0000, 0.0000, 76.9547, 41.2408,-501.3235, 0.0000, 0.0000, 0.0000
15-Mar-2018 17:26:37.529, 0.0100, 0.0167,-0.9854,-0.0286, 0.0539,-0.0079, 0.0096,-0.0170, 0.0010,44.567589,-123.274478,-2.2369, 0.0000, 241.242157,Stationary,High, 0.0000, 0.0000, 76.9547, 41.2408,-501.3235, 0.0000, 0.0000, 0.0000
15-Mar-2018 17:26:37.536, 0.0090, 0.0174,-0.9848,-0.0286, 0.0539,-0.0079, 0.0096,-0.0170, 0.0010,44.567589,-123.274478,-2.2369, 0.0000, 241.242157,Stationary,High, 0.0000, 0.0000, 76.9547, 41.2408,-501.3235, 0.0000, 0.0000, 0.0000
15-Mar-2018 17:26:37.546, 0.0090, 0.0174,-0.9848,-0.0264, 0.0550,-0.0078, 0.0096,-0.0170, 0.0011,44.567589,-123.274478,-2.2369, 0.0000, 241.242157,Stationary,High, 0.0000, 0.0000, 76.9547, 41.2408,-501.3235, 0.0000, 0.0000, 0.0000
15-Mar-2018 17:26:37.550, 0.0100, 0.0180,-0.9845,-0.0264, 0.0550,-0.0078, 0.0096,-0.0170, 0.0011,44.567589,-123.274478,-2.2369, 0.0000, 241.242157,Stationary,High, 0.0000, 0.0000, 76.9547, 41.2408,-501.3235, 0.0000, 0.0000, 0.0000
15-Mar-2018 17:26:37.562, 0.0100, 0.0180,-0.9845,-0.0275, 0.0550,-0.0078, 0.0096,-0.0170, 0.0011,44.567589,-123.274478,-2.2369, 0.0000, 241.242157,Stationary,High, 0.0000, 0.0000, 76.9547, 41.2408,-501.3235, 0.0000, 0.0000, 0.0000
15-Mar-2018 17:26:37.580, 0.0077, 0.0176,-0.9849,-0.0286, 0.0561,-0.0068, 0.0097,-0.0171, 0.0012,44.567589,-123.274478,-2.2369, 0.0000, 241.242157,Stationary,High, 0.0000, 0.0000, 76.7766, 39.6270,-502.5172, 0.0000, 0.0000, 0.0000
15-Mar-2018 17:26:37.583, 0.0077, 0.0176,-0.9849,-0.0286, 0.0561,-0.0068, 0.0097,-0.0171, 0.0012,44.567589,-123.274478,-2.2369, 0.0000, 241.242157,Stationary,High, 0.0000, 0.0000, 76.7766, 39.6270,-502.5172, 0.0000, 0.0000, 0.0000
15-Mar-2018 17:26:37.595, 0.0110, 0.0169,-0.9846,-0.0275, 0.0550,-0.0068, 0.0097,-0.0170, 0.0012,44.567589,-123.274478,-2.2369, 0.0000, 241.242157,Stationary,High, 0.0000, 0.0000, 76.7766, 39.6270,-502.5172, 0.0000, 0.0000, 0.0000
15-Mar-2018 17:26:37.598, 0.0110, 0.0169,-0.9846,-0.0275, 0.0550,-0.0068, 0.0098,-0.0170, 0.0012,44.567589,-123.274478,-2.2369, 0.0000, 241.242157,Stationary,High, 0.0000, 0.0000, 76.7766, 39.6270,-502.5172, 0.0000, 0.0000, 0.0000
15-Mar-2018 17:26:37.613, 0.0086, 0.0148,-0.9853,-0.0286, 0.0539,-0.0068, 0.0098,-0.0170, 0.0012,44.567589,-123.274478,-2.2369, 0.0000, 241.242157,Stationary,High, 0.0000, 0.0000, 77.8454, 41.4201,-501.8351, 0.0000, 0.0000, 0.0000
15-Mar-2018 17:26:37.615, 0.0086, 0.0148,-0.9853,-0.0286, 0.0539,-0.0068, 0.0098,-0.0170, 0.0012,44.567589,-123.274478,-2.2369, 0.0000, 241.242157,Stationary,High, 0.0000, 0.0000, 77.8454, 41.4201,-501.8351, 0.0000, 0.0000, 0.0000
15-Mar-2018 17:26:37.628, 0.0089, 0.0172,-0.9837,-0.0275, 0.0560,-0.0078, 0.0098,-0.0169, 0.0013,44.567589,-123.274478,-2.2369, 0.0000, 241.242157,Stationary,High, 0.0000, 0.0000, 77.8454, 41.4201,-501.8351, 0.0000, 0.0000, 0.0000
15-Mar-2018 17:26:37.631, 0.0089, 0.0172,-0.9837,-0.0275, 0.0560,-0.0078, 0.0098,-0.0169, 0.0013,44.567589,-123.274478,-2.2369, 0.0000, 241.242157,Stationary,High, 0.0000, 0.0000, 77.8454, 41.4201,-501.8351, 0.0000, 0.0000, 0.0000
15-Mar-2018 17:26:37.646, 0.0102, 0.0174,-0.9855,-0.0275, 0.0550,-0.0057, 0.0098,-0.0169, 0.0014,44.567589,-123.274478,-2.2369,-1.0000, 241.242157,Stationary,High, 0.0000, 0.0000, 76.7766, 39.9856,-501.8351, 0.0000, 0.0000, 0.0000
15-Mar-2018 17:26:37.649, 0.0102, 0.0174,-0.9855,-0.0275, 0.0550,-0.0057, 0.0098,-0.0169, 0.0014,44.567589,-123.274478,-2.2369,-1.0000, 241.242157,Stationary,High, 0.0000, 0.0000, 76.7766, 39.9856,-501.8351, 0.0000, 0.0000, 0.0000
15-Mar-2018 17:26:37.664, 0.0099, 0.0163,-0.9852,-0.0275, 0.0550,-0.0057, 0.0098,-0.0169, 0.0014,44.567589,-123.274478,-2.2369,-1.0000, 241.242157,Stationary,High, 0.0000, 0.0000, 76.7766, 39.9856,-501.8351, 0.0000, 0.0000, 0.0000
15-Mar-2018 17:26:37.669, 0.0099, 0.0163,-0.9852,-0.0275, 0.0550,-0.0057, 0.0098,-0.0169,-2.5134,44.567589,-123.274478,-2.2369,-1.0000, 241.242157,Stationary,High, 0.0000, 0.0000, 76.7766, 39.9856,-501.8351,-14.7255, 11.6372,-39.2769
15-Mar-2018 17:26:37.679, 0.0105, 0.0181,-0.9853,-0.0275, 0.0539,-0.0078, 0.0099,-0.0168,-2.5134,44.567589,-123.274478,-2.2369,-1.0000, 241.242157,Stationary,High, 0.0000, 0.0000, 75.8859, 41.5994,-502.0056,-14.7255, 11.6372,-39.2769
15-Mar-2018 17:26:37.684, 0.0103, 0.0171,-0.9835,-0.0275, 0.0539,-0.0078, 0.0099,-0.0168,-2.5134,44.567589,-123.274478,-2.2369,-1.0000, 241.242157,Stationary,High, 0.0000, 0.0000, 75.8859, 41.5994,-502.0056,-14.7255, 11.6372,-39.2769
15-Mar-2018 17:26:37.695, 0.0120, 0.0166,-0.9865,-0.0275, 0.0539,-0.0078, 0.0099,-0.0169,-2.5133,44.567589,-123.274478,-2.2369,-1.0000, 241.242157,Stationary,High, 0.0000, 0.0000, 75.8859, 41.5994,-502.0056,-14.7255, 11.6372,-39.2769
15-Mar-2018 17:26:37.698, 0.0120, 0.0166,-0.9865,-0.0275, 0.0539,-0.0078, 0.0099,-0.0169,-2.5133,44.567589,-123.274478,-2.2369,-1.0000, 241.242157,Stationary,High, 0.0000, 0.0000, 75.8859, 41.5994,-502.0056,-14.7255, 11.6372,-39.2769
15-Mar-2018 17:26:37.713, 0.0085, 0.0183,-0.9850,-0.0275, 0.0539,-0.0078, 0.0099,-0.0169,-2.5133,44.567589,-123.274478,-2.2369,-1.0000, 241.242157,Stationary,High, 0.0000, 0.0000, 75.5296, 41.5994,-503.0287,-14.7255, 11.6372,-39.2769
15-Mar-2018 17:26:37.716, 0.0085, 0.0183,-0.9850,-0.0286, 0.0550,-0.0068, 0.0100,-0.0168,-2.5133,44.567589,-123.274478,-2.2369,-1.0000, 241.242157,Stationary,High, 0.0000, 0.0000, 75.5296, 41.5994,-503.0287,-14.7255, 11.6372,-39.2769
15-Mar-2018 17:26:37.727, 0.0092, 0.0174,-0.9874,-0.0286, 0.0550,-0.0068, 0.0100,-0.0168,-2.5133,44.567589,-123.274478,-2.2369,-1.0000, 241.242157,Stationary,High, 0.0000, 0.0000, 75.5296, 41.5994,-503.0287,-14.7255, 11.6372,-39.2769
15-Mar-2018 17:26:37.730, 0.0092, 0.0174,-0.9874,-0.0286, 0.0550,-0.0068, 0.0100,-0.0168,-2.5133,44.567589,-123.274478,-2.2369,-1.0000, 241.242157,Stationary,High, 0.0000, 0.0000, 75.5296, 41.5994,-503.0287,-14.7255, 11.6372,-39.2769
15-Mar-2018 17:26:37.744, 0.0095, 0.0177,-0.9859,-0.0286, 0.0550,-0.0068, 0.0100,-0.0168,-2.5132,44.567589,-123.274478,-2.2369,-1.0000, 241.242157,Stationary,High, 0.0000, 0.0000, 75.5296, 41.5994,-503.0287,-14.7255, 11.6372,-39.2769
15-Mar-2018 17:26:37.749, 0.0108, 0.0177,-0.9827,-0.0275, 0.0550,-0.0068, 0.0100,-0.0168,-2.5132,44.567589,-123.274478,-2.2369,-1.0000, 241.242157,Stationary,High, 0.0000, 0.0000, 75.5296, 41.5994,-503.0287,-14.7255, 11.6372,-39.2769
15-Mar-2018 17:26:37.760, 0.0091, 0.0175,-0.9857,-0.0275, 0.0550,-0.0068, 0.0100,-0.0168,-2.5132,44.567589,-123.274478,-2.2369,-1.0000, 241.242157,Stationary,High, 0.0000, 0.0000, 75.5296, 41.5994,-503.0287,-14.7255, 11.6372,-39.2769
15-Mar-2018 17:26:37.764, 0.0091, 0.0175,-0.9857,-0.0275, 0.0550,-0.0078, 0.0100,-0.0168,-2.5131,44.567589,-123.274478,-2.2369,-1.0000, 241.242157,Stationary,High, 0.0000, 0.0000, 75.5296, 41.5994,-503.0287,-14.7255, 11.6372,-39.2769
15-Mar-2018 17:26:37.784, 0.0098, 0.0160,-0.9873,-0.0275, 0.0539,-0.0089, 0.0099,-0.0168,-2.5131,44.567589,-123.274478,-2.2369,-1.0000, 241.242157,Stationary,High, 0.0000, 0.0000, 76.5984, 40.5236,-502.0056,-14.7255, 11.6372,-39.2769
15-Mar-2018 17:26:37.786, 0.0098, 0.0160,-0.9873,-0.0275, 0.0539,-0.0089, 0.0099,-0.0168,-2.5131,44.567589,-123.274478,-2.2369,-1.0000, 241.242157,Stationary,High, 0.0000, 0.0000, 76.5984, 40.5236,-502.0056,-14.7255, 11.6372,-39.2769
15-Mar-2018 17:26:37.796, 0.0105, 0.0182,-0.9837,-0.0275, 0.0539,-0.0068, 0.0100,-0.0168,-2.5131,44.567589,-123.274478,-2.2369,-1.0000, 241.242157,Stationary,High, 0.0000, 0.0000, 76.5984, 40.5236,-502.0056,-14.7255, 11.6372,-39.2769
15-Mar-2018 17:26:37.803, 0.0103, 0.0175,-0.9867,-0.0286, 0.0561,-0.0068, 0.0100,-0.0168,-2.5130,44.567589,-123.274478,-2.2369,-1.0000, 241.242157,Stationary,High, 0.0000, 0.0000, 76.5984, 40.5236,-502.0056,-14.7255, 11.6372,-39.2769
15-Mar-2018 17:26:37.812, 0.0113, 0.0167,-0.9861,-0.0286, 0.0561,-0.0068, 0.0100,-0.0168,-2.5130,44.567589,-123.274478,-2.2369,-1.0000, 241.242157,Stationary,High, 0.0000, 0.0000, 76.5984, 40.5236,-502.0056,-14.7255, 11.6372,-39.2769
15-Mar-2018 17:26:37.815, 0.0113, 0.0167,-0.9861,-0.0286, 0.0561,-0.0068, 0.0100,-0.0168,-2.5130,44.567589,-123.274478,-2.2369,-1.0000, 241.242157,Stationary,High, 0.0000, 0.0000, 76.2422, 40.8822,-501.6646,-14.7255, 11.6372,-39.2769
15-Mar-2018 17:26:37.829, 0.0087, 0.0173,-0.9858,-0.0265, 0.0550,-0.0057, 0.0101,-0.0168,-2.5130,44.567589,-123.274478,-2.2369,-1.0000, 241.242157,Stationary,High, 0.0000, 0.0000, 76.2422, 40.8822,-501.6646,-14.7255, 11.6372,-39.2769
15-Mar-2018 17:26:37.832, 0.0087, 0.0173,-0.9858,-0.0275, 0.0550,-0.0078, 0.0100,-0.0168,-2.5130,44.567589,-123.274478,-2.2369,-1.0000, 241.242157,Stationary,High, 0.0000, 0.0000, 76.2422, 40.8822,-501.6646,-13.5921, 12.8162,-37.3966
15-Mar-2018 17:26:37.847, 0.0084, 0.0175,-0.9867,-0.0275, 0.0550,-0.0078, 0.0100,-0.0168,-2.5130,44.567589,-123.274478,-2.2369,-1.0000, 241.242157,Stationary,High, 0.0000, 0.0000, 76.5984, 41.2408,-501.6646,-13.5921, 12.8162,-37.3966
15-Mar-2018 17:26:37.851, 0.0084, 0.0175,-0.9867,-0.0265, 0.0550,-0.0068, 0.0100,-0.0168,-2.5129,44.567589,-123.274478,-2.2369,-1.0000, 241.242157,Stationary,High, 0.0000, 0.0000, 76.5984, 41.2408,-501.6646,-13.5917, 12.8155,-37.3969
15-Mar-2018 17:26:37.863, 0.0090, 0.0179,-0.9866,-0.0296, 0.0550,-0.0089, 0.0100,-0.0168,-2.5129,44.567589,-123.274478,-2.2369,-1.0000, 241.242157,Stationary,High, 0.0000, 0.0000, 76.5984, 41.2408,-501.6646,-13.5927, 12.8162,-37.3963
15-Mar-2018 17:26:37.870, 0.0102, 0.0163,-0.9860,-0.0296, 0.0550,-0.0089, 0.0100,-0.0168,-2.5129,44.567589,-123.274478,-2.2369,-1.0000, 241.242157,Stationary,High, 0.0000, 0.0000, 76.5984, 41.2408,-501.6646,-13.5927, 12.8162,-37.3963
15-Mar-2018 17:26:37.878, 0.0114, 0.0173,-0.9858,-0.0286, 0.0550,-0.0068, 0.0100,-0.0167,-2.5128,44.567589,-123.274478,-2.2369,-1.0000, 241.242157,Stationary,High, 0.0000, 0.0000, 76.7766, 40.3443,-501.1530,-13.5922, 12.8162,-37.3965
15-Mar-2018 17:26:37.881, 0.0114, 0.0173,-0.9858,-0.0275, 0.0561,-0.0068, 0.0101,-0.0167,-2.5128,44.567589,-123.274478,-2.2369,-1.0000, 241.242157,Stationary,High, 0.0000, 0.0000, 76.7766, 40.3443,-501.1530,-13.5914, 12.8160,-37.3969
15-Mar-2018 17:26:37.893, 0.0092, 0.0176,-0.9857,-0.0275, 0.0561,-0.0068, 0.0101,-0.0167,-2.5128,44.567589,-123.274478,-2.2369,-1.0000, 241.242157,Stationary,High, 0.0000, 0.0000, 76.7766, 40.3443,-501.1530,-13.5914, 12.8160,-37.3969
15-Mar-2018 17:26:37.896, 0.0092, 0.0176,-0.9857,-0.0265, 0.0539,-0.0068, 0.0101,-0.0167,-2.5128,44.567589,-123.274478,-2.2369,-1.0000, 241.242157,Stationary,High, 0.0000, 0.0000, 76.7766, 40.3443,-501.1530,-13.5882, 12.8156,-37.3982
15-Mar-2018 17:26:37.916, 0.0088, 0.0157,-0.9841,-0.0286, 0.0539,-0.0068, 0.0102,-0.0167,-2.5128,44.567589,-123.274478,-2.2369,-1.0000, 241.242157,Stationary,High, 0.0000, 0.0000, 76.7766, 40.3443,-501.1530,-13.5882, 12.8156,-37.3982
15-Mar-2018 17:26:37.919, 0.0088, 0.0157,-0.9841,-0.0286, 0.0539,-0.0068, 0.0102,-0.0167,-2.5128,44.567589,-123.274478,-2.2369,-1.0000, 241.242157,Stationary,High, 0.0000, 0.0000, 76.2422, 41.5994,-502.3467,-13.5882, 12.8156,-37.3982
15-Mar-2018 17:26:37.927, 0.0103, 0.0168,-0.9839,-0.0275, 0.0539,-0.0078, 0.0101,-0.0167,-2.5127,44.567589,-123.274478,-2.2369,-1.0000, 241.242157,Stationary,High, 0.0000, 0.0000, 76.2422, 41.5994,-502.3467,-13.5855, 12.8174,-37.3985
15-Mar-2018 17:26:37.930, 0.0103, 0.0168,-0.9839,-0.0275, 0.0560,-0.0078, 0.0102,-0.0166,-2.5127,44.567589,-123.274478,-2.2369,-1.0000, 241.242157,Stationary,High, 0.0000, 0.0000, 76.2422, 41.5994,-502.3467,-13.5854, 12.8153,-37.3993
15-Mar-2018 17:26:37.944, 0.0086, 0.0168,-0.9847,-0.0275, 0.0561,-0.0068, 0.0102,-0.0166,-2.5126,44.567589,-123.274478,-2.2369,-1.0000, 241.242157,Stationary,High, 0.0000, 0.0000, 76.2422, 41.5994,-502.3467,-13.5847, 12.8152,-37.3996
15-Mar-2018 17:26:37.949, 0.0108, 0.0163,-0.9858,-0.0275, 0.0561,-0.0068, 0.0102,-0.0166,-2.5126,44.567589,-123.274478,-2.2369,-1.0000, 241.242157,Stationary,High, 0.0000, 0.0000, 76.2422, 41.5994,-502.3467,-13.5847, 12.8152,-37.3996
15-Mar-2018 17:26:37.963, 0.0100, 0.0174,-0.9872,-0.0275, 0.0561,-0.0068, 0.0102,-0.0166,-2.5126,44.567589,-123.274478,-2.2369,-1.0000, 241.242157,Stationary,High, 0.0000, 0.0000, 76.2422, 41.5994,-502.3467,-13.5837, 12.8144,-37.4002
15-Mar-2018 17:26:37.967, 0.0100, 0.0174,-0.9872,-0.0275, 0.0550,-0.0078, 0.0102,-0.0166,-2.5126,44.567589,-123.274478,-2.2369,-1.0000, 241.242157,Stationary,High, 0.0000, 0.0000, 76.2422, 41.5994,-502.3467,-13.5837, 12.8144,-37.4002
15-Mar-2018 17:26:37.977, 0.0081, 0.0168,-0.9860,-0.0275, 0.0550,-0.0078, 0.0102,-0.0166,-2.5126,44.567589,-123.274478,-2.2369,-1.0000, 241.242157,Stationary,High, 0.0000, 0.0000, 76.2422, 41.5994,-502.3467,-13.5837, 12.8144,-37.4002
15-Mar-2018 17:26:37.981, 0.0081, 0.0168,-0.9860,-0.0275, 0.0550,-0.0078, 0.0102,-0.0166,-2.5126,44.567589,-123.274478,-2.2369,-1.0000, 241.242157,Stationary,High, 0.0000, 0.0000, 76.0640, 41.0615,-502.5172,-13.5837, 12.8144,-37.4002
15-Mar-2018 17:26:37.995, 0.0104, 0.0182,-0.9847,-0.0286, 0.0550,-0.0057, 0.0101,-0.0165,-2.5125,44.567589,-123.274478,-2.2369,-1.0000, 241.242157,Stationary,High, 0.0000, 0.0000, 76.0640, 41.0615,-502.5172,-13.5839, 12.8139,-37.4003
15-Mar-2018 17:26:37.998, 0.0104, 0.0182,-0.9847,-0.0286, 0.0550,-0.0057, 0.0101,-0.0165,-2.5125,44.567589,-123.274478,-2.2369,-1.0000, 241.242157,Stationary,High, 0.0000, 0.0000, 76.0640, 41.0615,-502.5172,-13.5839, 12.8139,-37.4003
15-Mar-2018 17:26:38.016, 0.0094, 0.0182,-0.9850,-0.0275, 0.0560,-0.0078, 0.0102,-0.0166,-2.5125,44.567589,-123.274478,-2.2369,-1.0000, 241.242157,Stationary,High, 0.0000, 0.0000, 76.0640, 41.0615,-502.5172,-13.5817, 12.8151,-37.4007
15-Mar-2018 17:26:38.021, 0.0094, 0.0182,-0.9850,-0.0275, 0.0560,-0.0078, 0.0102,-0.0166,-2.5125,44.567589,-123.274478,-2.2369,-1.0000, 241.242157,Stationary,High, 0.0000, 0.0000, 76.0640, 41.0615,-502.5172,-13.5817, 12.8151,-37.4007
15-Mar-2018 17:26:38.027, 0.0096, 0.0178,-0.9852,-0.0275, 0.0560,-0.0078, 0.0102,-0.0166,-2.5125,44.567589,-123.274478,-2.2369,-1.0000, 241.242157,Stationary,High, 0.0000, 0.0000, 76.7766, 39.9856,-502.1761,-13.5817, 12.8151,-37.4007
15-Mar-2018 17:26:38.031, 0.0096, 0.0178,-0.9852,-0.0275, 0.0560,-0.0078, 0.0102,-0.0166,-2.5125,44.567589,-123.274478,-2.2369,-1.0000, 241.242157,Stationary,High, 0.0000, 0.0000, 76.7766, 39.9856,-502.1761,-13.5817, 12.8151,-37.4007
15-Mar-2018 17:26:38.044, 0.0101, 0.0170,-0.9851,-0.0296, 0.0550,-0.0068, 0.0102,-0.0166,-2.5124,44.567589,-123.274478,-2.2369,-1.0000, 241.242157,Stationary,High, 0.0000, 0.0000, 76.7766, 39.9856,-502.1761,-13.5814, 12.8179,-37.3998
15-Mar-2018 17:26:38.047, 0.0101, 0.0170,-0.9851,-0.0296, 0.0550,-0.0068, 0.0102,-0.0166,-2.5124,44.567589,-123.274478,-2.2369,-1.0000, 241.242157,Stationary,High, 0.0000, 0.0000, 76.7766, 41.0615,-502.5172,-13.5814, 12.8179,-37.3998
15-Mar-2018 17:26:38.064, 0.0093, 0.0165,-0.9831,-0.0275, 0.0518,-0.0078, 0.0102,-0.0166,-2.5124,44.567589,-123.274478,-2.2369,-1.0000, 241.242157,Stationary,High, 0.0000, 0.0000, 76.7766, 41.0615,-502.5172,-13.5805, 12.8178,-37.4002
15-Mar-2018 17:26:38.068, 0.0093, 0.0165,-0.9831,-0.0275, 0.0518,-0.0078, 0.0102,-0.0166,-2.5124,44.567589,-123.274478,-2.2369,-1.0000, 241.242157,Stationary,High, 0.0000, 0.0000, 76.7766, 41.0615,-502.5172,-13.5805, 12.8178,-37.4002
15-Mar-2018 17:26:38.087, 0.0102, 0.0168,-0.9851,-0.0286, 0.0550,-0.0068, 0.0102,-0.0166,-2.5123,44.567589,-123.274478,-2.2369,-1.0000, 241.242157,Stationary,High, 0.0000, 0.0000, 76.7766, 41.0615,-502.5172,-13.5793, 12.8184,-37.4004
15-Mar-2018 17:26:38.103, 0.0100, 0.0178,-0.9852,-0.0275, 0.0550,-0.0068, 0.0102,-0.0166,-2.5122,44.567589,-123.274478,-2.2369,-1.0000, 241.242157,Stationary,High, 0.0000, 0.0000, 74.9952, 40.7029,-501.8351,-13.5775, 12.8198,-37.4006
15-Mar-2018 17:26:38.122, 0.0109, 0.0162,-0.9857,-0.0275, 0.0550,-0.0068, 0.0102,-0.0166,-2.5122,44.567589,-123.274478,-2.2369,-1.0000, 241.242157,Stationary,High, 0.0000, 0.0000, 74.9952, 40.7029,-501.8351,-13.5775, 12.8198,-37.4006
15-Mar-2018 17:26:38.129, 0.0102, 0.0166,-0.9859,-0.0296, 0.0539,-0.0068, 0.0103,-0.0166,-2.5122,44.567589,-123.274478,-2.2369,-1.0000, 241.242157,Stationary,High, 0.0000, 0.0000, 74.9952, 40.7029,-501.8351,-13.5752, 12.8211,-37.4010
15-Mar-2018 17:26:38.132, 0.0103, 0.0167,-0.9836,-0.0296, 0.0539,-0.0068, 0.0103,-0.0166,-2.5122,44.567589,-123.274478,-2.2369,-1.0000, 241.242157,Stationary,High, 0.0000, 0.0000, 74.9952, 40.7029,-501.8351,-13.5752, 12.8211,-37.4010
15-Mar-2018 17:26:38.148, 0.0115, 0.0155,-0.9848,-0.0296, 0.0539,-0.0068, 0.0103,-0.0166,-2.5122,44.567589,-123.274478,-2.2369,-1.0000, 241.242157,Stationary,High, 0.0000, 0.0000, 75.7077, 41.4201,-501.8351,-13.5752, 12.8211,-37.4010
15-Mar-2018 17:26:38.157, 0.0099, 0.0165,-0.9847,-0.0275, 0.0539,-0.0068, 0.0103,-0.0165,-2.5121,44.567589,-123.274478,-2.2369,-1.0000, 241.242157,Stationary,High, 0.0000, 0.0000, 75.7077, 41.4201,-501.8351,-13.5710, 12.8196,-37.4030
15-Mar-2018 17:26:38.165, 0.0107, 0.0168,-0.9836,-0.0275, 0.0539,-0.0068, 0.0103,-0.0165,-2.5121,44.567589,-123.274478,-2.2369,-1.0000, 241.242157,Stationary,High, 0.0000, 0.0000, 75.7077, 41.4201,-501.8351,-13.5707, 12.8191,-37.4033
15-Mar-2018 17:26:38.168, 0.0107, 0.0168,-0.9836,-0.0275, 0.0539,-0.0068, 0.0103,-0.0165,-2.5121,44.567589,-123.274478,-2.2369,-1.0000, 241.242157,Stationary,High, 0.0000, 0.0000, 75.7077, 41.4201,-501.8351,-13.5707, 12.8191,-37.4033
15-Mar-2018 17:26:38.179, 0.0091, 0.0171,-0.9848,-0.0275, 0.0539,-0.0068, 0.0103,-0.0165,-2.5121,44.567589,-123.274478,-2.2369,-1.0000, 241.242157,Stationary,High, 0.0000, 0.0000, 76.5984, 40.1649,-502.0056,-13.5707, 12.8191,-37.4033
15-Mar-2018 17:26:38.186, 0.0085, 0.0176,-0.9850,-0.0296, 0.0550,-0.0068, 0.0103,-0.0165,-2.5120,44.567589,-123.274478,-2.2369,-1.0000, 241.242157,Stationary,High, 0.0000, 0.0000, 76.5984, 40.1649,-502.0056,-13.5699, 12.8194,-37.4035
15-Mar-2018 17:26:38.195, 0.0093, 0.0160,-0.9848,-0.0296, 0.0550,-0.0068, 0.0103,-0.0165,-2.5120,44.567589,-123.274478,-2.2369,-1.0000, 241.242157,Stationary,High, 0.0000, 0.0000, 76.5984, 40.1649,-502.0056,-13.5699, 12.8194,-37.4035
15-Mar-2018 17:26:38.197, 0.0093, 0.0160,-0.9848,-0.0296, 0.0550,-0.0068, 0.0103,-0.0165,-2.5120,44.567589,-123.274478,-2.2369,-1.0000, 241.242157,Stationary,High, 0.0000, 0.0000, 76.5984, 40.1649,-502.0056,-13.5699, 12.8194,-37.4035
15-Mar-2018 17:26:38.226, 0.0083, 0.0186,-0.9855,-0.0275, 0.0539,-0.0057, 0.0104,-0.0165,-2.5119,44.567589,-123.274478,-2.2369,-1.0000, 241.242157,Stationary,High, 0.0000, 0.0000, 76.9547, 40.8822,-502.3467,-13.5668, 12.8201,-37.4044
15-Mar-2018 17:26:38.229, 0.0094, 0.0166,-0.9844,-0.0275, 0.0539,-0.0057, 0.0104,-0.0165,-2.5119,44.567589,-123.274478,-2.2369,-1.0000, 241.242157,Stationary,High, 0.0000, 0.0000, 76.9547, 40.8822,-502.3467,-13.5668, 12.8201,-37.4044
15-Mar-2018 17:26:38.232, 0.0094, 0.0166,-0.9844,-0.0275, 0.0539,-0.0057, 0.0104,-0.0165,-2.5119,44.567589,-123.274478,-2.2369,-1.0000, 241.242157,Stationary,High, 0.0000, 0.0000, 76.9547, 40.8822,-502.3467,-13.5668, 12.8201,-37.4044
15-Mar-2018 17:26:38.236, 0.0094, 0.0166,-0.9844,-0.0275, 0.0539,-0.0057, 0.0104,-0.0165,-2.5119,44.567589,-123.274478,-2.2369,-1.0000, 241.242157,Stationary,High, 0.0000, 0.0000, 76.9547, 40.8822,-502.3467,-13.5668, 12.8201,-37.4044
15-Mar-2018 17:26:38.238, 0.0094, 0.0166,-0.9844,-0.0275, 0.0539,-0.0057, 0.0104,-0.0165,-2.5119,44.567589,-123.274478,-2.2369,-1.0000, 241.242157,Stationary,High, 0.0000, 0.0000, 76.9547, 40.8822,-502.3467,-13.5668, 12.8201,-37.4044
15-Mar-2018 17:26:38.242, 0.0094, 0.0166,-0.9844,-0.0275, 0.0539,-0.0057, 0.0104,-0.0165,-2.5119,44.567589,-123.274478,-2.2369,-1.0000, 241.242157,Stationary,High, 0.0000, 0.0000, 76.7766, 40.3443,-504.2224,-13.5668, 12.8201,-37.4044
15-Mar-2018 17:26:38.246, 0.0103, 0.0177,-0.9846,-0.0296, 0.0582,-0.0079, 0.0104,-0.0165,-2.5119,44.567589,-123.274478,-2.2369,-1.0000, 241.242157,Stationary,High, 0.0000, 0.0000, 76.7766, 40.3443,-504.2224,-13.5668, 12.8201,-37.4044
15-Mar-2018 17:26:38.263, 0.0094, 0.0162,-0.9842,-0.0275, 0.0550,-0.0068, 0.0104,-0.0165,-2.5118,44.567589,-123.274478,-2.2369,-1.0000, 241.242157,Stationary,High, 0.0000, 0.0000, 76.7766, 40.3443,-504.2224,-13.5658, 12.8225,-37.4039
15-Mar-2018 17:26:38.266, 0.0094, 0.0162,-0.9842,-0.0275, 0.0550,-0.0068, 0.0104,-0.0165,-2.5118,44.567589,-123.274478,-2.2369,-1.0000, 241.242157,Stationary,High, 0.0000, 0.0000, 76.7766, 40.3443,-504.2224,-13.5658, 12.8225,-37.4039
15-Mar-2018 17:26:38.282, 0.0098, 0.0176,-0.9861,-0.0296, 0.0560,-0.0079, 0.0104,-0.0165,-2.5118,44.567589,-123.274478,-2.2369,-1.0000, 241.242157,Stationary,High, 0.0000, 0.0000, 77.4891, 41.7787,-502.8582,-13.5645, 12.8239,-37.4039
15-Mar-2018 17:26:38.287, 0.0087, 0.0171,-0.9845,-0.0296, 0.0560,-0.0079, 0.0104,-0.0165,-2.5118,44.567589,-123.274478,-2.2369,-1.0000, 241.242157,Stationary,High, 0.0000, 0.0000, 77.4891, 41.7787,-502.8582,-13.5645, 12.8239,-37.4039
15-Mar-2018 17:26:38.295, 0.0103, 0.0175,-0.9858,-0.0296, 0.0560,-0.0079, 0.0104,-0.0165,-2.5118,44.567589,-123.274478,-2.2369,-1.0000, 241.242157,Stationary,High, 0.0000, 0.0000, 77.4891, 41.7787,-502.8582,-13.5645, 12.8239,-37.4039
15-Mar-2018 17:26:38.304, 0.0109, 0.0174,-0.9846,-0.0275, 0.0529,-0.0078, 0.0104,-0.0166,-2.5117,44.567589,-123.274478,-2.2369,-1.0000, 241.242157,Stationary,High, 0.0000, 0.0000, 77.4891, 41.7787,-502.8582,-13.5642, 12.8246,-37.4038
15-Mar-2018 17:26:38.317, 0.0099, 0.0175,-0.9861,-0.0264, 0.0550,-0.0078, 0.0104,-0.0165,-2.5117,44.567589,-123.274478,-2.2369,-1.0000, 241.242157,Stationary,High, 0.0000, 0.0000, 77.4891, 41.7787,-502.8582,-13.5632, 12.8253,-37.4039
15-Mar-2018 17:26:38.322, 0.0101, 0.0181,-0.9854,-0.0264, 0.0550,-0.0078, 0.0104,-0.0165,-2.5117,44.567589,-123.274478,-2.2369,-1.0000, 241.242157,Stationary,High, 0.0000, 0.0000, 77.4891, 41.7787,-502.8582,-13.5632, 12.8253,-37.4039
15-Mar-2018 17:26:38.328, 0.0103, 0.0173,-0.9861,-0.0264, 0.0550,-0.0078, 0.0104,-0.0165,-2.5117,44.567589,-123.274478,-2.2369,-1.0000, 241.242157,Stationary,High, 0.0000, 0.0000, 77.4891, 41.7787,-502.8582,-13.5632, 12.8253,-37.4039
15-Mar-2018 17:26:38.335, 0.0103, 0.0173,-0.9861,-0.0254, 0.0529,-0.0078, 0.0104,-0.0165,-2.5117,44.567589,-123.274478,-2.2369,-1.0000, 241.242157,Stationary,High, 0.0000, 0.0000, 77.4891, 41.7787,-502.8582,-13.5626, 12.8253,-37.4041
15-Mar-2018 17:26:38.344, 0.0103, 0.0173,-0.9861,-0.0254, 0.0529,-0.0078, 0.0104,-0.0165,-2.5117,44.567589,-123.274478,-2.2369,-1.0000, 241.242157,Stationary,High, 0.0000, 0.0000, 76.7766, 41.0615,-502.8582,-13.5626, 12.8253,-37.4041
15-Mar-2018 17:26:38.347, 0.0089, 0.0160,-0.9861,-0.0275, 0.0550,-0.0068, 0.0104,-0.0165,-2.5116,44.567589,-123.274478,-2.2369,-1.0000, 241.242157,Stationary,High, 0.0000, 0.0000, 76.7766, 41.0615,-502.8582,-13.5625, 12.8250,-37.4042
15-Mar-2018 17:26:38.366, 0.0096, 0.0161,-0.9840,-0.0275, 0.0550,-0.0078, 0.0104,-0.0164,-2.5116,44.567589,-123.274478,-2.2369,-1.0000, 241.242157,Stationary,High, 99.4724, 0.0000, 76.7766, 41.0615,-502.8582,-13.5630, 12.8236,-37.4046
15-Mar-2018 17:26:38.371, 0.0096, 0.0161,-0.9840,-0.0275, 0.0550,-0.0078, 0.0104,-0.0164,-2.5116,44.567589,-123.274478,-2.2369,-1.0000, 241.242157,Stationary,High, 99.4724, 0.0000, 76.7766, 41.0615,-502.8582,-13.5630, 12.8236,-37.4046
15-Mar-2018 17:26:38.381, 0.0098, 0.0170,-0.9859,-0.0275, 0.0550,-0.0078, 0.0104,-0.0164,-2.5116,44.567589,-123.274478,-2.2369,-1.0000, 241.242157,Stationary,High, 99.4724, 0.0000, 77.1328, 39.9856,-500.8120,-13.5610, 12.8232,-37.4054
15-Mar-2018 17:26:38.388, 0.0082, 0.0166,-0.9820,-0.0264, 0.0539,-0.0078, 0.0104,-0.0164,-2.5115,44.567589,-123.274478,-2.2369,-1.0000, 241.242157,Stationary,High, 99.4724, 0.0000, 77.1328, 39.9856,-500.8120,-13.5610, 12.8232,-37.4054
15-Mar-2018 17:26:38.399, 0.0082, 0.0166,-0.9820,-0.0275, 0.0560,-0.0078, 0.0104,-0.0164,-2.5115,44.567589,-123.274478,-2.2369,-1.0000, 241.242157,Stationary,High, 99.4724, 0.0000, 77.1328, 39.9856,-500.8120,-13.5608, 12.8232,-37.4055
15-Mar-2018 17:26:38.404, 0.0082, 0.0166,-0.9820,-0.0275, 0.0560,-0.0078, 0.0104,-0.0164,-2.5115,44.567589,-123.274478,-2.2369,-1.0000, 241.242157,Stationary,High, 99.4724, 0.0000, 77.1328, 39.9856,-500.8120,-13.5608, 12.8232,-37.4055
15-Mar-2018 17:26:38.414, 0.0091, 0.0164,-0.9844,-0.0286, 0.0539,-0.0068, 0.0104,-0.0164,-2.5115,44.567589,-123.274478,-2.2369,-1.0000, 241.242157,Stationary,High, 99.4724, 0.0000, 75.8859, 40.5236,-503.0287,-13.5615, 12.8225,-37.4055
15-Mar-2018 17:26:38.419, 0.0113, 0.0164,-0.9852,-0.0286, 0.0539,-0.0068, 0.0104,-0.0164,-2.5115,44.567589,-123.274478,-2.2369,-1.0000, 241.242157,Stationary,High, 99.4724, 0.0000, 75.8859, 40.5236,-503.0287,-13.5615, 12.8225,-37.4055
15-Mar-2018 17:26:38.427, 0.0102, 0.0163,-0.9839,-0.0286, 0.0539,-0.0068, 0.0104,-0.0164,-2.5115,44.567589,-123.274478,-2.2369,-1.0000, 241.242157,Stationary,High, 99.4724, 0.0000, 75.8859, 40.5236,-503.0287,-13.5615, 12.8225,-37.4055
15-Mar-2018 17:26:38.430, 0.0102, 0.0163,-0.9839,-0.0286, 0.0550,-0.0079, 0.0105,-0.0164,-2.5114,44.567589,-123.274478,-2.2369,-1.0000, 241.242157,Stationary,High, 99.4724, 0.0000, 75.8859, 40.5236,-503.0287,-13.5588, 12.8222,-37.4066
15-Mar-2018 17:26:38.444, 0.0087, 0.0167,-0.9845,-0.0286, 0.0550,-0.0079, 0.0105,-0.0163,-2.5114,44.567589,-123.274478,-2.2369,-1.0000, 241.242157,Stationary,High, 99.4724, 0.0000, 75.8859, 40.5236,-503.0287,-13.5588, 12.8222,-37.4066
15-Mar-2018 17:26:38.448, 0.0098, 0.0167,-0.9844,-0.0286, 0.0550,-0.0079, 0.0105,-0.0163,-2.5114,44.567589,-123.274478,-2.2369,-1.0000, 241.242157,Stationary,High, 99.4724, 0.0000, 76.5984, 40.1649,-503.3698,-13.5588, 12.8222,-37.4066
15-Mar-2018 17:26:38.462, 0.0103, 0.0173,-0.9837,-0.0275, 0.0550,-0.0068, 0.0104,-0.0163,-2.5114,44.567589,-123.274478,-2.2369,-1.0000, 241.242157,Stationary,High, 99.4724, 0.0000, 76.5984, 40.1649,-503.3698,-13.5594, 12.8219,-37.4065
15-Mar-2018 17:26:38.467, 0.0103, 0.0173,-0.9837,-0.0275, 0.0550,-0.0068, 0.0104,-0.0163,-2.5114,44.567589,-123.274478,-2.2369,-1.0000, 241.242157,Stationary,High, 99.4724, 0.0000, 76.5984, 40.1649,-503.3698,-13.5594, 12.8219,-37.4065
15-Mar-2018 17:26:38.477, 0.0086, 0.0170,-0.9863,-0.0275, 0.0550,-0.0068, 0.0104,-0.0163,-2.5114,44.567589,-123.274478,-2.2369,-1.0000, 241.242157,Stationary,High, 99.4724, 0.0000, 77.3110, 39.8063,-503.0287,-13.5594, 12.8219,-37.4065
15-Mar-2018 17:26:38.481, 0.0086, 0.0170,-0.9863,-0.0275, 0.0550,-0.0068, 0.0104,-0.0163,-2.5113,44.567589,-123.274478,-2.2369,-1.0000, 241.242157,Stationary,High, 99.4724, 0.0000, 77.3110, 39.8063,-503.0287,-13.5571, 12.8209,-37.4076
15-Mar-2018 17:26:38.500, 0.0110, 0.0181,-0.9846,-0.0275, 0.0550,-0.0068, 0.0104,-0.0163,-2.5113,44.567589,-123.274478,-2.2369,-1.0000, 241.242157,Stationary,High, 99.4724, 0.0000, 77.3110, 39.8063,-503.0287,-13.5571, 12.8209,-37.4076
15-Mar-2018 17:26:38.505, 0.0089, 0.0161,-0.9853,-0.0286, 0.0550,-0.0079, 0.0104,-0.0164,-2.5113,44.567589,-123.274478,-2.2369,-1.0000, 241.242157,Stationary,High, 99.4724, 0.0000, 77.3110, 39.8063,-503.0287,-13.5587, 12.8225,-37.4065
15-Mar-2018 17:26:38.524, 0.0097, 0.0170,-0.9858,-0.0275, 0.0539,-0.0068, 0.0104,-0.0163,-2.5112,44.567589,-123.274478,-2.2369,-1.0000, 241.242157,Stationary,High, 99.4724, 0.0000, 77.3110, 39.8063,-503.0287,-13.5573, 12.8243,-37.4064
15-Mar-2018 17:26:38.530, 0.0097, 0.0170,-0.9858,-0.0275, 0.0539,-0.0068, 0.0104,-0.0163,-2.5112,44.567589,-123.274478,-2.2369,-1.0000, 241.242157,Stationary,High, 99.4724, 0.0000, 76.2422, 41.2408,-502.0056,-13.5575, 12.8237,-37.4065
15-Mar-2018 17:26:38.534, 0.0097, 0.0170,-0.9858,-0.0275, 0.0539,-0.0068, 0.0104,-0.0163,-2.5112,44.567589,-123.274478,-2.2369,-1.0000, 241.242157,Stationary,High, 99.4724, 0.0000, 76.2422, 41.2408,-502.0056,-13.5575, 12.8237,-37.4065
15-Mar-2018 17:26:38.547, 0.0090, 0.0172,-0.9839,-0.0286, 0.0539,-0.0079, 0.0104,-0.0163,-2.5112,44.567589,-123.274478,-2.2369,-1.0000, 241.242157,Stationary,High, 99.4724, 0.0000, 76.2422, 41.2408,-502.0056,-13.5575, 12.8237,-37.4065
15-Mar-2018 17:26:38.557, 0.0088, 0.0173,-0.9860,-0.0275, 0.0539,-0.0078, 0.0104,-0.0163,-2.5111,44.567578,-123.274497,-2.2369,-1.0000, 241.460495,Stationary,High, 99.4724, 0.0000, 76.2422, 41.2408,-502.0056,-13.5571, 12.8244,-37.4064
15-Mar-2018 17:26:38.568, 0.0088, 0.0179,-0.9868,-0.0275, 0.0539,-0.0078, 0.0104,-0.0163,-2.5111,44.567578,-123.274497,-2.2369,-1.0000, 241.460495,Stationary,High, 99.4724, 0.0000, 75.8859, 40.8822,-501.6646,-13.5571, 12.8244,-37.4064
15-Mar-2018 17:26:38.585, 0.0097, 0.0169,-0.9863,-0.0264, 0.0550,-0.0078, 0.0103,-0.0164,-2.5111,44.567578,-123.274497,-2.2369,-1.0000, 241.460495,Stationary,High, 99.4724, 0.0000, 75.8859, 40.8822,-501.6646,-13.5580, 12.8249,-37.4059
15-Mar-2018 17:26:38.589, 0.0097, 0.0169,-0.9863,-0.0264, 0.0550,-0.0078, 0.0103,-0.0164,-2.5111,44.567578,-123.274497,-2.2369,-1.0000, 241.460495,Stationary,High, 99.4724, 0.0000, 75.8859, 40.8822,-501.6646,-13.5588, 12.8274,-37.4048
15-Mar-2018 17:26:38.594, 0.0099, 0.0167,-0.9841,-0.0264, 0.0550,-0.0078, 0.0103,-0.0164,-2.5111,44.567578,-123.274497,-2.2369,-1.0000, 241.460495,Stationary,High, 99.4724, 0.0000, 75.8859, 40.8822,-501.6646,-13.5588, 12.8274,-37.4048
15-Mar-2018 17:26:38.598, 0.0099, 0.0167,-0.9841,-0.0264, 0.0550,-0.0078, 0.0103,-0.0164,-2.5111,44.567578,-123.274497,-2.2369,-1.0000, 241.460495,Stationary,High, 99.4724, 0.0000, 76.2422, 40.1649,-503.0287,-13.5588, 12.8274,-37.4048
15-Mar-2018 17:26:38.614, 0.0103, 0.0163,-0.9853,-0.0275, 0.0561,-0.0068, 0.0103,-0.0164,-2.5110,44.567578,-123.274497,-2.2369, 116.3631, 241.460495,Stationary,High, 99.4724, 0.0000, 76.2422, 40.1649,-503.0287,-13.5588, 12.8274,-37.4048
15-Mar-2018 17:26:38.621, 0.0115, 0.0156,-0.9863,-0.0286, 0.0550,-0.0068, 0.0103,-0.0163,-2.5110,44.567578,-123.274497,-2.2369, 116.3631, 241.460495,Stationary,High, 99.4724, 0.0000, 76.2422, 40.1649,-503.0287,-13.5586, 12.8278,-37.4047
15-Mar-2018 17:26:38.633, 0.0091, 0.0177,-0.9841,-0.0275, 0.0550,-0.0068, 0.0103,-0.0163,-2.5109,44.567578,-123.274497,-2.2369, 116.3631, 241.460495,Stationary,High, 99.4724, 0.0000, 76.2422, 40.1649,-503.0287,-13.5577, 12.8278,-37.4050
15-Mar-2018 17:26:38.636, 0.0091, 0.0177,-0.9841,-0.0275, 0.0550,-0.0068, 0.0103,-0.0163,-2.5109,44.567578,-123.274497,-2.2369, 116.3631, 241.460495,Stationary,High, 99.4724, 0.0000, 76.2422, 40.1649,-503.0287,-13.5577, 12.8278,-37.4050
15-Mar-2018 17:26:38.644, 0.0083, 0.0171,-0.9854,-0.0275, 0.0550,-0.0068, 0.0103,-0.0163,-2.5109,44.567578,-123.274497,-2.2369, 116.3631, 241.460495,Stationary,High, 99.4724, 0.0000, 76.2422, 40.1649,-503.0287,-13.5577, 12.8278,-37.4050
15-Mar-2018 17:26:38.647, 0.0083, 0.0171,-0.9854,-0.0275, 0.0550,-0.0068, 0.0103,-0.0163,-2.5109,44.567578,-123.274497,-2.2369, 116.3631, 241.460495,Stationary,High, 99.4724, 0.0000, 76.2422, 40.1649,-503.0287,-13.5566, 12.8281,-37.4053
15-Mar-2018 17:26:38.663, 0.0099, 0.0163,-0.9864,-0.0275, 0.0550,-0.0068, 0.0103,-0.0163,-2.5109,44.567578,-123.274497,-2.2369, 116.3631, 241.460495,Stationary,High, 99.4724, 0.0000, 76.2422, 40.1649,-503.0287,-13.5566, 12.8281,-37.4053
15-Mar-2018 17:26:38.672, 0.0095, 0.0172,-0.9846,-0.0286, 0.0550,-0.0079, 0.0103,-0.0164,-2.5109,44.567578,-123.274497,-2.2369, 116.3631, 241.460495,Stationary,High, 99.4724, 0.0000, 76.7766, 40.7029,-502.5172,-13.5566, 12.8281,-37.4053
15-Mar-2018 17:26:38.678, 0.0095, 0.0172,-0.9846,-0.0286, 0.0550,-0.0079, 0.0103,-0.0164,-2.5108,44.567578,-123.274497,-2.2369, 116.3631, 241.460495,Stationary,High, 99.4724, 0.0000, 76.7766, 40.7029,-502.5172,-13.5566, 12.8297,-37.4048
15-Mar-2018 17:26:38.682, 0.0090, 0.0177,-0.9844,-0.0286, 0.0550,-0.0079, 0.0103,-0.0164,-2.5108,44.567578,-123.274497,-2.2369, 116.3631, 241.460495,Stationary,High, 99.4724, 0.0000, 76.7766, 40.7029,-502.5172,-13.5566, 12.8297,-37.4048
15-Mar-2018 17:26:38.698, 0.0095, 0.0173,-0.9831,-0.0286, 0.0550,-0.0079, 0.0103,-0.0164,-2.5108,44.567578,-123.274497,-2.2369, 116.3631, 241.460495,Stationary,High, 99.4724, 0.0000, 76.7766, 40.7029,-502.5172,-13.5566, 12.8297,-37.4048
15-Mar-2018 17:26:38.704, 0.0094, 0.0173,-0.9858,-0.0275, 0.0539,-0.0078, 0.0103,-0.0164,-2.5108,44.567578,-123.274497,-2.2369, 116.3631, 241.460495,Stationary,High, 99.4724, 0.0000, 76.5984, 40.1649,-502.3467,-13.5566, 12.8297,-37.4048
15-Mar-2018 17:26:38.716, 0.0088, 0.0169,-0.9864,-0.0275, 0.0539,-0.0078, 0.0103,-0.0164,-2.5108,44.567578,-123.274497,-2.2369, 116.3631, 241.460495,Stationary,High, 99.4724, 0.0000, 76.5984, 40.1649,-502.3467,-13.5566, 12.8316,-37.4041
15-Mar-2018 17:26:38.722, 0.0089, 0.0163,-0.9848,-0.0285, 0.0539,-0.0089, 0.0102,-0.0164,-2.5108,44.567578,-123.274497,-2.2369, 116.3631, 241.460495,Stationary,High, 99.4724, 0.0000, 76.5984, 40.1649,-502.3467,-13.5566, 12.8316,-37.4041
15-Mar-2018 17:26:38.732, 0.0089, 0.0163,-0.9848,-0.0275, 0.0561,-0.0068, 0.0103,-0.0164,-2.5107,44.567578,-123.274497,-2.2369, 116.3631, 241.460495,Stationary,High, 99.4724, 0.0000, 76.5984, 40.1649,-502.3467,-13.5580, 12.8326,-37.4033
15-Mar-2018 17:26:38.735, 0.0097, 0.0160,-0.9835,-0.0275, 0.0561,-0.0068, 0.0103,-0.0164,-2.5107,44.567578,-123.274497,-2.2369, 116.3631, 241.460495,Stationary,High, 99.4724, 0.0000, 77.3110, 41.5994,-501.3235,-13.5580, 12.8326,-37.4033
15-Mar-2018 17:26:38.743, 0.0107, 0.0174,-0.9848,-0.0275, 0.0561,-0.0068, 0.0103,-0.0164,-2.5107,44.567578,-123.274497,-2.2369, 116.3631, 241.460495,Stationary,High, 99.4724, 0.0000, 77.3110, 41.5994,-501.3235,-13.5580, 12.8326,-37.4033
15-Mar-2018 17:26:38.747, 0.0107, 0.0174,-0.9848,-0.0286, 0.0560,-0.0079, 0.0103,-0.0163,-2.5107,44.567578,-123.274497,-2.2369, 116.3631, 241.460495,Stationary,High, 99.4724, 0.0000, 77.3110, 41.5994,-501.3235,-13.5572, 12.8317,-37.4039
15-Mar-2018 17:26:38.762, 0.0084, 0.0181,-0.9849,-0.0264, 0.0550,-0.0078, 0.0103,-0.0163,-2.5107,44.567578,-123.274497,-2.2369, 116.3631, 241.460495,Stationary,High, 99.4724, 0.0000, 77.3110, 41.5994,-501.3235,-13.5564, 12.8312,-37.4043
15-Mar-2018 17:26:38.771, 0.0106, 0.0170,-0.9846,-0.0264, 0.0550,-0.0078, 0.0103,-0.0163,-2.5107,44.567578,-123.274497,-2.2369, 116.3631, 241.460495,Stationary,High, 99.4724, 0.0000, 75.3515, 41.0615,-503.1993,-13.5564, 12.8312,-37.4043
15-Mar-2018 17:26:38.777, 0.0106, 0.0170,-0.9846,-0.0275, 0.0550,-0.0068, 0.0103,-0.0163,-2.5107,44.567578,-123.274497,-2.2369, 116.3631, 241.460495,Stationary,High, 99.4724, 0.0000, 75.3515, 41.0615,-503.1993,-13.5548, 12.8308,-37.4051
15-Mar-2018 17:26:38.785, 0.0085, 0.0169,-0.9859,-0.0286, 0.0529,-0.0068, 0.0102,-0.0163,-2.5106,44.567578,-123.274497,-2.2369, 116.3631, 241.460495,Stationary,High, 99.4724, 0.0000, 75.3515, 41.0615,-503.1993,-13.5554, 12.8317,-37.4045
15-Mar-2018 17:26:38.799, 0.0082, 0.0164,-0.9856,-0.0286, 0.0529,-0.0068, 0.0102,-0.0163,-2.5106,44.567578,-123.274497,-2.2369, 116.3631, 241.460495,Stationary,High, 99.4724, 0.0000, 75.3515, 41.0615,-503.1993,-13.5554, 12.8317,-37.4045
15-Mar-2018 17:26:38.819, 0.0089, 0.0174,-0.9880,-0.0275, 0.0550,-0.0068, 0.0103,-0.0163,-2.5105,44.567578,-123.274497,-2.2369, 116.3631, 241.460495,Stationary,High, 99.4724, 0.0000, 75.3515, 41.0615,-503.1993,-13.5562, 12.8329,-37.4038
15-Mar-2018 17:26:38.835, 0.0110, 0.0183,-0.9844,-0.0286, 0.0550,-0.0079, 0.0102,-0.0163,-2.5105,44.567578,-123.274497,-2.2369, 116.3631, 241.460495,Stationary,High, 99.4724, 0.0000, 77.8454, 41.4201,-501.4941,-13.5544, 12.8328,-37.4045
15-Mar-2018 17:26:38.841, 0.0101, 0.0173,-0.9848,-0.0275, 0.0550,-0.0068, 0.0102,-0.0163,-2.5105,44.567578,-123.274497,-2.2369, 116.3631, 241.460495,Stationary,High, 99.4724, 0.0000, 77.8454, 41.4201,-501.4941,-13.5549, 12.8337,-37.4040
15-Mar-2018 17:26:38.844, 0.0101, 0.0173,-0.9848,-0.0275, 0.0550,-0.0068, 0.0102,-0.0163,-2.5105,44.567578,-123.274497,-2.2369, 116.3631, 241.460495,Stationary,High, 99.4724, 0.0000, 77.8454, 41.4201,-501.4941,-13.5549, 12.8337,-37.4040
15-Mar-2018 17:26:38.861, 0.0096, 0.0163,-0.9857,-0.0286, 0.0539,-0.0068, 0.0102,-0.0163,-2.5104,44.567578,-123.274497,-2.2369, 116.3631, 241.460495,Stationary,High, 99.4724, 0.0000, 77.8454, 41.4201,-501.4941,-13.5543, 12.8335,-37.4043
15-Mar-2018 17:26:38.866, 0.0118, 0.0161,-0.9854,-0.0286, 0.0539,-0.0068, 0.0102,-0.0163,-2.5104,44.567578,-123.274497,-2.2369, 116.3631, 241.460495,Stationary,High, 99.4724, 0.0000, 76.2422, 40.8822,-503.0287,-13.5543, 12.8335,-37.4043
15-Mar-2018 17:26:38.877, 0.0109, 0.0163,-0.9852,-0.0286, 0.0539,-0.0068, 0.0102,-0.0163,-2.5104,44.567578,-123.274497,-2.2369, 116.3631, 241.460495,Stationary,High, 99.4724, 0.0000, 76.2422, 40.8822,-503.0287,-13.5543, 12.8335,-37.4043
15-Mar-2018 17:26:38.881, 0.0109, 0.0163,-0.9852,-0.0286, 0.0550,-0.0068, 0.0103,-0.0163,-2.5104,44.567578,-123.274497,-2.2369, 116.3631, 241.460495,Stationary,High, 99.4724, 0.0000, 76.2422, 40.8822,-503.0287,-13.5523, 12.8338,-37.4049
15-Mar-2018 17:26:38.894, 0.0116, 0.0181,-0.9859,-0.0286, 0.0550,-0.0068, 0.0103,-0.0163,-2.5104,44.567578,-123.274497,-2.2369, 116.3631, 241.460495,Stationary,High, 99.4724, 0.0000, 76.2422, 40.8822,-503.0287,-13.5514, 12.8335,-37.4053
15-Mar-2018 17:26:38.897, 0.0104, 0.0170,-0.9863,-0.0286, 0.0550,-0.0068, 0.0103,-0.0163,-2.5104,44.567578,-123.274497,-2.2369, 116.3631, 241.460495,Stationary,High, 99.4724, 0.0000, 76.9547, 39.8063,-503.0287,-13.5514, 12.8335,-37.4053
15-Mar-2018 17:26:38.914, 0.0087, 0.0152,-0.9849,-0.0275, 0.0561,-0.0068, 0.0104,-0.0163,-2.5103,44.567578,-123.274497,-2.2369, 116.3631, 241.460495,Stationary,High, 99.4724, 0.0000, 76.9547, 39.8063,-503.0287,-13.5486, 12.8349,-37.4059
15-Mar-2018 17:26:38.917, 0.0087, 0.0152,-0.9849,-0.0275, 0.0539,-0.0068, 0.0104,-0.0163,-2.5103,44.567578,-123.274497,-2.2369, 116.3631, 241.460495,Stationary,High, 99.4724, 0.0000, 76.9547, 39.8063,-503.0287,-13.5465, 12.8353,-37.4065
15-Mar-2018 17:26:38.927, 0.0073, 0.0172,-0.9852,-0.0275, 0.0539,-0.0068, 0.0104,-0.0163,-2.5103,44.567578,-123.274497,-2.2369, 116.3631, 241.460495,Stationary,High, 99.4724, 0.0000, 76.9547, 39.8063,-503.0287,-13.5465, 12.8353,-37.4065
15-Mar-2018 17:26:38.931, 0.0073, 0.0172,-0.9852,-0.0286, 0.0550,-0.0068, 0.0104,-0.0163,-2.5103,44.567578,-123.274497,-2.2369, 116.3631, 241.460495,Stationary,High, 99.4724, 0.0000, 76.9547, 40.5236,-502.0056,-13.5458, 12.8347,-37.4070
15-Mar-2018 17:26:38.945, 0.0099, 0.0166,-0.9850,-0.0286, 0.0560,-0.0079, 0.0104,-0.0163,-2.5103,44.567578,-123.274497,-2.2369, 116.3631, 241.460495,Stationary,High, 99.4724, 0.0000, 76.9547, 40.5236,-502.0056,-13.5479, 12.8357,-37.4059
15-Mar-2018 17:26:38.948, 0.0082, 0.0170,-0.9850,-0.0286, 0.0560,-0.0079, 0.0104,-0.0163,-2.5103,44.567578,-123.274497,-2.2369, 116.3631, 241.460495,Stationary,High, 99.4724, 0.0000, 76.9547, 40.5236,-502.0056,-13.5479, 12.8357,-37.4059
15-Mar-2018 17:26:38.961, 0.0085, 0.0185,-0.9845,-0.0286, 0.0539,-0.0068, 0.0103,-0.0163,-2.5102,44.567578,-123.274497,-2.2369, 116.3631, 241.460495,Stationary,High, 99.4724, 0.0000, 76.9547, 40.5236,-502.0056,-13.5467, 12.8348,-37.4066
15-Mar-2018 17:26:38.964, 0.0085, 0.0185,-0.9845,-0.0286, 0.0539,-0.0068, 0.0103,-0.0163,-2.5102,44.567578,-123.274497,-2.2369, 116.3631, 241.460495,Stationary,High, 99.4724, 0.0000, 76.4203, 40.3443,-503.5403,-13.5467, 12.8348,-37.4066
15-Mar-2018 17:26:38.977, 0.0083, 0.0178,-0.9866,-0.0265, 0.0550,-0.0057, 0.0104,-0.0163,-2.5101,44.567578,-123.274497,-2.2369, 116.3631, 241.460495,Stationary,High, 99.4724, 0.0000, 76.4203, 40.3443,-503.5403,-13.5469, 12.8368,-37.4059
15-Mar-2018 17:26:38.981, 0.0083, 0.0178,-0.9866,-0.0265, 0.0550,-0.0057, 0.0104,-0.0163,-2.5101,44.567578,-123.274497,-2.2369, 116.3631, 241.460495,Stationary,High, 99.4724, 0.0000, 76.4203, 40.3443,-503.5403,-13.5469, 12.8368,-37.4059
15-Mar-2018 17:26:38.994, 0.0098, 0.0175,-0.9843,-0.0286, 0.0550,-0.0079, 0.0104,-0.0163,-2.5101,44.567578,-123.274497,-2.2369, 116.3631, 241.460495,Stationary,High, 99.4724, 0.0000, 76.4203, 40.3443,-503.5403,-13.5457, 12.8378,-37.4060
15-Mar-2018 17:26:38.997, 0.0098, 0.0175,-0.9843,-0.0286, 0.0550,-0.0079, 0.0104,-0.0163,-2.5101,44.567578,-123.274497,-2.2369, 116.3631, 241.460495,Stationary,High, 99.4724, 0.0000, 76.4203, 40.3443,-503.5403,-13.5457, 12.8378,-37.4060
15-Mar-2018 17:26:39.014, 0.0103, 0.0152,-0.9858,-0.0286, 0.0550,-0.0079, 0.0104,-0.0163,-2.5101,44.567578,-123.274497,-2.2369, 116.3631, 241.460495,Stationary,High, 99.4724, 0.0000, 76.4203, 40.3443,-503.5403,-13.5450, 12.8375,-37.4063
15-Mar-2018 17:26:39.017, 0.0103, 0.0152,-0.9858,-0.0286, 0.0550,-0.0079, 0.0104,-0.0163,-2.5101,44.567578,-123.274497,-2.2369, 116.3631, 241.460495,Stationary,High, 99.4724, 0.0000, 76.4203, 40.3443,-503.5403,-13.5450, 12.8375,-37.4063
15-Mar-2018 17:26:39.027, 0.0114, 0.0165,-0.9839,-0.0286, 0.0550,-0.0079, 0.0104,-0.0163,-2.5101,44.567578,-123.274497,-2.2369, 116.3631, 241.460495,Stationary,High, 99.4724, 0.0000, 76.4203, 40.3443,-503.5403,-13.5450, 12.8375,-37.4063
15-Mar-2018 17:26:39.030, 0.0114, 0.0165,-0.9839,-0.0275, 0.0550,-0.0068, 0.0104,-0.0162,-2.5100,44.567578,-123.274497,-2.2369, 116.3631, 241.460495,Stationary,High, 99.4724, 0.0000, 76.9547, 39.8063,-502.0056,-13.5434, 12.8356,-37.4075
15-Mar-2018 17:26:39.044, 0.0099, 0.0152,-0.9847,-0.0275, 0.0539,-0.0068, 0.0104,-0.0161,-2.5100,44.567578,-123.274497,-2.2369, 116.3631, 241.460495,Stationary,High, 99.4724, 0.0000, 76.9547, 39.8063,-502.0056,-13.5424, 12.8353,-37.4080
15-Mar-2018 17:26:39.047, 0.0099, 0.0152,-0.9847,-0.0275, 0.0539,-0.0068, 0.0104,-0.0161,-2.5100,44.567578,-123.274497,-2.2369, 116.3631, 241.460495,Stationary,High, 99.4724, 0.0000, 76.9547, 39.8063,-502.0056,-13.5424, 12.8353,-37.4080
15-Mar-2018 17:26:39.062, 0.0122, 0.0172,-0.9865,-0.0275, 0.0539,-0.0068, 0.0104,-0.0162,-2.5100,44.567578,-123.274497,-2.2369, 116.3631, 241.460495,Stationary,High, 99.4724, 0.0000, 76.9547, 39.8063,-502.0056,-13.5419, 12.8341,-37.4086
15-Mar-2018 17:26:39.065, 0.0122, 0.0172,-0.9865,-0.0275, 0.0539,-0.0068, 0.0104,-0.0162,-2.5100,44.567578,-123.274497,-2.2369, 116.3631, 241.460495,Stationary,High, 99.4724, 0.0000, 76.5984, 43.0339,-502.0056,-13.5419, 12.8341,-37.4086
15-Mar-2018 17:26:39.078, 0.0099, 0.0177,-0.9848,-0.0275, 0.0539,-0.0068, 0.0105,-0.0162,-2.5099,44.567578,-123.274497,-2.2369, 116.3631, 241.460495,Stationary,High, 99.4724, 0.0000, 76.5984, 43.0339,-502.0056,-13.5414, 12.8358,-37.4082
15-Mar-2018 17:26:39.081, 0.0099, 0.0177,-0.9848,-0.0286, 0.0539,-0.0068, 0.0105,-0.0162,-2.5099,44.567578,-123.274497,-2.2369, 116.3631, 241.460495,Stationary,High, 99.4724, 0.0000, 76.5984, 43.0339,-502.0056,-13.5389, 12.8368,-37.4088
15-Mar-2018 17:26:39.094, 0.0095, 0.0170,-0.9799,-0.0286, 0.0539,-0.0068, 0.0105,-0.0162,-2.5099,44.567578,-123.274497,-2.2369, 116.3631, 241.460495,Stationary,High, 99.4724, 0.0000, 76.5984, 43.0339,-502.0056,-13.5389, 12.8368,-37.4088
15-Mar-2018 17:26:39.097, 0.0095, 0.0170,-0.9799,-0.0286, 0.0560,-0.0079, 0.0105,-0.0163,-2.5099,44.567578,-123.274497,-2.2369, 116.3631, 241.460495,Stationary,High, 99.4724, 0.0000, 77.3110, 41.9580,-502.6877,-13.5382, 12.8404,-37.4078
15-Mar-2018 17:26:39.114, 0.0088, 0.0170,-0.9928,-0.0264, 0.0550,-0.0078, 0.0105,-0.0163,-2.5098,44.567578,-123.274497,-2.2369, 116.3631, 241.460495,Stationary,High, 99.4724, 0.0000, 77.3110, 41.9580,-502.6877,-13.5369, 12.8427,-37.4074
15-Mar-2018 17:26:39.117, 0.0088, 0.0170,-0.9928,-0.0264, 0.0550,-0.0078, 0.0105,-0.0163,-2.5098,44.567578,-123.274497,-2.2369, 116.3631, 241.460495,Stationary,High, 99.4724, 0.0000, 77.3110, 41.9580,-502.6877,-13.5369, 12.8427,-37.4074
15-Mar-2018 17:26:39.128, 0.0064, 0.0184,-0.9845,-0.0264, 0.0550,-0.0078, 0.0104,-0.0164,-2.5098,44.567578,-123.274497,-2.2369, 116.3631, 241.460495,Stationary,High, 99.4724, 0.0000, 77.3110, 41.9580,-502.6877,-13.5378, 12.8427,-37.4071
15-Mar-2018 17:26:39.131, 0.0095, 0.0171,-0.9823,-0.0264, 0.0550,-0.0078, 0.0104,-0.0164,-2.5098,44.567578,-123.274497,-2.2369, 116.3631, 241.460495,Stationary,High, 99.4724, 0.0000, 75.8859, 40.8822,-502.3467,-13.5378, 12.8427,-37.4071
15-Mar-2018 17:26:39.145, 0.0098, 0.0180,-0.9855,-0.0275, 0.0550,-0.0078, 0.0104,-0.0164,-2.5097,44.567578,-123.274497,-2.2369, 116.3631, 241.460495,Stationary,High, 99.4724, 0.0000, 75.8859, 40.8822,-502.3467,-13.5419, 12.8459,-37.4046
15-Mar-2018 17:26:39.147, 0.0098, 0.0180,-0.9855,-0.0275, 0.0550,-0.0078, 0.0104,-0.0164,-2.5097,44.567578,-123.274497,-2.2369, 116.3631, 241.460495,Stationary,High, 99.4724, 0.0000, 75.8859, 40.8822,-502.3467,-13.5419, 12.8459,-37.4046
15-Mar-2018 17:26:39.161, 0.0104, 0.0170,-0.9845,-0.0275, 0.0550,-0.0078, 0.0103,-0.0164,-2.5097,44.567578,-123.274497,-2.2369, 116.3631, 241.460495,Stationary,High, 99.4724, 0.0000, 75.8859, 40.8822,-502.3467,-13.5415, 12.8471,-37.4043
15-Mar-2018 17:26:39.164, 0.0104, 0.0170,-0.9845,-0.0275, 0.0550,-0.0078, 0.0103,-0.0164,-2.5097,44.567578,-123.274497,-2.2369, 116.3631, 241.460495,Stationary,High, 99.4724, 0.0000, 75.8859, 40.8822,-502.3467,-13.5415, 12.8471,-37.4043
15-Mar-2018 17:26:39.177, 0.0097, 0.0186,-0.9853,-0.0275, 0.0550,-0.0078, 0.0103,-0.0164,-2.5097,44.567578,-123.274497,-2.2369, 116.3631, 241.460495,Stationary,High, 99.4724, 0.0000, 77.4891, 40.3443,-501.4941,-13.5415, 12.8471,-37.4043
15-Mar-2018 17:26:39.180, 0.0093, 0.0156,-0.9855,-0.0286, 0.0550,-0.0068, 0.0104,-0.0164,-2.5097,44.567578,-123.274497,-2.2369, 116.3631, 241.460495,Stationary,High, 99.4724, 0.0000, 77.4891, 40.3443,-501.4941,-13.5406, 12.8475,-37.4045
15-Mar-2018 17:26:39.194, 0.0102, 0.0174,-0.9847,-0.0286, 0.0550,-0.0068, 0.0103,-0.0164,-2.5097,44.567578,-123.274497,-2.2369, 116.3631, 241.460495,Stationary,High, 99.4724, 0.0000, 77.4891, 40.3443,-501.4941,-13.5402, 12.8495,-37.4039
15-Mar-2018 17:26:39.197, 0.0102, 0.0174,-0.9847,-0.0286, 0.0550,-0.0068, 0.0103,-0.0164,-2.5097,44.567578,-123.274497,-2.2369, 116.3631, 241.460495,Stationary,High, 99.4724, 0.0000, 77.4891, 40.3443,-501.4941,-13.5402, 12.8495,-37.4039
15-Mar-2018 17:26:39.216, 0.0089, 0.0169,-0.9840,-0.0286, 0.0539,-0.0068, 0.0103,-0.0164,-2.5096,44.567578,-123.274497,-2.2369, 116.3631, 241.460495,Stationary,High, 99.4724, 0.0000, 76.0640, 41.7787,-503.5403,-13.5393, 12.8504,-37.4040
15-Mar-2018 17:26:39.219, 0.0097, 0.0181,-0.9841,-0.0286, 0.0539,-0.0068, 0.0103,-0.0164,-2.5096,44.567578,-123.274497,-2.2369, 116.3631, 241.460495,Stationary,High, 99.4724, 0.0000, 76.0640, 41.7787,-503.5403,-13.5393, 12.8504,-37.4040
15-Mar-2018 17:26:39.227, 0.0097, 0.0181,-0.9841,-0.0286, 0.0539,-0.0068, 0.0103,-0.0164,-2.5096,44.567578,-123.274497,-2.2369, 116.3631, 241.460495,Stationary,High, 99.4724, 0.0000, 76.0640, 41.7787,-503.5403,-13.5393, 12.8504,-37.4040
15-Mar-2018 17:26:39.231, 0.0104, 0.0175,-0.9840,-0.0286, 0.0539,-0.0079, 0.0103,-0.0165,-2.5096,44.567578,-123.274497,-2.2369, 116.3631, 241.460495,Stationary,High, 99.4724, 0.0000, 76.0640, 41.7787,-503.5403,-13.5393, 12.8504,-37.4040
15-Mar-2018 17:26:39.245, 0.0093, 0.0178,-0.9854,-0.0265, 0.0539,-0.0068, 0.0103,-0.0165,-2.5095,44.567578,-123.274497,-2.2369, 116.3631, 241.460495,Stationary,High, 99.4724, 0.0000, 76.0640, 40.3443,-502.5172,-13.5401, 12.8521,-37.4031
15-Mar-2018 17:26:39.247, 0.0093, 0.0178,-0.9854,-0.0265, 0.0539,-0.0068, 0.0103,-0.0165,-2.5095,44.567578,-123.274497,-2.2369, 116.3631, 241.460495,Stationary,High, 99.4730,-0.0476, 76.0640, 40.3443,-502.5172,-13.5401, 12.8521,-37.4031
15-Mar-2018 17:26:39.262, 0.0090, 0.0179,-0.9853,-0.0286, 0.0539,-0.0079, 0.0103,-0.0165,-2.5095,44.567578,-123.274497,-2.2369, 116.3631, 241.460495,Stationary,High, 99.4730,-0.0476, 76.0640, 40.3443,-502.5172,-13.5401, 12.8521,-37.4031
15-Mar-2018 17:26:39.265, 0.0090, 0.0179,-0.9853,-0.0286, 0.0539,-0.0079, 0.0103,-0.0165,-2.5095,44.567578,-123.274497,-2.2369, 116.3631, 241.460495,Stationary,High, 99.4730,-0.0476, 76.0640, 40.3443,-502.5172,-13.5401, 12.8521,-37.4031
15-Mar-2018 17:26:39.278, 0.0087, 0.0188,-0.9864,-0.0286, 0.0539,-0.0079, 0.0103,-0.0165,-2.5095,44.567578,-123.274497,-2.2369, 116.3631, 241.460495,Stationary,High, 99.4730,-0.0476, 76.0640, 40.3443,-502.5172,-13.5401, 12.8521,-37.4031
15-Mar-2018 17:26:39.281, 0.0087, 0.0188,-0.9864,-0.0286, 0.0518,-0.0057, 0.0103,-0.0165,-2.5095,44.567578,-123.274497,-2.2369, 116.3631, 241.460495,Stationary,High, 99.4730,-0.0476, 76.0640, 40.3443,-502.5172,-13.5398, 12.8530,-37.4029
15-Mar-2018 17:26:39.294, 0.0079, 0.0184,-0.9868,-0.0265, 0.0539,-0.0068, 0.0103,-0.0165,-2.5094,44.567578,-123.274497,-2.2369, 116.3631, 241.460495,Stationary,High, 99.4730,-0.0476, 76.0640, 40.3443,-502.5172,-13.5390, 12.8546,-37.4026
15-Mar-2018 17:26:39.297, 0.0079, 0.0184,-0.9868,-0.0265, 0.0539,-0.0068, 0.0103,-0.0165,-2.5094,44.567578,-123.274497,-2.2369, 116.3631, 241.460495,Stationary,High, 99.4730,-0.0476, 76.0640, 40.3443,-502.5172,-13.5390, 12.8546,-37.4026
15-Mar-2018 17:26:39.313, 0.0084, 0.0178,-0.9850,-0.0265, 0.0539,-0.0068, 0.0103,-0.0165,-2.5094,44.567578,-123.274497,-2.2369, 116.3631, 241.460495,Stationary,High, 99.4730,-0.0476, 76.9547, 39.4477,-502.3467,-13.5390, 12.8546,-37.4026
15-Mar-2018 17:26:39.316, 0.0084, 0.0178,-0.9850,-0.0275, 0.0539,-0.0078, 0.0103,-0.0165,-2.5094,44.567578,-123.274497,-2.2369, 116.3631, 241.460495,Stationary,High, 99.4730,-0.0476, 76.9547, 39.4477,-502.3467,-13.5396, 12.8558,-37.4020
15-Mar-2018 17:26:39.328, 0.0115, 0.0177,-0.9854,-0.0275, 0.0560,-0.0078, 0.0103,-0.0165,-2.5094,44.567578,-123.274497,-2.2369, 116.3631, 241.460495,Stationary,High, 99.4730,-0.0476, 76.9547, 39.4477,-502.3467,-13.5383, 12.8575,-37.4019
15-Mar-2018 17:26:39.330, 0.0115, 0.0177,-0.9854,-0.0275, 0.0560,-0.0078, 0.0103,-0.0165,-2.5094,44.567578,-123.274497,-2.2369, 116.3631, 241.460495,Stationary,High, 99.4730,-0.0476, 76.9547, 39.4477,-502.3467,-13.5383, 12.8575,-37.4019
15-Mar-2018 17:26:39.345, 0.0104, 0.0170,-0.9840,-0.0275, 0.0529,-0.0078, 0.0103,-0.0165,-2.5093,44.567578,-123.274497,-2.2369, 116.3631, 241.460495,Stationary,High, 99.4730,-0.0476, 77.4891, 40.7029,-502.1761,-13.5374, 12.8570,-37.4024
15-Mar-2018 17:26:39.348, 0.0096, 0.0175,-0.9834,-0.0275, 0.0529,-0.0078, 0.0103,-0.0165,-2.5093,44.567578,-123.274497,-2.2369, 116.3631, 241.460495,Stationary,High, 99.4730,-0.0476, 77.4891, 40.7029,-502.1761,-13.5374, 12.8570,-37.4024
15-Mar-2018 17:26:39.360, 0.0096, 0.0175,-0.9834,-0.0275, 0.0529,-0.0078, 0.0103,-0.0165,-2.5093,44.567578,-123.274497,-2.2369, 116.3631, 241.460495,Stationary,High, 99.4730,-0.0476, 77.4891, 40.7029,-502.1761,-13.5374, 12.8570,-37.4024
15-Mar-2018 17:26:39.364, 0.0106, 0.0173,-0.9833,-0.0265, 0.0540,-0.0057, 0.0103,-0.0165,-2.5093,44.567578,-123.274497,-2.2369, 116.3631, 241.460495,Stationary,High, 99.4730,-0.0476, 77.4891, 40.7029,-502.1761,-13.5373, 12.8586,-37.4018
15-Mar-2018 17:26:39.378, 0.0087, 0.0178,-0.9866,-0.0254, 0.0550,-0.0078, 0.0104,-0.0165,-2.5093,44.567578,-123.274497,-2.2369, 116.3631, 241.460495,Stationary,High, 99.4730,-0.0476, 75.5296, 42.3166,-503.0287,-13.5369, 12.8578,-37.4023
15-Mar-2018 17:26:39.380, 0.0087, 0.0178,-0.9866,-0.0254, 0.0550,-0.0078, 0.0104,-0.0165,-2.5093,44.567578,-123.274497,-2.2369, 116.3631, 241.460495,Stationary,High, 99.4730,-0.0476, 75.5296, 42.3166,-503.0287,-13.5369, 12.8578,-37.4023
15-Mar-2018 17:26:39.395, 0.0100, 0.0175,-0.9850,-0.0286, 0.0560,-0.0079, 0.0104,-0.0165,-2.5092,44.567578,-123.274497,-2.2369, 116.3631, 241.460495,Stationary,High, 99.4730,-0.0476, 75.5296, 42.3166,-503.0287,-13.5362, 12.8586,-37.4022
15-Mar-2018 17:26:39.398, 0.0108, 0.0168,-0.9841,-0.0286, 0.0571,-0.0079, 0.0104,-0.0165,-2.5092,44.567578,-123.274497,-2.2369, 116.3631, 241.460495,Stationary,High, 99.4730,-0.0476, 75.5296, 42.3166,-503.0287,-13.5352, 12.8582,-37.4028
15-Mar-2018 17:26:39.415, 0.0113, 0.0168,-0.9859,-0.0286, 0.0571,-0.0079, 0.0104,-0.0165,-2.5092,44.567578,-123.274497,-2.2369, 116.3631, 241.460495,Stationary,High, 99.4730,-0.0476, 77.6673, 40.5236,-501.3235,-13.5352, 12.8582,-37.4028
15-Mar-2018 17:26:39.419, 0.0073, 0.0170,-0.9841,-0.0286, 0.0550,-0.0079, 0.0104,-0.0165,-2.5092,44.567578,-123.274497,-2.2369, 116.3631, 241.460495,Stationary,High, 99.4730,-0.0476, 77.6673, 40.5236,-501.3235,-13.5324, 12.8588,-37.4035
15-Mar-2018 17:26:39.429, 0.0088, 0.0180,-0.9822,-0.0286, 0.0539,-0.0079, 0.0104,-0.0165,-2.5092,44.567578,-123.274497,-2.2369, 116.3631, 241.460495,Stationary,High, 99.4730,-0.0476, 77.6673, 40.5236,-501.3235,-13.5324, 12.8588,-37.4035
15-Mar-2018 17:26:39.434, 0.0080, 0.0174,-0.9837,-0.0286, 0.0539,-0.0079, 0.0104,-0.0165,-2.5092,44.567578,-123.274497,-2.2369, 116.3631, 241.460495,Stationary,High, 99.4730,-0.0476, 77.6673, 40.5236,-501.3235,-13.5324, 12.8588,-37.4035
15-Mar-2018 17:26:39.446, 0.0084, 0.0177,-0.9870,-0.0286, 0.0539,-0.0079, 0.0104,-0.0165,-2.5091,44.567578,-123.274497,-2.2369, 116.3631, 241.460495,Stationary,High, 99.4730,-0.0476, 77.3110, 40.8822,-502.6877,-13.5325, 12.8588,-37.4035
15-Mar-2018 17:26:39.456, 0.0092, 0.0179,-0.9828,-0.0286, 0.0539,-0.0079, 0.0104,-0.0165,-2.5091,44.567578,-123.274497,-2.2369, 116.3631, 241.460495,Stationary,High, 99.4730,-0.0476, 77.3110, 40.8822,-502.6877,-13.5325, 12.8588,-37.4035
15-Mar-2018 17:26:39.466, 0.0114, 0.0174,-0.9839,-0.0275, 0.0561,-0.0068, 0.0104,-0.0165,-2.5091,44.567578,-123.274497,-2.2369, 116.3631, 241.460495,Stationary,High, 99.4730,-0.0476, 77.3110, 40.8822,-502.6877,-13.5319, 12.8584,-37.4039
15-Mar-2018 17:26:39.484, 0.0092, 0.0181,-0.9851,-0.0286, 0.0539,-0.0068, 0.0105,-0.0165,-2.5091,44.567578,-123.274497,-2.2369, 116.3631, 241.460495,Stationary,High, 99.4730,-0.0476, 77.3110, 40.8822,-502.6877,-13.5319, 12.8598,-37.4034
15-Mar-2018 17:26:39.489, 0.0099, 0.0177,-0.9850,-0.0275, 0.0561,-0.0068, 0.0105,-0.0165,-2.5090,44.567578,-123.274497,-2.2369, 116.3631, 241.460495,Stationary,High, 99.4730,-0.0476, 76.0640, 41.0615,-503.1993,-13.5291, 12.8603,-37.4043
15-Mar-2018 17:26:39.496, 0.0099, 0.0169,-0.9836,-0.0275, 0.0561,-0.0068, 0.0105,-0.0165,-2.5090,44.567578,-123.274497,-2.2369, 116.3631, 241.460495,Stationary,High, 99.4730,-0.0476, 76.0640, 41.0615,-503.1993,-13.5291, 12.8603,-37.4043
15-Mar-2018 17:26:39.503, 0.0085, 0.0158,-0.9847,-0.0275, 0.0560,-0.0078, 0.0105,-0.0165,-2.5090,44.567578,-123.274497,-2.2369, 116.3631, 241.460495,Stationary,High, 99.4730,-0.0476, 76.0640, 41.0615,-503.1993,-13.5281, 12.8600,-37.4047
15-Mar-2018 17:26:39.515, 0.0130, 0.0168,-0.9823,-0.0296, 0.0560,-0.0068, 0.0105,-0.0165,-2.5090,44.567578,-123.274497,-2.2369, 116.3631, 241.460495,Stationary,High, 99.4730,-0.0476, 76.0640, 41.0615,-503.1993,-13.5276, 12.8599,-37.4049
15-Mar-2018 17:26:39.524, 0.0098, 0.0176,-0.9849,-0.0296, 0.0550,-0.0068, 0.0105,-0.0165,-2.5090,44.567578,-123.274497,-2.2369, 116.3631, 241.460495,Stationary,High, 99.4730,-0.0476, 76.0640, 41.0615,-503.1993,-13.5285, 12.8596,-37.4047
15-Mar-2018 17:26:39.543, 0.0101, 0.0163,-0.9847,-0.0286, 0.0550,-0.0079, 0.0106,-0.0165,-2.5089,44.567578,-123.274497,-2.2369, 116.3631, 241.460495,Stationary,High, 99.4730,-0.0476, 76.9547, 40.8822,-502.0056,-13.5246, 12.8604,-37.4058
15-Mar-2018 17:26:39.546, 0.0101, 0.0163,-0.9847,-0.0286, 0.0550,-0.0079, 0.0106,-0.0165,-2.5089,44.567578,-123.274497,-2.2369, 116.3631, 241.460495,Stationary,High, 99.4730,-0.0476, 76.9547, 40.8822,-502.0056,-13.5246, 12.8604,-37.4058
15-Mar-2018 17:26:39.552, 0.0109, 0.0176,-0.9844,-0.0275, 0.0529,-0.0078, 0.0105,-0.0165,-2.5089,44.567578,-123.274497,-2.2369, 116.3631, 241.460495,Stationary,High, 99.4730,-0.0476, 76.9547, 40.8822,-502.0056,-13.5240, 12.8613,-37.4057
