Timestamp,accelX,accelY,accelZ,gyroX(rad/s),gyroY(rad/s),gyroZ(rad/s),Roll(rads),Pitch(rads),Yaw(rads),Lat,Long,Speed(mph),TrueHeading,Alt(feet),ActivityType,ActivityConfidence,Pressure(kilopascals),RelativeAltitude(meters),magX(µT),magY(µT),magZ(µT),calMagX,calMagY,calMagZ
15-Mar-2018 17:32:25.754, 0.0087, 0.0152,-0.9884, 0.0000, 0.0000, 0.0000, 0.0000, 0.0000, 0.0000,44.567537,-123.274505, 0.0000, 0.0000, 241.457352,Unknown,Low, 0.0000, 0.0000, 0.0000, 0.0000, 0.0000, 0.0000, 0.0000, 0.0000
15-Mar-2018 17:32:25.764, 0.0066, 0.0151,-0.9881, 0.0000, 0.0000, 0.0000, 0.0000, 0.0000, 0.0000,44.567537,-123.274505, 0.0000, 0.0000, 241.457352,Unknown,Low, 0.0000, 0.0000, 0.0000, 0.0000, 0.0000, 0.0000, 0.0000, 0.0000
15-Mar-2018 17:32:25.773, 0.0099, 0.0161,-0.9885, 0.0000, 0.0000, 0.0000, 0.0000, 0.0000, 0.0000,44.567537,-123.274505, 0.0000, 0.0000, 241.457352,Unknown,Low, 0.0000, 0.0000, 76.4203, 40.7029,-507.9738, 0.0000, 0.0000, 0.0000
15-Mar-2018 17:32:25.783, 0.0077, 0.0156,-0.9886, 0.0000, 0.0000, 0.0000, 0.0000, 0.0000, 0.0000,44.567537,-123.274505, 0.0000, 0.0000, 241.457352,Unknown,Low, 0.0000, 0.0000, 76.4203, 40.7029,-507.9738, 0.0000, 0.0000, 0.0000
15-Mar-2018 17:32:25.798, 0.0089, 0.0172,-0.9861, 0.0000, 0.0000, 0.0000, 0.0000, 0.0000, 0.0000,44.567537,-123.274505, 0.0000, 0.0000, 241.457352,Unknown,Low, 0.0000, 0.0000, 76.4203, 40.7029,-507.9738, 0.0000, 0.0000, 0.0000
15-Mar-2018 17:32:25.805, 0.0069, 0.0159,-0.9863, 0.0000, 0.0000, 0.0000, 0.0000, 0.0000, 0.0000,44.567537,-123.274505, 0.0000, 0.0000, 241.457352,Unknown,Low, 0.0000, 0.0000, 76.4203, 40.7029,-507.9738, 0.0000, 0.0000, 0.0000
15-Mar-2018 17:32:25.813, 0.0089, 0.0163,-0.9869, 0.0000, 0.0000, 0.0000, 0.0000, 0.0000, 0.0000,44.567537,-123.274505, 0.0000, 0.0000, 241.457352,Unknown,Low, 0.0000, 0.0000, 76.7766, 39.9856,-507.2917, 0.0000, 0.0000, 0.0000
15-Mar-2018 17:32:25.823, 0.0102, 0.0164,-0.9877, 0.0000, 0.0000, 0.0000, 0.0000, 0.0000, 0.0000,44.567537,-123.274505, 0.0000, 0.0000, 241.457352,Unknown,Low, 0.0000, 0.0000, 76.7766, 39.9856,-507.2917, 0.0000, 0.0000, 0.0000
15-Mar-2018 17:32:25.836, 0.0083, 0.0174,-0.9865, 0.0000, 0.0000, 0.0000, 0.0000, 0.0000, 0.0000,44.567537,-123.274505, 0.0000, 0.0000, 241.457352,Unknown,Low, 0.0000, 0.0000, 76.7766, 39.9856,-507.2917, 0.0000, 0.0000, 0.0000
15-Mar-2018 17:32:25.842, 0.0100, 0.0173,-0.9866, 0.0000, 0.0000, 0.0000, 0.0000, 0.0000, 0.0000,44.567537,-123.274505, 0.0000, 0.0000, 241.457352,Unknown,Low, 0.0000, 0.0000, 76.7766, 39.9856,-507.2917, 0.0000, 0.0000, 0.0000
15-Mar-2018 17:32:25.854, 0.0092, 0.0177,-0.9875, 0.0000, 0.0000, 0.0000, 0.0000, 0.0000, 0.0000,44.567537,-123.274505, 0.0000, 0.0000, 241.457352,Unknown,Low, 0.0000, 0.0000, 77.6673, 39.0891,-508.1443, 0.0000, 0.0000, 0.0000
15-Mar-2018 17:32:25.862, 0.0092, 0.0173,-0.9871, 0.0000, 0.0000, 0.0000, 0.0000, 0.0000, 0.0000,44.567537,-123.274505, 0.0000, 0.0000, 241.457352,Unknown,Low, 0.0000, 0.0000, 77.6673, 39.0891,-508.1443, 0.0000, 0.0000, 0.0000
15-Mar-2018 17:32:25.872, 0.0097, 0.0162,-0.9876, 0.0000, 0.0000, 0.0000, 0.0000, 0.0000, 0.0000,44.567537,-123.274505, 0.0000, 0.0000, 241.457352,Unknown,Low, 0.0000, 0.0000, 77.6673, 39.0891,-508.1443, 0.0000, 0.0000, 0.0000
15-Mar-2018 17:32:25.882, 0.0086, 0.0159,-0.9874, 0.0000, 0.0000, 0.0000, 0.0000, 0.0000, 0.0000,44.567537,-123.274505, 0.0000, 0.0000, 241.457352,Unknown,Low, 0.0000, 0.0000, 77.6673, 39.0891,-508.1443, 0.0000, 0.0000, 0.0000
15-Mar-2018 17:32:25.891, 0.0108, 0.0148,-0.9862, 0.0000, 0.0000, 0.0000, 0.0000, 0.0000, 0.0000,44.567537,-123.274505, 0.0000, 0.0000, 241.457352,Unknown,Low, 0.0000, 0.0000, 75.3515, 42.4959,-506.6096, 0.0000, 0.0000, 0.0000
15-Mar-2018 17:32:25.901, 0.0077, 0.0172,-0.9876, 0.0000, 0.0000, 0.0000, 0.0000, 0.0000, 0.0000,44.567537,-123.274505, 0.0000, 0.0000, 241.457352,Unknown,Low, 0.0000, 0.0000, 75.3515, 42.4959,-506.6096, 0.0000, 0.0000, 0.0000
15-Mar-2018 17:32:25.911, 0.0084, 0.0159,-0.9866,-0.0296, 0.0539,-0.0068, 0.0096,-0.0158,-0.0000,44.567537,-123.274505, 0.0000, 0.0000, 241.457352,Unknown,Low, 0.0000, 0.0000, 75.3515, 42.4959,-506.6096, 0.0000, 0.0000, 0.0000
15-Mar-2018 17:32:25.922, 0.0085, 0.0164,-0.9895,-0.0307, 0.0550,-0.0079, 0.0102,-0.0163,-0.0001,44.567537,-123.274505, 0.0000, 0.0000, 241.457352,Stationary,High, 0.0000, 0.0000, 75.3515, 42.4959,-506.6096, 0.0000, 0.0000, 0.0000
15-Mar-2018 17:32:25.930, 0.0075, 0.0156,-0.9877,-0.0307, 0.0550,-0.0079, 0.0102,-0.0163,-0.0001,44.567537,-123.274505, 0.0000, 0.0000, 241.457352,Stationary,High, 0.0000, 0.0000, 76.2422, 41.2408,-507.4622, 0.0000, 0.0000, 0.0000
15-Mar-2018 17:32:25.940, 0.0090, 0.0163,-0.9883,-0.0307, 0.0550,-0.0079, 0.0108,-0.0167,-0.0003,44.567537,-123.274505, 0.0000, 0.0000, 241.457352,Stationary,High, 0.0000, 0.0000, 76.2422, 41.2408,-507.4622, 0.0000, 0.0000, 0.0000
15-Mar-2018 17:32:25.953, 0.0085, 0.0170,-0.9877,-0.0307, 0.0550,-0.0068, 0.0107,-0.0167,-0.0002,44.567537,-123.274505, 0.0000, 0.0000, 241.457352,Stationary,High, 0.0000, 0.0000, 76.2422, 41.2408,-507.4622, 0.0000, 0.0000, 0.0000
15-Mar-2018 17:32:25.960, 0.0086, 0.0172,-0.9873,-0.0307, 0.0550,-0.0068, 0.0107,-0.0167,-0.0002,44.567537,-123.274505, 0.0000, 0.0000, 241.457352,Stationary,High, 0.0000, 0.0000, 76.2422, 41.2408,-507.4622, 0.0000, 0.0000, 0.0000
15-Mar-2018 17:32:25.970, 0.0091, 0.0149,-0.9884,-0.0286, 0.0539,-0.0057, 0.0105,-0.0168,-0.0002,44.567537,-123.274505, 0.0000, 0.0000, 241.457352,Stationary,High, 0.0000, 0.0000, 76.2422, 41.2408,-507.4622, 0.0000, 0.0000, 0.0000
15-Mar-2018 17:32:25.981, 0.0092, 0.0166,-0.9886,-0.0286, 0.0539,-0.0057, 0.0105,-0.0168,-0.0002,44.567537,-123.274505, 0.0000, 0.0000, 241.457352,Stationary,High, 0.0000, 0.0000, 77.1328, 40.3443,-507.9738, 0.0000, 0.0000, 0.0000
15-Mar-2018 17:32:25.990, 0.0098, 0.0172,-0.9876,-0.0296, 0.0539,-0.0089, 0.0103,-0.0166,-0.0001,44.567537,-123.274505, 0.0000, 0.0000, 241.457352,Stationary,High, 0.0000, 0.0000, 77.1328, 40.3443,-507.9738, 0.0000, 0.0000, 0.0000
15-Mar-2018 17:32:26.000, 0.0086, 0.0166,-0.9883,-0.0307, 0.0560,-0.0079, 0.0103,-0.0167,-0.0001,44.567537,-123.274505, 0.0000, 0.0000, 241.457352,Stationary,High, 0.0000, 0.0000, 77.1328, 40.3443,-507.9738, 0.0000, 0.0000, 0.0000
15-Mar-2018 17:32:26.013, 0.0087, 0.0168,-0.9873,-0.0296, 0.0550,-0.0079, 0.0103,-0.0167,-0.0001,44.567537,-123.274505, 0.0000, 0.0000, 241.457352,Stationary,High, 0.0000, 0.0000, 77.1328, 40.3443,-507.9738, 0.0000, 0.0000, 0.0000
15-Mar-2018 17:32:26.019, 0.0107, 0.0179,-0.9870,-0.0296, 0.0550,-0.0079, 0.0103,-0.0167,-0.0001,44.567537,-123.274505, 0.0000, 0.0000, 241.457352,Stationary,High, 0.0000, 0.0000, 77.4891, 41.0615,-508.6558, 0.0000, 0.0000, 0.0000
15-Mar-2018 17:32:26.029, 0.0093, 0.0171,-0.9868,-0.0286, 0.0550,-0.0079, 0.0103,-0.0168,-0.0000,44.567537,-123.274505, 0.0000, 0.0000, 241.457352,Stationary,High, 0.0000, 0.0000, 77.4891, 41.0615,-508.6558, 0.0000, 0.0000, 0.0000
15-Mar-2018 17:32:26.041, 0.0109, 0.0158,-0.9855,-0.0286, 0.0550,-0.0079, 0.0103,-0.0168,-0.0000,44.567537,-123.274505, 0.0000, 0.0000, 241.457352,Stationary,High, 0.0000, 0.0000, 77.4891, 41.0615,-508.6558, 0.0000, 0.0000, 0.0000
15-Mar-2018 17:32:26.049, 0.0103, 0.0152,-0.9881,-0.0296, 0.0539,-0.0089, 0.0103,-0.0168, 0.0000,44.567537,-123.274505, 0.0000, 0.0000, 241.457352,Stationary,High, 0.0000, 0.0000, 77.4891, 41.0615,-508.6558, 0.0000, 0.0000, 0.0000
15-Mar-2018 17:32:26.058, 0.0097, 0.0170,-0.9875,-0.0286, 0.0539,-0.0079, 0.0104,-0.0167, 0.0001,44.567537,-123.274505, 0.0000, 0.0000, 241.457352,Stationary,High, 0.0000, 0.0000, 77.1328, 40.7029,-507.2917, 0.0000, 0.0000, 0.0000
15-Mar-2018 17:32:26.072, 0.0105, 0.0177,-0.9854,-0.0286, 0.0539,-0.0079, 0.0104,-0.0167, 0.0001,44.567537,-123.274505, 0.0000, 0.0000, 241.457352,Stationary,High, 0.0000, 0.0000, 77.1328, 40.7029,-507.2917, 0.0000, 0.0000, 0.0000
15-Mar-2018 17:32:26.082, 0.0096, 0.0158,-0.9872,-0.0296, 0.0550,-0.0079, 0.0104,-0.0168, 0.0001,44.567537,-123.274505, 0.0000, 0.0000, 241.457352,Stationary,High, 0.0000, 0.0000, 77.1328, 40.7029,-507.2917, 0.0000, 0.0000, 0.0000
15-Mar-2018 17:32:26.091, 0.0097, 0.0163,-0.9862,-0.0296, 0.0550,-0.0068, 0.0104,-0.0168, 0.0001,44.567537,-123.274505, 0.0000, 0.0000, 241.457352,Stationary,High, 0.0000, 0.0000, 77.1328, 40.7029,-507.2917, 0.0000, 0.0000, 0.0000
15-Mar-2018 17:32:26.098, 0.0092, 0.0174,-0.9873,-0.0296, 0.0550,-0.0068, 0.0104,-0.0168, 0.0001,44.567537,-123.274505, 0.0000, 0.0000, 241.457352,Stationary,High, 0.0000, 0.0000, 77.3110, 40.1649,-508.4853, 0.0000, 0.0000, 0.0000
15-Mar-2018 17:32:26.108, 0.0087, 0.0171,-0.9873,-0.0296, 0.0539,-0.0079, 0.0104,-0.0167, 0.0002,44.567537,-123.274505, 0.0000, 0.0000, 241.457352,Stationary,High, 0.0000, 0.0000, 77.3110, 40.1649,-508.4853, 0.0000, 0.0000, 0.0000
15-Mar-2018 17:32:26.117, 0.0093, 0.0166,-0.9877,-0.0296, 0.0550,-0.0079, 0.0103,-0.0168, 0.0002,44.567537,-123.274505, 0.0000, 0.0000, 241.457352,Stationary,High, 0.0000, 0.0000, 77.3110, 40.1649,-508.4853, 0.0000, 0.0000, 0.0000
15-Mar-2018 17:32:26.129, 0.0090, 0.0163,-0.9885,-0.0296, 0.0550,-0.0079, 0.0103,-0.0168, 0.0002,44.567537,-123.274505, 0.0000, 0.0000, 241.457352,Stationary,High, 0.0000, 0.0000, 77.3110, 40.1649,-508.4853, 0.0000, 0.0000, 0.0000
15-Mar-2018 17:32:26.137, 0.0074, 0.0169,-0.9882,-0.0307, 0.0550,-0.0068, 0.0103,-0.0168, 0.0002,44.567537,-123.274505, 0.0000, 51.8806, 241.457352,Stationary,High, 0.0000, 0.0000, 76.5984, 40.8822,-508.1443, 0.0000, 0.0000, 0.0000
15-Mar-2018 17:32:26.152, 0.0071, 0.0159,-0.9866,-0.0297, 0.0539,-0.0058, 0.0102,-0.0168,-2.2131,44.567537,-123.274505, 0.0000, 51.8806, 241.457352,Stationary,High, 0.0000, 0.0000, 76.5984, 40.8822,-508.1443,-15.3322, 21.9058,-46.5142
15-Mar-2018 17:32:26.171, 0.0093, 0.0168,-0.9887,-0.0297, 0.0539,-0.0058, 0.0102,-0.0168,-2.2131,44.567537,-123.274505, 0.0000, 51.8806, 241.457352,Stationary,High, 0.0000, 0.0000, 76.5984, 40.8822,-508.1443,-15.3322, 21.9058,-46.5142
15-Mar-2018 17:32:26.177, 0.0091, 0.0173,-0.9852,-0.0317, 0.0539,-0.0079, 0.0102,-0.0169,-2.2130,44.567537,-123.274505, 0.0000, 51.8806, 241.457352,Stationary,High, 0.0000, 0.0000, 76.5984, 40.8822,-508.1443,-15.3290, 21.9083,-46.5140
15-Mar-2018 17:32:26.195, 0.0097, 0.0169,-0.9875,-0.0317, 0.0539,-0.0079, 0.0102,-0.0169,-2.2130,44.567537,-123.274505, 0.0000, 51.8806, 241.457352,Stationary,High, 0.0000, 0.0000, 76.2422, 40.8822,-508.1443,-15.3272, 21.9103,-46.5137
15-Mar-2018 17:32:26.198, 0.0095, 0.0180,-0.9858,-0.0317, 0.0539,-0.0079, 0.0102,-0.0169,-2.2130,44.567537,-123.274505, 0.0000, 51.8806, 241.457352,Stationary,High, 0.0000, 0.0000, 76.2422, 40.8822,-508.1443,-15.3272, 21.9103,-46.5137
15-Mar-2018 17:32:26.204, 0.0095, 0.0180,-0.9858,-0.0296, 0.0550,-0.0079, 0.0103,-0.0169,-2.2130,44.567537,-123.274505, 0.0000, 51.8806, 241.457352,Stationary,High, 0.0000, 0.0000, 76.2422, 40.8822,-508.1443,-15.3272, 21.9103,-46.5137
15-Mar-2018 17:32:26.208, 0.0084, 0.0169,-0.9874,-0.0296, 0.0550,-0.0079, 0.0103,-0.0170,-2.2129,44.567537,-123.274505, 0.0000, 51.8806, 241.457352,Stationary,High, 0.0000, 0.0000, 76.2422, 40.8822,-508.1443,-15.3267, 21.9117,-46.5132
15-Mar-2018 17:32:26.222, 0.0069, 0.0166,-0.9857,-0.0296, 0.0550,-0.0079, 0.0103,-0.0170,-2.2129,44.567537,-123.274505,-2.2369, 51.8806, 241.457352,Stationary,High, 0.0000, 0.0000, 76.5984, 41.9580,-509.1674,-15.3267, 21.9117,-46.5132
15-Mar-2018 17:32:26.232, 0.0074, 0.0165,-0.9893,-0.0296, 0.0539,-0.0068, 0.0101,-0.0170,-2.2129,44.567537,-123.274505,-2.2369, 51.8806, 241.457352,Stationary,High, 0.0000, 0.0000, 76.5984, 41.9580,-509.1674,-15.3248, 21.9164,-46.5116
15-Mar-2018 17:32:26.240, 0.0089, 0.0177,-0.9885,-0.0286, 0.0539,-0.0068, 0.0101,-0.0170,-2.2129,44.567537,-123.274505,-2.2369, 51.8806, 241.457352,Stationary,High, 0.0000, 0.0000, 76.5984, 41.9580,-509.1674,-15.3294, 21.9168,-46.5099
15-Mar-2018 17:32:26.245, 0.0091, 0.0164,-0.9865,-0.0286, 0.0539,-0.0068, 0.0101,-0.0170,-2.2129,44.567537,-123.274505,-2.2369, 51.8806, 241.457352,Stationary,High, 0.0000, 0.0000, 76.5984, 41.9580,-509.1674,-15.3294, 21.9168,-46.5099
15-Mar-2018 17:32:26.256, 0.0093, 0.0160,-0.9884,-0.0318, 0.0550,-0.0069, 0.0101,-0.0170,-2.2128,44.567537,-123.274505,-2.2369, 51.8806, 241.457352,Stationary,High, 0.0000, 0.0000, 77.1328, 39.9856,-507.6328,-15.3319, 21.9176,-46.5087
15-Mar-2018 17:32:26.265, 0.0114, 0.0182,-0.9862,-0.0296, 0.0550,-0.0068, 0.0100,-0.0169,-2.2128,44.567537,-123.274505,-2.2369, 51.8806, 241.457352,Stationary,High, 0.0000, 0.0000, 77.1328, 39.9856,-507.6328,-15.3318, 21.9184,-46.5084
15-Mar-2018 17:32:26.274, 0.0076, 0.0156,-0.9870,-0.0296, 0.0529,-0.0079, 0.0101,-0.0170,-2.2128,44.567537,-123.274505,-2.2369, 51.8806, 241.457352,Stationary,High, 0.0000, 0.0000, 77.1328, 39.9856,-507.6328,-15.3318, 21.9184,-46.5084
15-Mar-2018 17:32:26.285, 0.0082, 0.0163,-0.9870,-0.0297, 0.0539,-0.0058, 0.0101,-0.0170,-2.2127,44.567537,-123.274505,-2.2369, 51.8806, 241.457352,Stationary,High, 0.0000, 0.0000, 77.1328, 39.9856,-507.6328,-15.3283, 21.9213,-46.5082
15-Mar-2018 17:32:26.296, 0.0080, 0.0169,-0.9897,-0.0307, 0.0550,-0.0079, 0.0100,-0.0170,-2.2127,44.567537,-123.274505,-2.2369, 51.8806, 241.457352,Stationary,High, 0.0000, 0.0000, 77.1328, 39.9856,-507.6328,-15.3283, 21.9213,-46.5082
15-Mar-2018 17:32:26.304, 0.0088, 0.0168,-0.9883,-0.0307, 0.0550,-0.0068, 0.0100,-0.0170,-2.2127,44.567537,-123.274505,-2.2369, 51.8806, 241.457352,Stationary,High, 0.0000, 0.0000, 76.5984, 41.9580,-507.1212,-15.3319, 21.9210,-46.5071
15-Mar-2018 17:32:26.323, 0.0085, 0.0168,-0.9859,-0.0317, 0.0550,-0.0079, 0.0100,-0.0170,-2.2127,44.567537,-123.274505,-2.2369, 51.8806, 241.457352,Stationary,High, 0.0000, 0.0000, 76.5984, 41.9580,-507.1212,-15.3332, 21.9223,-46.5060
15-Mar-2018 17:32:26.328, 0.0103, 0.0156,-0.9872,-0.0307, 0.0539,-0.0079, 0.0100,-0.0171,-2.2126,44.567537,-123.274505,-2.2369, 51.8806, 241.457352,Stationary,High, 0.0000, 0.0000, 76.5984, 41.9580,-507.1212,-15.3331, 21.9235,-46.5055
15-Mar-2018 17:32:26.333, 0.0078, 0.0172,-0.9885,-0.0307, 0.0539,-0.0079, 0.0100,-0.0171,-2.2126,44.567537,-123.274505,-2.2369, 51.8806, 241.457352,Stationary,High, 0.0000, 0.0000, 76.5984, 41.9580,-507.1212,-15.3331, 21.9235,-46.5055
15-Mar-2018 17:32:26.343, 0.0093, 0.0154,-0.9880,-0.0307, 0.0539,-0.0079, 0.0100,-0.0171,-2.2126,44.567537,-123.274505,-2.2369, 51.8806, 241.457352,Stationary,High, 0.0000, 0.0000, 76.7766, 41.0615,-507.9738,-15.3331, 21.9235,-46.5055
15-Mar-2018 17:32:26.355, 0.0101, 0.0172,-0.9884,-0.0318, 0.0539,-0.0069, 0.0099,-0.0171,-2.2126,44.567537,-123.274505,-2.2369, 51.8806, 241.457352,Stationary,High, 0.0000, 0.0000, 76.7766, 41.0615,-507.9738,-15.3315, 21.9265,-46.5047
15-Mar-2018 17:32:26.365, 0.0089, 0.0180,-0.9861,-0.0307, 0.0550,-0.0058, 0.0099,-0.0171,-2.2125,44.567537,-123.274505,-2.2369, 51.8806, 241.457352,Stationary,High, 0.0000, 0.0000, 76.7766, 41.0615,-507.9738,-15.3337, 21.9272,-46.5036
15-Mar-2018 17:32:26.383, 0.0084, 0.0175,-0.9866,-0.0307, 0.0539,-0.0068, 0.0099,-0.0171,-2.2125,44.567537,-123.274505,-2.2369, 51.8806, 241.457352,Stationary,High, 0.0000, 0.0000, 76.7766, 41.0615,-507.9738,-15.3316, 21.9291,-46.5033
15-Mar-2018 17:32:26.390, 0.0084, 0.0175,-0.9866,-0.0307, 0.0539,-0.0068, 0.0099,-0.0171,-2.2125,44.567537,-123.274505,-2.2369, 51.8806, 241.457352,Stationary,High, 0.0000, 0.0000, 76.7766, 41.0615,-507.9738,-15.3316, 21.9291,-46.5033
15-Mar-2018 17:32:26.394, 0.0107, 0.0186,-0.9859,-0.0307, 0.0560,-0.0068, 0.0100,-0.0172,-2.2124,44.567537,-123.274505,-2.2369, 51.8806, 241.457352,Stationary,High, 0.0000, 0.0000, 76.9547, 40.5236,-506.4391,-15.3312, 21.9321,-46.5021
15-Mar-2018 17:32:26.403, 0.0096, 0.0176,-0.9875,-0.0328, 0.0571,-0.0079, 0.0100,-0.0173,-2.2124,44.567537,-123.274505,-2.2369, 51.8806, 241.457352,Stationary,High, 0.0000, 0.0000, 76.9547, 40.5236,-506.4391,-15.3282, 21.9340,-46.5022
15-Mar-2018 17:32:26.412, 0.0097, 0.0171,-0.9866,-0.0328, 0.0571,-0.0079, 0.0100,-0.0173,-2.2124,44.567537,-123.274505,-2.2369, 51.8806, 241.457352,Stationary,High, 0.0000, 0.0000, 76.9547, 40.5236,-506.4391,-15.3282, 21.9340,-46.5022
15-Mar-2018 17:32:26.421, 0.0097, 0.0179,-0.9847,-0.0307, 0.0550,-0.0068, 0.0100,-0.0173,-2.2124,44.567537,-123.274505,-2.2369, 51.8806, 241.457352,Stationary,High, 0.0000, 0.0000, 77.4891, 40.3443,-508.3148,-15.3250, 21.9378,-46.5014
15-Mar-2018 17:32:26.431, 0.0066, 0.0173,-0.9823,-0.0307, 0.0560,-0.0079, 0.0101,-0.0173,-2.2123,44.567537,-123.274505,-2.2369, 51.8806, 241.457352,Stationary,High, 0.0000, 0.0000, 77.4891, 40.3443,-508.3148,-15.3230, 21.9409,-46.5006
15-Mar-2018 17:32:26.441, 0.0085, 0.0157,-0.9854,-0.0307, 0.0560,-0.0079, 0.0101,-0.0173,-2.2123,44.567537,-123.274505,-2.2369, 51.8806, 241.457352,Stationary,High, 0.0000, 0.0000, 77.4891, 40.3443,-508.3148,-15.3230, 21.9409,-46.5006
15-Mar-2018 17:32:26.451, 0.0090, 0.0153,-0.9915,-0.0190, 0.0911,-0.0066, 0.0106,-0.0172,-2.2123,44.567537,-123.274505,-2.2369, 51.8806, 241.457352,Stationary,High, 0.0000, 0.0000, 77.4891, 40.3443,-508.3148,-15.3140, 21.9401,-46.5040
15-Mar-2018 17:32:26.460, 0.0096, 0.0174,-0.9893,-0.0190, 0.0911,-0.0066, 0.0106,-0.0172,-2.2123,44.567537,-123.274505,-2.2369, 51.8806, 241.457352,Stationary,High, 0.0000, 0.0000, 77.4891, 41.4201,-508.6558,-15.3140, 21.9401,-46.5040
15-Mar-2018 17:32:26.471, 0.0099, 0.0172,-0.9805,-0.0254, 0.0752,-0.0067, 0.0108,-0.0170,-2.2122,44.567537,-123.274505,-2.2369, 51.8806, 241.457352,Stationary,High, 0.0000, 0.0000, 77.4891, 41.4201,-508.6558,-15.2961, 21.9364,-46.5116
15-Mar-2018 17:32:26.481, 0.0097, 0.0163,-0.9856,-0.0286, 0.0592,-0.0068, 0.0108,-0.0171,-2.2122,44.567537,-123.274505,-2.2369, 51.8806, 241.457352,Stationary,High, 0.0000, 0.0000, 77.4891, 41.4201,-508.6558,-15.2863, 21.9319,-46.5170
15-Mar-2018 17:32:26.490, 0.0110, 0.0171,-0.9889,-0.0297, 0.0561,-0.0057, 0.0109,-0.0171,-2.2122,44.567537,-123.274505,-2.2369, 51.8806, 241.457352,Stationary,High, 0.0000, 0.0000, 77.4891, 41.4201,-508.6558,-15.2819, 21.9327,-46.5180
15-Mar-2018 17:32:26.502, 0.0107, 0.0175,-0.9798,-0.0286, 0.0571,-0.0068, 0.0110,-0.0170,-2.2121,44.567537,-123.274505,-2.2369, 51.8806, 241.457352,Stationary,High, 0.0000, 0.0000, 78.0235, 40.1649,-508.1443,-15.2819, 21.9327,-46.5180
15-Mar-2018 17:32:26.510, 0.0108, 0.0160,-0.9863,-0.0233, 0.0762,-0.0067, 0.0111,-0.0170,-2.2121,44.567537,-123.274505,-2.2369, 51.8806, 241.457352,Stationary,High, 0.0000, 0.0000, 78.0235, 40.1649,-508.1443,-15.2780, 21.9337,-46.5189
15-Mar-2018 17:32:26.519, 0.0136, 0.0168,-0.9949,-0.0137, 0.1028,-0.0075, 0.0118,-0.0168,-2.2121,44.567537,-123.274505,-2.2369, 51.8806, 241.457352,Stationary,High, 0.0000, 0.0000, 78.0235, 40.1649,-508.1443,-15.2693, 21.9334,-46.5218
15-Mar-2018 17:32:26.529, 0.0117, 0.0157,-0.9889,-0.0190, 0.0868,-0.0076, 0.0120,-0.0167,-2.2120,44.567537,-123.274505,-2.2369, 51.8806, 241.457352,Stationary,High, 0.0000, 0.0000, 78.0235, 40.1649,-508.1443,-15.2693, 21.9334,-46.5218
15-Mar-2018 17:32:26.539, 0.0105, 0.0186,-0.9845,-0.0317, 0.0507,-0.0079, 0.0120,-0.0167,-2.2120,44.567537,-123.274505,-2.2369, 51.8806, 241.457352,Stationary,High, 0.0000, 0.0000, 76.4203, 39.6270,-507.6328,-15.2251, 21.9216,-46.5419
15-Mar-2018 17:32:26.552, 0.0108, 0.0157,-0.9878,-0.0349, 0.0390,-0.0080, 0.0117,-0.0169,-2.2120,44.567537,-123.274505,-2.2369, 51.8806, 241.457352,Stationary,High, 0.0000, 0.0000, 76.4203, 39.6270,-507.6328,-15.2227, 21.9206,-46.5431
15-Mar-2018 17:32:26.561, 0.0112, 0.0165,-0.9863,-0.0349, 0.0390,-0.0080, 0.0117,-0.0169,-2.2120,44.567537,-123.274505,-2.2369, 51.8806, 241.457352,Stationary,High, 0.0000, 0.0000, 76.4203, 39.6270,-507.6328,-15.2227, 21.9206,-46.5431
15-Mar-2018 17:32:26.570, 0.0091, 0.0174,-0.9845,-0.0392, 0.0295,-0.0060, 0.0116,-0.0170,-2.2120,44.567537,-123.274505,-2.2369, 51.8806, 241.457352,Stationary,High, 0.0000, 0.0000, 76.4203, 39.6270,-507.6328,-15.2325, 21.9285,-46.5362
15-Mar-2018 17:32:26.580, 0.0092, 0.0178,-0.9862,-0.0382, 0.0306,-0.0070, 0.0112,-0.0171,-2.2119,44.567537,-123.274505,-2.2369, 51.8806, 241.457352,Stationary,High, 0.0000, 0.0000, 75.7077, 40.3443,-507.6328,-15.2425, 21.9327,-46.5310
15-Mar-2018 17:32:26.590, 0.0094, 0.0179,-0.9881,-0.0339, 0.0359,-0.0080, 0.0110,-0.0172,-2.2119,44.567537,-123.274505,-2.2369, 51.8806, 241.457352,Stationary,High, 0.0000, 0.0000, 75.7077, 40.3443,-507.6328,-15.2425, 21.9327,-46.5310
15-Mar-2018 17:32:26.602, 0.0085, 0.0180,-0.9854,-0.0329, 0.0433,-0.0058, 0.0109,-0.0172,-2.2119,44.567625,-123.274584,-2.2369, 51.8806, 242.266342,Stationary,High, 0.0000, 0.0000, 75.7077, 40.3443,-507.6328,-15.2658, 21.9428,-46.5186
15-Mar-2018 17:32:26.609, 0.0099, 0.0176,-0.9857,-0.0329, 0.0529,-0.0058, 0.0108,-0.0173,-2.2118,44.567625,-123.274584,-2.2369, 51.8806, 242.266342,Stationary,High, 0.0000, 0.0000, 75.7077, 40.3443,-507.6328,-15.2721, 21.9463,-46.5148
15-Mar-2018 17:32:26.619, 0.0097, 0.0180,-0.9869,-0.0296, 0.0529,-0.0079, 0.0108,-0.0173,-2.2118,44.567625,-123.274584,-2.2369, 51.8806, 242.266342,Stationary,High, 0.0000, 0.0000, 76.9547, 39.8063,-507.8033,-15.2753, 21.9497,-46.5122
15-Mar-2018 17:32:26.630, 0.0093, 0.0167,-0.9886,-0.0296, 0.0518,-0.0068, 0.0107,-0.0173,-2.2118,44.567625,-123.274584,-2.2369, 51.8806, 242.266342,Stationary,High, 0.0000, 0.0000, 76.9547, 39.8063,-507.8033,-15.2753, 21.9497,-46.5122
15-Mar-2018 17:32:26.641, 0.0112, 0.0171,-0.9878,-0.0307, 0.0486,-0.0079, 0.0107,-0.0174,-2.2117,44.567625,-123.274584,-2.2369, 51.8806, 242.266342,Stationary,High, 0.0000, 0.0000, 76.9547, 39.8063,-507.8033,-15.2771, 21.9529,-46.5101
15-Mar-2018 17:32:26.654, 0.0097, 0.0176,-0.9922,-0.0339, 0.0401,-0.0080, 0.0105,-0.0174,-2.2117,44.567625,-123.274584,-2.2369, 51.8806, 242.266342,Stationary,High, 0.0000, 0.0000, 76.9547, 39.8063,-507.8033,-15.2793, 21.9534,-46.5091
15-Mar-2018 17:32:26.659, 0.0068, 0.0176,-0.9863,-0.0414, 0.0126,-0.0050, 0.0103,-0.0175,-2.2117,44.567625,-123.274584,-2.2369, 51.8806, 242.266342,Stationary,High, 0.0000, 0.0000, 75.1733, 41.5994,-508.8264,-15.2793, 21.9534,-46.5091
15-Mar-2018 17:32:26.669, 0.0085, 0.0161,-0.9781,-0.0456, 0.0009,-0.0061, 0.0095,-0.0177,-2.2116,44.567625,-123.274584,-2.2369, 51.8806, 242.266342,Stationary,High, 0.0000, 0.0000, 75.1733, 41.5994,-508.8264,-15.2978, 21.9608,-46.4995
15-Mar-2018 17:32:26.678, 0.0363,-0.0295,-0.9860,-0.0350, 0.0391,-0.0069, 0.0094,-0.0177,-2.2116,44.567625,-123.274584,-2.2369, 51.8806, 242.266342,Stationary,High, 0.0000, 0.0000, 75.1733, 41.5994,-508.8264,-15.3248, 21.9696,-46.4865
15-Mar-2018 17:32:26.688, 0.0490,-0.0721,-0.9903,-0.0293, 0.0590,-0.0239, 0.0101,-0.0166,-2.2117,44.567625,-123.274584,-2.2369, 51.8806, 242.266342,Stationary,High, 0.0000, 0.0000, 75.1733, 41.5994,-508.8264,-15.3248, 21.9696,-46.4865
15-Mar-2018 17:32:26.701, 0.0283,-0.0546,-0.9785,-0.0359, 0.0330,-0.0678, 0.0107,-0.0146,-2.2124,44.567625,-123.274584,-2.2369, 51.8806, 242.266342,Stationary,High, 0.0000, 0.0000, 77.1328, 39.9856,-507.9738,-15.3067, 21.9194,-46.5161
15-Mar-2018 17:32:26.707, 0.0150,-0.0337,-0.9883,-0.0317, 0.0490,-0.0644, 0.0108,-0.0146,-2.2129,44.567625,-123.274584,-2.2369, 51.8806, 242.266342,Stationary,High, 0.0000, 0.0000, 77.1328, 39.9856,-507.9738,-15.3067, 21.9194,-46.5161
15-Mar-2018 17:32:26.718, 0.0148,-0.0095,-0.9909,-0.0225, 0.0715,-0.0450, 0.0109,-0.0146,-2.2131,44.567625,-123.274584,-2.2369, 51.8806, 242.266342,Stationary,High, 0.0000, 0.0000, 77.1328, 39.9856,-507.9738,-15.2975, 21.8112,-46.5700
15-Mar-2018 17:32:26.730, 0.0085, 0.0086,-0.9879,-0.0325, 0.0442,-0.0218, 0.0108,-0.0146,-2.2133,44.567625,-123.274584,-2.2369, 51.8806, 242.266342,Stationary,High, 0.0000, 0.0000, 77.1328, 39.9856,-507.9738,-15.2986, 21.8024,-46.5738
15-Mar-2018 17:32:26.738,-0.0032, 0.0355,-0.9876,-0.0348, 0.0368,-0.0155, 0.0105,-0.0145,-2.2134,44.567625,-123.274584,-2.2369, 51.8806, 242.266342,Stationary,High, 0.0000, 0.0000, 76.5984, 40.1649,-508.1443,-15.3033, 21.7997,-46.5735
15-Mar-2018 17:32:26.748, 0.0003, 0.0869,-1.0014,-0.0362, 0.0338,-0.0006, 0.0104,-0.0145,-2.2133,44.567625,-123.274584,-2.2369, 51.8806, 242.266342,Stationary,High, 0.0000, 0.0000, 76.5984, 40.1649,-508.1443,-15.3033, 21.7997,-46.5735
15-Mar-2018 17:32:26.760,-0.0175, 0.0741,-0.9719,-0.0568,-0.0254, 0.0203, 0.0095,-0.0149,-2.2129,44.567625,-123.274584,-2.2369, 51.8806, 242.266342,Stationary,High, 0.0000, 0.0000, 76.5984, 40.1649,-508.1443,-15.3232, 21.7979,-46.5678
15-Mar-2018 17:32:26.767,-0.0110, 0.0578,-0.9897,-0.0461, 0.0085, 0.0152, 0.0092,-0.0150,-2.2126,44.567625,-123.274584,-2.2369, 51.8806, 242.266342,Stationary,High, 0.0000, 0.0000, 76.5984, 40.1649,-508.1443,-15.3432, 21.8099,-46.5556
15-Mar-2018 17:32:26.777,-0.0002, 0.0251,-1.0034,-0.0390, 0.0258, 0.0367, 0.0090,-0.0150,-2.2124,44.567625,-123.274584,-2.2369, 51.8806, 242.266342,Stationary,High, 0.0000, 0.0000, 76.5984, 40.1649,-508.1443,-15.3674, 21.8256,-46.5402
15-Mar-2018 17:32:26.789, 0.0025, 0.0165,-0.9777,-0.0658,-0.0474, 0.0446, 0.0082,-0.0153,-2.2118,44.567625,-123.274584,-2.2369, 51.8806, 242.266342,Stationary,High, 0.0000, 0.0000, 76.5984, 41.2408,-508.8264,-15.3690, 21.8348,-46.5354
15-Mar-2018 17:32:26.802, 0.0158, 0.0112,-0.9922,-0.0604,-0.0251, 0.0426, 0.0070,-0.0158,-2.2110,44.567625,-123.274584,-2.2369, 51.8806, 242.266342,Stationary,High, 99.4854, 0.0000, 76.5984, 41.2408,-508.8264,-15.3957, 21.8565,-46.5164
15-Mar-2018 17:32:26.808, 0.0057, 0.0186,-0.9975,-0.0789,-0.0705, 0.0603, 0.0054,-0.0164,-2.2100,44.567625,-123.274584,-2.2369, 51.8806, 242.266342,Stationary,High, 99.4854, 0.0000, 76.5984, 41.2408,-508.8264,-15.4251, 21.8801,-46.4955
15-Mar-2018 17:32:26.816,-0.0004, 0.0200,-0.9773,-0.0789,-0.0705, 0.0603, 0.0054,-0.0164,-2.2100,44.567625,-123.274584,-2.2369, 51.8806, 242.266342,Stationary,High, 99.4854, 0.0000, 76.5984, 41.2408,-508.8264,-15.4251, 21.8801,-46.4955
15-Mar-2018 17:32:26.825,-0.0067, 0.0218,-0.9844,-0.0681,-0.0451, 0.0552, 0.0040,-0.0170,-2.2091,44.567625,-123.274584,-2.2369, 51.8806, 242.266342,Stationary,High, 99.4854, 0.0000, 75.7077, 40.3443,-506.6096,-15.4861, 21.9365,-46.4487
15-Mar-2018 17:32:26.835, 0.0008, 0.0191,-0.9866,-0.0539,-0.0050, 0.0364, 0.0029,-0.0174,-2.2083,44.567625,-123.274584,-2.2369, 51.8806, 242.266342,Stationary,High, 99.4854, 0.0000, 75.7077, 40.3443,-506.6096,-15.5212, 21.9665,-46.4228
15-Mar-2018 17:32:26.844,-0.0117, 0.0217,-0.9750,-0.0539,-0.0050, 0.0364, 0.0029,-0.0174,-2.2083,44.567625,-123.274584,-2.2369, 51.8806, 242.266342,Stationary,High, 99.4854, 0.0000, 75.7077, 40.3443,-506.6096,-15.5212, 21.9665,-46.4228
15-Mar-2018 17:32:26.857,-0.0333, 0.0218,-0.9877,-0.0316, 0.0481, 0.0401, 0.0028,-0.0174,-2.2075,44.567625,-123.274584,-2.2369, 51.8806, 242.266342,Stationary,High, 99.4854, 0.0000, 75.7077, 40.3443,-506.6096,-15.5679, 22.0095,-46.3867
15-Mar-2018 17:32:26.865,-0.0133, 0.0131,-0.9890,-0.0330, 0.0405, 0.1072, 0.0027,-0.0175,-2.2058,44.567625,-123.274584,-2.2369, 51.8806, 242.266342,Stationary,High, 99.4854, 0.0000, 76.2422, 41.5994,-507.1212,-15.5600, 22.0178,-46.3855
15-Mar-2018 17:32:26.874,-0.0113,-0.0092,-0.9854,-0.0330, 0.0405, 0.1072, 0.0027,-0.0175,-2.2058,44.567625,-123.274584,-2.2369, 51.8806, 242.266342,Stationary,High, 99.4854, 0.0000, 76.2422, 41.5994,-507.1212,-15.5600, 22.0178,-46.3855
15-Mar-2018 17:32:26.888,-0.0232,-0.0074,-0.9860,-0.0348, 0.0378, 0.1477, 0.0026,-0.0175,-2.2035,44.567625,-123.274584,-2.2369, 51.8806, 242.266342,Stationary,High, 99.4854, 0.0000, 76.2422, 41.5994,-507.1212,-15.5252, 22.0518,-46.3810
15-Mar-2018 17:32:26.895,-0.0155, 0.0026,-0.9873,-0.0356, 0.0425, 0.1861, 0.0025,-0.0176,-2.2007,44.567625,-123.274584,-2.2369, 51.8806, 242.266342,Stationary,High, 99.4854, 0.0000, 76.2422, 41.5994,-507.1212,-15.4995, 22.0770,-46.3776
15-Mar-2018 17:32:26.904,-0.0083, 0.0090,-0.9816,-0.0356, 0.0425, 0.1861, 0.0025,-0.0176,-2.2007,44.567625,-123.274584,-2.2369, 51.8806, 242.266342,Stationary,High, 99.4854, 0.0000, 76.2422, 40.5236,-508.4853,-15.4995, 22.0770,-46.3776
15-Mar-2018 17:32:26.919, 0.0026, 0.0232,-0.9883,-0.0307, 0.0492, 0.2075, 0.0024,-0.0176,-2.1975,44.567625,-123.274584,-2.2369, 51.8806, 242.266342,Stationary,High, 99.4854, 0.0000, 76.2422, 40.5236,-508.4853,-15.4281, 22.1370,-46.3728
15-Mar-2018 17:32:26.928, 0.0105, 0.0299,-0.9898,-0.0337, 0.0473, 0.1445, 0.0024,-0.0176,-2.1950,44.567625,-123.274584,-2.2369, 51.8806, 242.266342,Stationary,High, 99.4854, 0.0000, 76.2422, 40.5236,-508.4853,-15.3834, 22.1710,-46.3714
15-Mar-2018 17:32:26.934, 0.0015, 0.0180,-0.9878,-0.0337, 0.0473, 0.1445, 0.0024,-0.0176,-2.1950,44.567625,-123.274584,-2.2369, 51.8806, 242.266342,Stationary,High, 99.4854, 0.0000, 76.2422, 40.5236,-508.4853,-15.3834, 22.1710,-46.3714
15-Mar-2018 17:32:26.949,-0.0018, 0.0201,-0.9893,-0.0338, 0.0453, 0.1509, 0.0024,-0.0177,-2.1926,44.567625,-123.274584,-2.2369, 51.8806, 242.266342,Stationary,High, 99.4854, 0.0000, 74.9952, 41.4201,-507.6328,-15.3064, 22.2283,-46.3694
15-Mar-2018 17:32:26.957,-0.0182, 0.0157,-0.9782,-0.0291, 0.0520, 0.1787, 0.0022,-0.0178,-2.1899,44.567625,-123.274584,-2.2369, 51.8806, 242.266342,Stationary,High, 99.4854, 0.0000, 74.9952, 41.4201,-507.6328,-15.2749, 22.2550,-46.3670
15-Mar-2018 17:32:26.963, 0.0188, 0.0237,-0.9857,-0.0291, 0.0520, 0.1787, 0.0022,-0.0178,-2.1899,44.567625,-123.274584,-2.2369, 51.8806, 242.266342,Stationary,High, 99.4854, 0.0000, 74.9952, 41.4201,-507.6328,-15.2749, 22.2550,-46.3670
15-Mar-2018 17:32:26.979, 0.0339, 0.0323,-0.9868,-0.0274, 0.0548, 0.1500, 0.0028,-0.0180,-2.1875,44.567625,-123.274584,-2.2369, 51.8806, 242.266342,Stationary,High, 99.4854, 0.0000, 74.9952, 41.4201,-507.6328,-15.2079, 22.3153,-46.3600
15-Mar-2018 17:32:26.986, 0.0245, 0.0229,-0.9871,-0.0262, 0.0530, 0.0871, 0.0028,-0.0179,-2.1860,44.567625,-123.274584,-2.2369, 51.8806, 242.266342,Stationary,High, 99.4854, 0.0000, 73.7483, 39.4477,-508.4853,-15.1453, 22.3490,-46.3643
15-Mar-2018 17:32:26.993, 0.0285, 0.0167,-0.9886,-0.0262, 0.0530, 0.0871, 0.0028,-0.0179,-2.1860,44.567625,-123.274584,-2.2369, 53.6220, 242.266342,Stationary,High, 99.4854, 0.0000, 73.7483, 39.4477,-508.4853,-15.1453, 22.3490,-46.3643
15-Mar-2018 17:32:27.009, 0.0210, 0.0214,-0.9857,-0.0281, 0.0497, 0.0785, 0.0036,-0.0179,-2.1847,44.567625,-123.274584,-2.2369, 53.6220, 242.266342,Stationary,High, 99.4854, 0.0000, 73.7483, 39.4477,-508.4853,-15.0971, 22.3805,-46.3648
15-Mar-2018 17:32:27.015, 0.0015, 0.0213,-0.9850,-0.0306, 0.0514, 0.0422, 0.0036,-0.0179,-2.1838,44.567625,-123.274584,-2.2369, 53.6220, 242.266342,Stationary,High, 99.4854, 0.0000, 73.7483, 39.4477,-508.4853,-15.0393, 22.3923,-46.3779
15-Mar-2018 17:32:27.022, 0.0070, 0.0232,-0.9878,-0.0306, 0.0514, 0.0422, 0.0036,-0.0179,-2.1838,44.567625,-123.274584,-2.2369, 54.9333, 242.266342,Stationary,High, 99.4854, 0.0000, 73.0357, 39.4477,-509.1674,-15.0393, 22.3923,-46.3779
15-Mar-2018 17:32:27.039, 0.0150, 0.0223,-0.9894,-0.0324, 0.0490, 0.0230, 0.0036,-0.0181,-2.1833,44.567625,-123.274584,-2.2369, 54.9333, 242.266342,Stationary,High, 99.4854, 0.0000, 73.0357, 39.4477,-509.1674,-15.0131, 22.4128,-46.3765
15-Mar-2018 17:32:27.049,-0.0006, 0.0151,-0.9859,-0.0342, 0.0435, 0.0069, 0.0036,-0.0182,-2.1832,44.567625,-123.274584,-2.2369, 56.0044, 242.266342,Stationary,High, 99.4854, 0.0000, 73.0357, 39.4477,-509.1674,-15.0008, 22.4277,-46.3733
15-Mar-2018 17:32:27.058, 0.0014, 0.0188,-0.9824,-0.0328, 0.0475,-0.0112, 0.0034,-0.0181,-2.1832,44.567625,-123.274584,-2.2369, 56.0044, 242.266342,Stationary,High, 99.4854, 0.0000, 73.0357, 39.4477,-509.1674,-15.0000, 22.4331,-46.3709
15-Mar-2018 17:32:27.069, 0.0007, 0.0175,-0.9932,-0.0328, 0.0486,-0.0111, 0.0033,-0.0182,-2.1832,44.567625,-123.274584,-2.2369, 56.0044, 242.266342,Stationary,High, 99.4854, 0.0000, 70.0074, 40.3443,-508.9969,-15.0091, 22.4309,-46.3690
15-Mar-2018 17:32:27.079, 0.0037, 0.0168,-0.9877,-0.0393, 0.0380,-0.0049, 0.0032,-0.0182,-2.1832,44.567625,-123.274584,-2.2369, 57.5721, 242.266342,Stationary,High, 99.4854, 0.0000, 70.0074, 40.3443,-508.9969,-15.0109, 22.4323,-46.3678
15-Mar-2018 17:32:27.088,-0.0068, 0.0208,-0.9975,-0.0478, 0.0465,-0.0029, 0.0031,-0.0185,-2.1831,44.567625,-123.274584,-2.2369, 57.5721, 242.266342,Stationary,High, 99.4854, 0.0000, 70.0074, 40.3443,-508.9969,-15.0161, 22.4368,-46.3639
15-Mar-2018 17:32:27.100,-0.0067, 0.0186,-0.9948,-0.0623, 0.0462,-0.0213, 0.0031,-0.0188,-2.1832,44.567625,-123.274584,-2.2369, 57.5721, 242.266342,Stationary,High, 99.4854, 0.0000, 70.0074, 40.3443,-508.9969,-15.0166, 22.4427,-46.3609
15-Mar-2018 17:32:27.106,-0.0029, 0.0196,-0.9870,-0.0759, 0.0471,-0.0375, 0.0030,-0.0195,-2.1836,44.567625,-123.274584,-2.2369, 59.0648, 242.266342,Stationary,High, 99.4854, 0.0000, 70.3637, 39.2684,-508.9969,-15.0209, 22.4560,-46.3531
15-Mar-2018 17:32:27.110,-0.0164, 0.0184,-0.9925,-0.0759, 0.0471,-0.0375, 0.0030,-0.0195,-2.1836,44.567625,-123.274584,-2.2369, 59.0648, 242.266342,Stationary,High, 99.4854, 0.0000, 70.3637, 39.2684,-508.9969,-15.0209, 22.4560,-46.3531
15-Mar-2018 17:32:27.120,-0.0031, 0.0182,-0.9930,-0.0759, 0.0471,-0.0375, 0.0030,-0.0195,-2.1836,44.567625,-123.274584,-2.2369, 59.0648, 242.266342,Stationary,High, 99.4854, 0.0000, 70.3637, 39.2684,-508.9969,-15.0209, 22.4560,-46.3531
15-Mar-2018 17:32:27.130, 0.0041, 0.0159,-1.0042,-0.0802, 0.0439,-0.0344, 0.0019,-0.0202,-2.1840,44.567625,-123.274584,-2.2369, 59.0648, 242.266342,Stationary,High, 99.4854, 0.0000, 70.3637, 39.2684,-508.9969,-15.0362, 22.4892,-46.3320
15-Mar-2018 17:32:27.140, 0.0107, 0.0167,-1.0076,-0.1239, 0.0354,-0.0288, 0.0017,-0.0213,-2.1843,44.567625,-123.274584,-2.2369, 60.3571, 242.266342,Stationary,High, 99.4854, 0.0000, 70.3637, 39.2684,-508.9969,-15.0889, 22.5045,-46.3074
15-Mar-2018 17:32:27.149, 0.0298, 0.0156,-1.0529,-0.1239, 0.0354,-0.0288, 0.0017,-0.0213,-2.1843,44.567625,-123.274584,-2.2369, 60.3571, 242.266342,Stationary,High, 99.4854, 0.0000, 69.6511, 38.5512,-508.6558,-15.0889, 22.5045,-46.3074
15-Mar-2018 17:32:27.158, 0.0421, 0.0255,-1.0492,-0.1823, 0.0277,-0.0352, 0.0026,-0.0232,-2.1846,44.567625,-123.274584,-2.2369, 60.3571, 242.266342,Stationary,High, 99.4854, 0.0000, 69.6511, 38.5512,-508.6558,-15.1078, 22.5611,-46.2737
15-Mar-2018 17:32:27.169, 0.0320, 0.0449,-1.0110,-0.2826, 0.0439,-0.0732, 0.0025,-0.0245,-2.1850,44.567625,-123.274584,-2.2369, 60.3571, 242.266342,Stationary,High, 99.4854, 0.0000, 69.6511, 38.5512,-508.6558,-15.0686, 22.6011,-46.2670
15-Mar-2018 17:32:27.178, 0.0199, 0.0216,-1.0165,-0.3495, 0.0514,-0.1362, 0.0025,-0.0292,-2.1868,44.567625,-123.274584,-2.2369, 62.1317, 242.266342,Stationary,High, 99.4854, 0.0000, 69.6511, 38.5512,-508.6558,-15.0864, 22.6990,-46.2132
15-Mar-2018 17:32:27.189, 0.0034, 0.0240,-1.0510,-0.3796, 0.0434,-0.1730, 0.0023,-0.0329,-2.1885,44.567625,-123.274584,-2.2369, 62.1317, 242.266342,Stationary,High, 99.4854, 0.0000, 67.8698, 39.6270,-508.6558,-15.1130, 22.8236,-46.1431
15-Mar-2018 17:32:27.199, 0.0241, 0.0395,-1.0513,-0.4475, 0.0399,-0.1860, 0.0022,-0.0347,-2.1894,44.567625,-123.274584,-2.2369, 63.9635, 242.266342,Stationary,High, 99.4854, 0.0000, 67.8698, 39.6270,-508.6558,-15.1512, 22.9579,-46.0639
15-Mar-2018 17:32:27.208, 0.0318, 0.0558,-1.0895,-0.5397, 0.0437,-0.2057, 0.0021,-0.0396,-2.1912,44.567625,-123.274584,-2.2369, 63.9635, 242.266342,Stationary,High, 99.4854, 0.0000, 67.8698, 39.6270,-508.6558,-15.1512, 22.9579,-46.0639
15-Mar-2018 17:32:27.218, 0.0378, 0.0432,-1.1262,-0.6537, 0.0417,-0.2515, 0.0018,-0.0490,-2.1949,44.567625,-123.274584,-2.2369, 63.9635, 242.266342,Stationary,High, 99.4854, 0.0000, 67.8698, 39.6270,-508.6558,-15.2446, 23.2958,-45.8630
15-Mar-2018 17:32:27.228, 0.0207, 0.0497,-1.1127,-0.8260, 0.0480,-0.3057, 0.0017,-0.0530,-2.1963,44.567625,-123.274584,-2.2369, 67.0195, 242.266342,Stationary,High, 99.4854, 0.0000, 65.3759, 40.3443,-506.9507,-15.2446, 23.2958,-45.8630
15-Mar-2018 17:32:27.239, 0.0020, 0.0709,-1.0696,-1.0211, 0.0682,-0.3433, 0.0016,-0.0678,-2.2013,44.567625,-123.274584,-2.2369, 67.0195, 242.266342,Stationary,High, 99.4854, 0.0000, 65.3759, 40.3443,-506.9507,-15.3722, 23.8305,-45.5446
15-Mar-2018 17:32:27.248,-0.0125, 0.0602,-1.0482,-1.1693, 0.0938,-0.3789, 0.0017,-0.0794,-2.2050,44.567625,-123.274584,-2.2369, 67.0195, 242.266342,Stationary,High, 99.4854, 0.0000, 65.3759, 40.3443,-506.9507,-15.4460, 24.2087,-45.3196
15-Mar-2018 17:32:27.257,-0.0278, 0.0693,-1.0494,-1.3654, 0.1083,-0.3642, 0.0020,-0.0987,-2.2104,44.567625,-123.274584,-2.2369, 71.1981, 242.266342,Stationary,High, 99.4854, 0.0000, 65.3759, 40.3443,-506.9507,-15.4460, 24.2087,-45.3196
15-Mar-2018 17:32:27.268,-0.0182, 0.0771,-1.0708,-1.3654, 0.1083,-0.3642, 0.0020,-0.0987,-2.2104,44.567625,-123.274584,-2.2369, 71.1981, 242.266342,Stationary,High, 99.4854, 0.0000, 60.7443, 41.7787,-507.6328,-15.4460, 24.2087,-45.3196
15-Mar-2018 17:32:27.277,-0.0191, 0.0984,-1.0655,-1.4736, 0.1074,-0.3256, 0.0023,-0.1204,-2.2151,44.567625,-123.274584,-2.2369, 71.1981, 242.266342,Stationary,High, 99.4854, 0.0000, 60.7443, 41.7787,-507.6328,-15.6580, 25.6694,-44.4344
15-Mar-2018 17:32:27.287,-0.0152, 0.1180,-1.0838,-1.5967, 0.1160,-0.2883, 0.0024,-0.1282,-2.2165,44.567625,-123.274584,-2.2369, 73.8141, 242.266342,Stationary,High, 99.4854, 0.0000, 60.7443, 41.7787,-507.6328,-15.6580, 25.6694,-44.4344
15-Mar-2018 17:32:27.299,-0.0197, 0.1321,-1.0945,-1.7419, 0.1308,-0.2653, 0.0030,-0.1539,-2.2203,44.567625,-123.274584,-2.2369, 73.8141, 242.266342,Stationary,High, 99.4854, 0.0000, 60.7443, 41.7787,-507.6328,-15.7702, 26.8713,-43.6777
15-Mar-2018 17:32:27.307,-0.0387, 0.1453,-1.0800,-1.9105, 0.1497,-0.2395, 0.0036,-0.1731,-2.2225,44.567625,-123.274584,-2.2369, 73.8141, 242.266342,Stationary,High, 99.4854, 0.0000, 58.7849, 43.3925,-506.4391,-15.7702, 26.8713,-43.6777
15-Mar-2018 17:32:27.317,-0.0488, 0.1570,-1.0511,-2.0666, 0.1519,-0.2038, 0.0039,-0.1833,-2.2234,44.567625,-123.274584,-2.2369, 76.3975, 242.266342,Stationary,High, 99.4854, 0.0000, 58.7849, 43.3925,-506.4391,-15.8370, 28.3075,-42.7362
15-Mar-2018 17:32:27.329,-0.0691, 0.1546,-1.0062,-2.1920, 0.1521,-0.1549, 0.0051,-0.2156,-2.2255,44.567625,-123.274584,-2.2369, 76.3975, 242.266342,Stationary,High, 99.4854, 0.0000, 58.7849, 43.3925,-506.4391,-15.8552, 29.1228,-42.1780
15-Mar-2018 17:32:27.336,-0.0764, 0.1706,-0.9484,-2.2626, 0.1486,-0.0847, 0.0058,-0.2379,-2.2258,44.567625,-123.274584,-2.2369, 76.3975, 242.266342,Stationary,High, 99.4854, 0.0000, 58.7849, 43.3925,-506.4391,-15.8595, 29.9898,-41.5643
15-Mar-2018 17:32:27.346,-0.0632, 0.2017,-0.9002,-2.2624, 0.1254, 0.0123, 0.0062,-0.2491,-2.2257,44.567625,-123.274584,-2.2369, 84.3510, 242.266342,Stationary,High, 99.4854, 0.0000, 57.3598, 47.3372,-506.0981,-15.8595, 29.9898,-41.5643
15-Mar-2018 17:32:27.356,-0.0582, 0.2284,-0.8806,-2.1936, 0.1064, 0.0871, 0.0071,-0.2709,-2.2247,44.567625,-123.274584,-2.2369, 84.3510, 242.266342,Stationary,High, 99.4854, 0.0000, 57.3598, 47.3372,-506.0981,-32.1061, 24.6040,-45.5453
15-Mar-2018 17:32:27.365,-0.0391, 0.2760,-0.8732,-2.0907, 0.0810, 0.1571, 0.0083,-0.3018,-2.3139,44.567625,-123.274584,-2.2369, 84.3510, 242.266342,Stationary,High, 99.4854, 0.0000, 57.3598, 47.3372,-506.0981,-31.3719, 27.1931,-44.5743
15-Mar-2018 17:32:27.375,-0.0094, 0.2900,-0.8462,-1.9937, 0.0670, 0.2004, 0.0088,-0.3116,-2.3127,44.567625,-123.274584,-2.2369, 84.3510, 242.266342,Stationary,High, 99.4854, 0.0000, 57.3598, 47.3372,-506.0981,-31.3719, 27.1931,-44.5743
15-Mar-2018 17:32:27.392, 0.0034, 0.3062,-0.8159,-1.8739, 0.0612, 0.2228, 0.0097,-0.3303,-2.3961,44.567625,-123.274584,-2.2369, 84.3510, 242.266342,Stationary,High, 99.4854, 0.0000, 57.3598, 53.0751,-504.0518,-30.7223, 30.1505,-43.1001
15-Mar-2018 17:32:27.404, 0.0199, 0.3114,-0.7976,-1.5203, 0.0440, 0.2077, 0.0113,-0.3628,-2.4284,44.567625,-123.274584,-2.2369, 84.3510, 242.266342,Stationary,High, 99.4854, 0.0000, 57.3598, 53.0751,-504.0518,-30.6498, 31.0210,-42.5301
15-Mar-2018 17:32:27.409, 0.0189, 0.3105,-0.8124,-1.3416, 0.0307, 0.2087, 0.0120,-0.3763,-2.4545,44.567625,-123.274584,-2.2369, 85.9317, 242.266342,Stationary,High, 99.4854, 0.0000, 57.3598, 53.0751,-504.0518,-30.5105, 32.5257,-41.4936
15-Mar-2018 17:32:27.414, 0.0105, 0.3407,-0.8282,-1.3416, 0.0307, 0.2087, 0.0120,-0.3763,-2.4545,44.567625,-123.274584,-2.2369, 85.9317, 242.266342,Stationary,High, 99.4854, 0.0000, 57.3598, 53.0751,-504.0518,-30.5105, 32.5257,-41.4936
15-Mar-2018 17:32:27.431, 0.0184, 0.3771,-0.8410,-1.1981, 0.0216, 0.2134, 0.0130,-0.3938,-2.4910,44.567625,-123.274584,-2.2369, 85.9317, 242.266342,Stationary,High, 99.4854, 0.0000, 55.9347, 54.8682,-502.0056,-30.0870, 33.7920,-40.7848
15-Mar-2018 17:32:27.438, 0.0569, 0.3939,-0.8180,-0.9667, 0.0404, 0.1375, 0.0139,-0.4088,-2.5034,44.567625,-123.274584,-2.2369, 84.2042, 242.266342,Stationary,High, 99.4854, 0.0000, 55.9347, 54.8682,-502.0056,-30.0568, 34.0617,-40.5822
15-Mar-2018 17:32:27.444, 0.0529, 0.4183,-0.8242,-0.9667, 0.0404, 0.1375, 0.0139,-0.4088,-2.5034,44.567625,-123.274584,-2.2369, 84.2042, 242.266342,Stationary,High, 99.4854, 0.0000, 55.9347, 54.8682,-502.0056,-30.0568, 34.0617,-40.5822
15-Mar-2018 17:32:27.456, 0.0342, 0.4164,-0.8733,-0.8623, 0.0569, 0.0776, 0.0145,-0.4213,-2.5147,44.567625,-123.274584,-2.2369, 84.2042, 242.266342,Stationary,High, 99.4854, 0.0000, 55.9347, 54.8682,-502.0056,-29.9794, 34.7438,-40.0578
15-Mar-2018 17:32:27.463, 0.0010, 0.3934,-0.9203,-0.8245, 0.0599, 0.0505, 0.0147,-0.4253,-2.5259,44.567625,-123.274584,-2.2369, 84.2042, 242.266342,Stationary,High, 99.4854, 0.0000, 55.9347, 54.8682,-502.0056,-29.9464, 35.1128,-39.7596
15-Mar-2018 17:32:27.475,-0.0083, 0.3879,-0.9035,-0.8345, 0.0600, 0.0674, 0.0151,-0.4333,-2.5350,44.567625,-123.274584,-2.2369, 83.1659, 242.266342,Stationary,High, 99.4854, 0.0000, 57.7160, 56.6613,-500.3004,-29.9358, 35.2782,-39.6210
15-Mar-2018 17:32:27.491, 0.0167, 0.4152,-0.8861,-0.8274, 0.0539, 0.0867, 0.0159,-0.4452,-2.5420,44.567625,-123.274584,-2.2369, 83.1659, 242.266342,Unknown,High, 99.4854, 0.0000, 57.7160, 56.6613,-500.3004,-29.9100, 35.6134,-39.3396
15-Mar-2018 17:32:27.497, 0.0203, 0.4299,-0.8976,-0.8239, 0.0601, 0.0708, 0.0166,-0.4570,-2.5485,44.567625,-123.274584,-2.2369, 83.1659, 242.266342,Unknown,High, 99.4854, 0.0000, 57.7160, 56.6613,-500.3004,-29.8782, 35.9526,-39.0542
15-Mar-2018 17:32:27.503, 0.0180, 0.4347,-0.8819,-0.8239, 0.0601, 0.0708, 0.0166,-0.4570,-2.5485,44.567625,-123.274584,-2.2369, 83.1659, 242.266342,Unknown,High, 99.4854, 0.0000, 57.7160, 56.6613,-500.3004,-29.8782, 35.9526,-39.0542
15-Mar-2018 17:32:27.513, 0.0294, 0.4578,-0.8873,-0.8152, 0.0601, 0.0635, 0.0173,-0.4688,-2.5600,44.567625,-123.274584,-2.2369, 83.1659, 242.266342,Unknown,High, 99.4854, 0.0000, 56.8253, 57.9164,-500.4709,-29.7251, 36.6362,-38.5322
15-Mar-2018 17:32:27.523, 0.0147, 0.4628,-0.9013,-0.8352, 0.0694, 0.0525, 0.0175,-0.4729,-2.5653,44.567625,-123.274584,-2.2369, 83.1659, 242.266342,Unknown,High, 99.4854, 0.0000, 56.8253, 57.9164,-500.4709,-29.6962, 36.9592,-38.2449
15-Mar-2018 17:32:27.532,-0.0013, 0.4441,-0.8864,-0.8684, 0.0663, 0.0625, 0.0181,-0.4812,-2.5695,44.567625,-123.274584,-2.2369, 81.4266, 242.266342,Unknown,High, 99.4854, 0.0000, 56.8253, 57.9164,-500.4709,-29.6832, 37.1206,-38.0985
15-Mar-2018 17:32:27.542, 0.0134, 0.4711,-0.8808,-0.8684, 0.0663, 0.0625, 0.0181,-0.4812,-2.5695,44.567625,-123.274584,-2.2369, 81.4266, 242.266342,Unknown,High, 99.4854, 0.0000, 56.8253, 57.9164,-500.4709,-29.6832, 37.1206,-38.0985
15-Mar-2018 17:32:27.554, 0.0317, 0.4903,-0.8786,-0.8896, 0.0693, 0.0600, 0.0192,-0.4981,-2.5764,44.567625,-123.274584,-2.2369, 81.4266, 242.266342,Unknown,High, 99.4854, 0.0000, 55.9347, 58.4543,-498.2542,-29.5829, 37.5761,-37.7281
15-Mar-2018 17:32:27.563, 0.0260, 0.5018,-0.8728,-0.9104, 0.0722, 0.0352, 0.0197,-0.5068,-2.5796,44.567625,-123.274584,-2.2369, 81.4266, 242.266342,Unknown,High, 99.4854, 0.0000, 55.9347, 58.4543,-498.2542,-29.5388, 38.0833,-37.2511
15-Mar-2018 17:32:27.573, 0.0075, 0.4916,-0.9054,-0.9515, 0.0930, 0.0131, 0.0206,-0.5207,-2.5825,44.567625,-123.274584,-2.2369, 81.4266, 242.266342,Unknown,High, 99.4854, 0.0000, 55.9347, 58.4543,-498.2542,-29.5154, 38.4203,-36.9221
15-Mar-2018 17:32:27.585, 0.0050, 0.4904,-0.9045,-1.0595, 0.0357, 0.0378, 0.0208,-0.5357,-2.5852,44.567625,-123.274584,-2.2369, 81.4266, 242.266342,Unknown,High, 99.4854, 0.0000, 55.9347, 58.4543,-498.2542,-29.4956, 38.7590,-36.5824
15-Mar-2018 17:32:27.591, 0.0107, 0.5080,-0.8725,-1.0595, 0.0357, 0.0378, 0.0208,-0.5357,-2.5852,44.567625,-123.274584,-2.2369, 81.4266, 242.266342,Unknown,High, 99.4854, 0.0000, 58.2504, 61.5026,-498.0837,-29.4956, 38.7590,-36.5824
15-Mar-2018 17:32:27.601,-0.0016, 0.5026,-0.8687,-1.0595, 0.0357, 0.0378, 0.0208,-0.5357,-2.5852,44.567625,-123.274584,-2.2369, 81.4266, 242.266342,Unknown,High, 99.4854, 0.0000, 58.2504, 61.5026,-498.0837,-29.4956, 38.7590,-36.5824
15-Mar-2018 17:32:27.614,-0.0131, 0.5032,-0.8510,-1.1175,-0.0122, 0.1198, 0.0218,-0.5681,-2.5913,44.567625,-123.274584,-2.2369, 81.4266, 242.266342,Unknown,High, 99.4854, 0.0000, 58.2504, 61.5026,-498.0837,-29.4256, 39.7951,-35.5106
15-Mar-2018 17:32:27.621,-0.0078, 0.5130,-0.8338,-1.1175,-0.0122, 0.1198, 0.0218,-0.5681,-2.5913,44.567625,-123.274584,-2.2369, 82.4304, 242.266342,Unknown,High, 99.4854, 0.0000, 58.2504, 61.5026,-498.0837,-29.4256, 39.7951,-35.5106
15-Mar-2018 17:32:27.630,-0.0035, 0.5240,-0.8371,-1.1175,-0.0122, 0.1198, 0.0218,-0.5681,-2.5913,44.567625,-123.274584,-2.2369, 82.4304, 242.266342,Unknown,High, 99.4854, 0.0000, 58.2504, 62.9370,-496.3785,-29.4256, 39.7951,-35.5106
15-Mar-2018 17:32:27.643, 0.0018, 0.5400,-0.8199,-1.1128,-0.0298, 0.1529, 0.0222,-0.5842,-2.5966,44.567625,-123.274584,-2.2369, 82.4304, 242.266342,Unknown,High, 99.4854, 0.0000, 58.2504, 62.9370,-496.3785,-29.2527, 40.6360,-34.6917
15-Mar-2018 17:32:27.650,-0.0025, 0.5438,-0.8174,-1.0922,-0.0792, 0.1873, 0.0224,-0.6002,-2.5929,44.567625,-123.274584,-2.2369, 82.4304, 242.266342,Unknown,High, 99.4854, 0.0000, 58.2504, 62.9370,-496.3785,-29.2527, 40.6360,-34.6917
15-Mar-2018 17:32:27.660, 0.0021, 0.5585,-0.8149,-1.0864,-0.1000, 0.2172, 0.0227,-0.6159,-2.5933,44.567625,-123.274584,-2.2369, 82.4304, 242.266342,Unknown,High, 99.4854, 0.0000, 58.2504, 62.9370,-496.3785,-29.1300, 41.7371,-33.4661
15-Mar-2018 17:32:27.670, 0.0070, 0.5779,-0.8098,-1.0864,-0.1000, 0.2172, 0.0227,-0.6159,-2.5933,44.567625,-123.274584,-2.2369, 82.4304, 242.266342,Unknown,High, 99.4854, 0.0000, 58.0723, 63.4750,-493.8207,-29.1300, 41.7371,-33.4661
15-Mar-2018 17:32:27.679, 0.0082, 0.5957,-0.8064,-1.1039,-0.1199, 0.2393, 0.0230,-0.6318,-2.5910,44.567625,-123.274584,-2.2369, 82.4304, 242.266342,Unknown,High, 99.4854, 0.0000, 58.0723, 63.4750,-493.8207,-29.0909, 42.1489,-32.9805
15-Mar-2018 17:32:27.689, 0.0121, 0.6009,-0.8032,-1.1039,-0.1199, 0.2393, 0.0230,-0.6318,-2.5910,44.567625,-123.274584,-2.2369, 82.4304, 242.266342,Unknown,High, 99.4854, 0.0000, 58.0723, 63.4750,-493.8207,-29.0909, 42.1489,-32.9805
15-Mar-2018 17:32:27.701, 0.0046, 0.5895,-0.8038,-1.1295,-0.1316, 0.2441, 0.0232,-0.6482,-2.5925,44.567625,-123.274584,-2.2369, 82.4304, 242.266342,Unknown,High, 99.4854, 0.0000, 58.0723, 63.4750,-493.8207,-28.9189, 42.9323,-32.1097
15-Mar-2018 17:32:27.709, 0.0273, 0.6541,-0.7190,-1.1597,-0.1399, 0.2628, 0.0235,-0.6649,-2.5871,44.567625,-123.274584,-2.2369, 82.4304, 242.266342,Unknown,High, 99.4854, 0.0000, 58.4286, 64.9094,-491.4335,-28.9189, 42.9323,-32.1097
15-Mar-2018 17:32:27.719, 0.1152, 0.7005,-0.7078,-1.1597,-0.1399, 0.2628, 0.0235,-0.6649,-2.5871,44.567625,-123.274584,-2.2369, 82.4304, 242.266342,Unknown,High, 99.4854, 0.0000, 58.4286, 64.9094,-491.4335,-28.9189, 42.9323,-32.1097
15-Mar-2018 17:32:27.731,-0.0025, 0.5309,-0.8326,-1.1270,-0.0674, 0.1174, 0.0238,-0.6815,-2.5903,44.567625,-123.274584,-2.2369, 82.4304, 242.266342,Unknown,High, 99.4854, 0.0000, 58.4286, 64.9094,-491.4335,-28.7183, 43.9364,-30.9091
15-Mar-2018 17:32:27.738,-0.0193, 0.5459,-0.7729,-1.0801,-0.1706, 0.1660, 0.0231,-0.6976,-2.5872,44.567625,-123.274584,-2.2369, 82.4304, 242.266342,Unknown,High, 99.4854, 0.0000, 58.4286, 64.9094,-491.4335,-28.7183, 43.9364,-30.9091
15-Mar-2018 17:32:27.748, 0.0240, 0.6464,-0.7835,-1.0801,-0.1706, 0.1660, 0.0231,-0.6976,-2.5872,44.567625,-123.274584,-2.2369, 82.4304, 242.266342,Unknown,High, 99.4854, 0.0000, 57.3598, 66.7025,-490.4104,-28.7183, 43.9364,-30.9091
15-Mar-2018 17:32:27.758, 0.0186, 0.7037,-0.7470,-1.0898,-0.0560, 0.1725, 0.0235,-0.7134,-2.5877,44.567625,-123.274584,-2.2369, 82.4304, 242.266342,Unknown,High, 99.4854, 0.0000, 57.3598, 66.7025,-490.4104,-28.6566, 44.8952,-29.5590
15-Mar-2018 17:32:27.767, 0.0164, 0.6756,-0.7382,-1.1840,-0.0725, 0.1452, 0.0235,-0.7302,-2.5865,44.567625,-123.274584,-2.2369, 82.4304, 242.266342,Unknown,High, 99.4854, 0.0000, 57.3598, 66.7025,-490.4104,-28.6339, 45.0756,-29.3055
15-Mar-2018 17:32:27.779, 0.0137, 0.6478,-0.7466,-1.1840,-0.0725, 0.1452, 0.0235,-0.7302,-2.5865,44.567625,-123.274584,-2.2369, 80.9291, 242.266342,Unknown,High, 99.4854, 0.0000, 57.3598, 66.7025,-490.4104,-28.6339, 45.0756,-29.3055
15-Mar-2018 17:32:27.801, 0.0219, 0.7013,-0.7184,-1.2710,-0.0082, 0.1352, 0.0248,-0.7658,-2.5892,44.567625,-123.274584,-2.2369, 79.8713, 242.266342,Unknown,High, 99.4854, 0.0000, 55.0440, 66.8818,-486.1474,-28.4158, 45.5615,-28.7613
15-Mar-2018 17:32:27.804, 0.0219, 0.7013,-0.7184,-1.2710,-0.0082, 0.1352, 0.0248,-0.7658,-2.5892,44.567625,-123.274584,-2.2369, 79.8713, 242.266342,Unknown,High, 99.4854, 0.0000, 55.0440, 66.8818,-486.1474,-28.4158, 45.5615,-28.7613
15-Mar-2018 17:32:27.811, 0.0368, 0.7280,-0.7254,-1.3130,-0.0713, 0.1034, 0.0252,-0.7850,-2.5863,44.567625,-123.274584,-2.2369, 79.8713, 242.266342,Unknown,High, 99.4853, 0.0053, 55.0440, 66.8818,-486.1474,-28.4158, 45.5615,-28.7613
15-Mar-2018 17:32:27.821, 0.0333, 0.7187,-0.6911,-1.3130,-0.0713, 0.1034, 0.0252,-0.7850,-2.5863,44.567625,-123.274584,-2.2369, 79.8713, 242.266342,Unknown,High, 99.4853, 0.0053, 55.0440, 66.8818,-486.1474,-28.4158, 45.5615,-28.7613
15-Mar-2018 17:32:27.828, 0.0254, 0.7324,-0.6937,-1.3930, 0.0510, 0.0628, 0.0258,-0.8050,-2.5895,44.567625,-123.274584,-2.2369, 79.8713, 242.266342,Unknown,High, 99.4853, 0.0053, 51.8375, 68.6749,-485.4654,-28.2620, 46.7427,-26.9610
15-Mar-2018 17:32:27.838, 0.0142, 0.7179,-0.6735,-1.3930, 0.0510, 0.0628, 0.0258,-0.8050,-2.5895,44.567625,-123.274584,-2.2369, 238.7863, 242.266342,Unknown,High, 99.4853, 0.0053, 51.8375, 68.6749,-485.4654,-28.2620, 46.7427,-26.9610
15-Mar-2018 17:32:27.851, 0.0265, 0.7178,-0.6783,-1.3930,-0.0391, 0.0637, 0.0260,-0.8254,-2.5931,44.567625,-123.274584,-2.2369, 238.7863, 242.266342,Unknown,High, 99.4853, 0.0053, 51.8375, 68.6749,-485.4654,-28.1989, 47.3588,-25.9324
15-Mar-2018 17:32:27.857, 0.0379, 0.7296,-0.6552,-1.3824, 0.0165, 0.0128, 0.0263,-0.8458,-2.5949,44.567625,-123.274584,-2.2369, 238.7863, 242.266342,Unknown,High, 99.4853, 0.0053, 51.8375, 68.6749,-485.4654,-28.1959, 47.5429,-25.5966
15-Mar-2018 17:32:27.867, 0.0444, 0.7519,-0.6397,-1.3824, 0.0165, 0.0128, 0.0263,-0.8458,-2.5949,44.567625,-123.274584,-2.2369, 265.2028, 242.266342,Unknown,High, 99.4853, 0.0053, 51.8375, 68.6749,-485.4654,-28.1959, 47.5429,-25.5966
15-Mar-2018 17:32:27.879, 0.0369, 0.7713,-0.6205,-1.3732, 0.0627,-0.0232, 0.0266,-0.8660,-2.5977,44.567625,-123.274584,-2.2369, 265.2028, 242.266342,Unknown,High, 99.4853, 0.0053, 53.7970, 70.6473,-484.2717,-38.2723, 49.6519,-25.3717
15-Mar-2018 17:32:27.888, 0.0422, 0.7856,-0.6066,-1.3831, 0.1379,-0.1149, 0.0265,-0.8864,-2.6054,44.567625,-123.274584,-2.2369, 265.2028, 242.266342,Unknown,High, 99.4853, 0.0053, 53.7970, 70.6473,-484.2717,-38.3219, 49.9066,-24.7905
15-Mar-2018 17:32:27.897, 0.0284, 0.7993,-0.5999,-1.3831, 0.1379,-0.1149, 0.0265,-0.8864,-2.6054,44.567625,-123.274584,-2.2369, 265.2028, 242.266342,Unknown,High, 99.4853, 0.0053, 53.7970, 70.6473,-484.2717,-38.3219, 49.9066,-24.7905
15-Mar-2018 17:32:27.909, 0.0150, 0.8010,-0.5990,-1.3994, 0.1979,-0.1471, 0.0264,-0.9069,-2.6203,44.567625,-123.274584,-2.2369, 265.2028, 242.266342,Unknown,High, 99.4853, 0.0053, 53.7970, 70.6473,-484.2717,-38.2877, 50.4945,-23.6255
15-Mar-2018 17:32:27.917, 0.0237, 0.8034,-0.5753,-1.4262, 0.2503,-0.1901, 0.0256,-0.9277,-2.6301,44.567625,-123.274584,-2.2369, 265.2028, 242.266342,Unknown,High, 99.4853, 0.0053, 52.0157, 71.3645,-480.8614,-38.3082, 50.6265,-23.3078
15-Mar-2018 17:32:27.927, 0.0315, 0.8408,-0.5859,-1.4262, 0.2503,-0.1901, 0.0256,-0.9277,-2.6301,44.567625,-123.274584,-2.2369, 266.5986, 242.266342,Unknown,High, 99.4853, 0.0053, 52.0157, 71.3645,-480.8614,-38.3082, 50.6265,-23.3078
15-Mar-2018 17:32:27.938, 0.0295, 0.8342,-0.5345,-1.4705, 0.2213,-0.2102, 0.0253,-0.9493,-2.6456,44.567625,-123.274584,-2.2369, 266.5986, 242.266342,Unknown,High, 99.4853, 0.0053, 52.0157, 71.3645,-480.8614,-38.3307, 51.1189,-22.1681
15-Mar-2018 17:32:27.946, 0.0328, 0.8363,-0.5308,-1.5346, 0.2521,-0.1974, 0.0253,-0.9719,-2.6556,44.567625,-123.274584,-2.2369, 266.5986, 242.266342,Unknown,High, 99.4853, 0.0053, 52.0157, 71.3645,-480.8614,-38.3664, 51.2364,-21.8326
15-Mar-2018 17:32:27.959, 0.0420, 0.8364,-0.5418,-1.5346, 0.2521,-0.1974, 0.0253,-0.9719,-2.6556,44.567625,-123.274584,-2.2369, 266.5986, 242.266342,Unknown,High, 99.4853, 0.0053, 54.6877, 71.9024,-477.9626,-38.3664, 51.2364,-21.8326
15-Mar-2018 17:32:27.966, 0.0123, 0.7937,-0.5393,-1.5660, 0.4278,-0.2211, 0.0262,-0.9947,-2.6711,44.567625,-123.274584,-2.2369, 266.5986, 242.266342,Unknown,High, 99.4853, 0.0053, 54.6877, 71.9024,-477.9626,-38.3840, 51.7150,-20.6405
15-Mar-2018 17:32:27.977, 0.0194, 0.7579,-0.5610,-1.4142, 0.3944,-0.2046, 0.0263,-1.0161,-2.6811,44.567625,-123.274584,-2.2369, 266.5986, 242.266342,Unknown,High, 99.4853, 0.0053, 54.6877, 71.9024,-477.9626,-38.4021, 51.8302,-20.3154
15-Mar-2018 17:32:27.987,-0.0065, 0.7542,-0.5578,-1.4142, 0.3944,-0.2046, 0.0263,-1.0161,-2.6811,44.567625,-123.274584,-2.2369, 266.5986, 242.266342,Unknown,High, 99.4853, 0.0053, 54.6877, 71.9024,-477.9626,-38.4021, 51.8302,-20.3154
15-Mar-2018 17:32:27.999,-0.0059, 0.8183,-0.5367,-1.2918, 0.4191,-0.2087, 0.0273,-1.0351,-2.6962,44.567625,-123.274584,-2.2369, 266.5986, 242.266342,Unknown,High, 99.4853, 0.0053, 55.0440, 74.0541,-473.8701,-38.4252, 52.2380,-19.1964
15-Mar-2018 17:32:28.015, 0.0105, 0.8504,-0.5097,-1.1059, 0.0878,-0.1965, 0.0250,-1.0519,-2.7061,44.567625,-123.274584,-2.2369, 266.5986, 242.266342,Unknown,High, 99.4853, 0.0053, 55.0440, 74.0541,-473.8701,-38.4441, 52.3186,-18.9375
15-Mar-2018 17:32:28.022,-0.0141, 0.8474,-0.4648,-1.0964, 0.2152,-0.1907, 0.0234,-1.0681,-2.7156,44.567625,-123.274584,-2.2369, 266.5986, 242.266342,Unknown,High, 99.4853, 0.0053, 55.0440, 74.0541,-473.8701,-38.5617, 52.5171,-18.1316
15-Mar-2018 17:32:28.025,-0.0157, 0.8671,-0.4563,-1.0964, 0.2152,-0.1907, 0.0234,-1.0681,-2.7156,44.567625,-123.274584,-2.2369, 266.5986, 242.266342,Unknown,High, 99.4853, 0.0053, 55.0440, 74.0541,-473.8701,-38.5617, 52.5171,-18.1316
15-Mar-2018 17:32:28.038,-0.0049, 0.8735,-0.4889,-1.1228, 0.0738,-0.0422, 0.0248,-1.0850,-2.7268,44.567625,-123.274584,-2.2369, 266.5986, 242.266342,Unknown,High, 99.4853, 0.0053, 53.6189, 73.6955,-472.8470,-38.5833, 52.6507,-17.6929
15-Mar-2018 17:32:28.045,-0.0163, 0.8762,-0.4553,-1.1228, 0.0738,-0.0422, 0.0248,-1.0850,-2.7268,44.567625,-123.274584,-2.2369, 266.5986, 242.266342,Unknown,High, 99.4853, 0.0053, 53.6189, 73.6955,-472.8470,-38.5833, 52.6507,-17.6929
15-Mar-2018 17:32:28.057,-0.0015, 0.8885,-0.4259,-1.1029,-0.0717, 0.0282, 0.0247,-1.1012,-2.7346,44.567625,-123.274584,-2.2369, 266.5986, 242.266342,Unknown,High, 99.4853, 0.0053, 53.6189, 73.6955,-472.8470,-38.5470, 52.9881,-16.7390
15-Mar-2018 17:32:28.074, 0.0014, 0.8697,-0.4643,-1.0436,-0.1439, 0.0921, 0.0262,-1.1170,-2.7356,44.567625,-123.274584,-2.2369, 266.5986, 242.266342,Unknown,High, 99.4853, 0.0053, 53.6189, 73.6955,-472.8470,-38.5492, 53.0828,-16.4311
15-Mar-2018 17:32:28.078, 0.0014, 0.8697,-0.4643,-1.0436,-0.1439, 0.0921, 0.0262,-1.1170,-2.7356,44.567625,-123.274584,-2.2369, 266.5986, 242.266342,Unknown,High, 99.4853, 0.0053, 53.6189, 73.6955,-472.8470,-38.5492, 53.0828,-16.4311
15-Mar-2018 17:32:28.084,-0.0049, 0.8841,-0.4250,-0.9614,-0.3383, 0.1337, 0.0256,-1.1310,-2.7348,44.567625,-123.274584,-2.2369, 265.1790, 242.266342,Unknown,High, 99.4853, 0.0053, 55.0440, 74.4127,-471.4828,-38.5093, 53.3885,-15.5081
15-Mar-2018 17:32:28.094,-0.0104, 0.8889,-0.3889,-0.9365,-0.1703, 0.1643, 0.0270,-1.1445,-2.7372,44.567625,-123.274584,-2.2369, 265.1790, 242.266342,Unknown,High, 99.4853, 0.0053, 55.0440, 74.4127,-471.4828,-38.4823, 53.6771,-14.5495
15-Mar-2018 17:32:28.104,-0.0105, 0.8995,-0.3669,-0.9365,-0.1703, 0.1643, 0.0270,-1.1445,-2.7372,44.567625,-123.274584,-2.2369, 265.1790, 242.266342,Unknown,High, 99.4853, 0.0053, 55.0440, 74.4127,-471.4828,-38.4823, 53.6771,-14.5495
15-Mar-2018 17:32:28.121, 0.0221, 0.9682,-0.4073,-0.9639, 0.0969, 0.1580, 0.0334,-1.1583,-2.7390,44.567625,-123.274584,-2.2369, 265.1790, 242.266342,Unknown,High, 99.4853, 0.0053, 57.8942, 77.9989,-467.7315,-38.3891, 53.9398,-13.8051
15-Mar-2018 17:32:28.144,-0.0020, 0.9212,-0.3881,-0.8440,-0.2746, 0.1156, 0.0340,-1.1707,-2.7383,44.567625,-123.274584,-2.2369, 265.1790, 242.266342,Unknown,High, 99.4853, 0.0053, 57.8942, 77.9989,-467.7315,-38.3430, 54.0342,-13.5621
15-Mar-2018 17:32:28.147,-0.0020, 0.9212,-0.3881,-0.8440,-0.2746, 0.1156, 0.0340,-1.1707,-2.7383,44.567625,-123.274584,-2.2369, 263.5906, 242.266342,Unknown,High, 99.4853, 0.0053, 57.8942, 77.9989,-467.7315,-38.3430, 54.0342,-13.5621
15-Mar-2018 17:32:28.154,-0.0194, 0.9247,-0.3605,-0.8278,-0.2566, 0.1031, 0.0343,-1.1827,-2.7420,44.567625,-123.274584,-2.2369, 263.5906, 242.266342,Unknown,High, 99.4853, 0.0053, 57.8942, 77.9989,-467.7315,-38.2693, 54.3251,-12.5716
15-Mar-2018 17:32:28.163, 0.0036, 0.9290,-0.3481,-0.8108,-0.2099, 0.1025, 0.0351,-1.1944,-2.7410,44.567625,-123.274584,-2.2369, 263.5906, 242.266342,Unknown,High, 99.4853, 0.0053, 63.0601, 77.4610,-465.8558,-38.2601, 54.3946,-12.2962
15-Mar-2018 17:32:28.177, 0.0036, 0.9290,-0.3481,-0.8108,-0.2099, 0.1025, 0.0351,-1.1944,-2.7410,44.567625,-123.274584,-2.2369, 262.4152, 242.266342,Unknown,High, 99.4853, 0.0053, 63.0601, 77.4610,-465.8558,-38.2601, 54.3946,-12.2962
15-Mar-2018 17:32:28.181, 0.0026, 0.9332,-0.3466,-0.7950,-0.2204, 0.1123, 0.0365,-1.2058,-2.7442,44.567625,-123.274584,-2.2369, 262.4152, 242.266342,Unknown,High, 99.4853, 0.0053, 63.0601, 77.4610,-465.8558,-38.1796, 54.6603,-11.3303
15-Mar-2018 17:32:28.197, 0.0208, 0.9387,-0.3358,-0.7170,-0.5394, 0.2005, 0.0383,-1.2268,-2.7353,44.567625,-123.274584,-2.2369, 262.4152, 242.266342,Unknown,High, 99.4853, 0.0053, 63.0601, 77.4610,-465.8558,-38.0990, 54.9316,-10.2369
15-Mar-2018 17:32:28.201, 0.0103, 0.9485,-0.3210,-0.7170,-0.5394, 0.2005, 0.0383,-1.2268,-2.7353,44.567625,-123.274584,-2.2369, 262.4152, 242.266342,Unknown,High, 99.4853, 0.0053, 63.0601, 77.4610,-465.8558,-38.0990, 54.9316,-10.2369
15-Mar-2018 17:32:28.213, 0.0065, 0.9317,-0.3308,-0.6895,-0.6018, 0.2073, 0.0383,-1.2301,-2.7364,44.567625,-123.274584,-2.2369, 260.3564, 242.266342,Unknown,High, 99.4853, 0.0053, 65.9103, 79.9713,-463.8096,-38.0448, 55.0767,-9.6413
15-Mar-2018 17:32:28.223, 0.0068, 0.9279,-0.3338,-0.6657,-0.6437, 0.2418, 0.0388,-1.2364,-2.7331,44.567625,-123.274584,-2.2369, 260.3564, 242.266342,Unknown,High, 99.4853, 0.0053, 65.9103, 79.9713,-463.8096,-38.0184, 55.1475,-9.3359
15-Mar-2018 17:32:28.227, 0.0068, 0.9279,-0.3338,-0.6657,-0.6437, 0.2418, 0.0393,-1.2394,-2.7331,44.567625,-123.274584,-2.2369, 258.1890, 242.266342,Unknown,High, 99.4853, 0.0053, 65.9103, 79.9713,-463.8096,-37.9510, 55.2940,-8.7236
15-Mar-2018 17:32:28.238, 0.0034, 0.9353,-0.3267,-0.6657,-0.6437, 0.2418, 0.0393,-1.2394,-2.7331,44.567625,-123.274584,-2.2369, 258.1890, 242.266342,Unknown,High, 99.4853, 0.0053, 65.9103, 79.9713,-463.8096,-37.9510, 55.2940,-8.7236
15-Mar-2018 17:32:28.243, 0.0123, 0.9259,-0.3335,-0.6050,-0.6546, 0.2929, 0.0432,-1.2508,-2.7181,44.567625,-123.274584,-2.2369, 258.1890, 242.266342,Unknown,High, 99.4853, 0.0053, 70.7200, 80.5092,-460.9107,-37.9086, 55.3473,-8.5682
15-Mar-2018 17:32:28.257, 0.0128, 0.9581,-0.2933,-0.6050,-0.6546, 0.2929, 0.0432,-1.2508,-2.7181,44.567625,-123.274584,-2.2369, 254.8230, 242.266342,Unknown,High, 99.4853, 0.0053, 70.7200, 80.5092,-460.9107,-37.9086, 55.3473,-8.5682
