Timestamp,accelX,accelY,accelZ,gyroX(rad/s),gyroY(rad/s),gyroZ(rad/s),Roll(rads),Pitch(rads),Yaw(rads),Lat,Long,Speed(mph),TrueHeading,Alt(feet),ActivityType,ActivityConfidence,Pressure(kilopascals),RelativeAltitude(meters),magX(µT),magY(µT),magZ(µT),calMagX,calMagY,calMagZ
16-Mar-2018 09:25:07.651,-0.0006, 0.0180,-0.9880,-0.0307, 0.0529,-0.0079,-0.0015,-0.0195,-1.0571,44.567591,-123.274620, 0.0000, 0.7104, 244.844925,Stationary,High, 99.9477, 0.1348, 190.9617, 364.3535,-735.6156, 98.7613, 390.5406,-238.3475
16-Mar-2018 09:25:07.655,-0.0016, 0.0187,-0.9871,-0.0307, 0.0529,-0.0079,-0.0015,-0.0195,-1.0571,44.567591,-123.274620, 0.0000, 0.7104, 244.844925,Stationary,High, 99.9477, 0.1348, 190.9617, 364.3535,-735.6156, 98.7613, 390.5406,-238.3475
16-Mar-2018 09:25:07.661,-0.0016, 0.0187,-0.9871,-0.0317, 0.0528,-0.0079,-0.0016,-0.0192,-1.0562,44.567591,-123.274620, 0.0000, 0.7104, 244.844925,Stationary,High, 99.9477, 0.1348, 249.2121, 381.7463,-757.2714, 155.5015, 417.4967,-257.3853
16-Mar-2018 09:25:07.664,-0.0037, 0.0188,-0.9874,-0.0318, 0.0518,-0.0069,-0.0016,-0.0193,-1.0562,44.567591,-123.274620, 0.0000, 0.7104, 244.844925,Stationary,High, 99.9477, 0.1348, 249.2121, 381.7463,-757.2714, 155.5015, 417.4967,-257.3853
16-Mar-2018 09:25:07.673,-0.0004, 0.0193,-0.9879,-0.0318, 0.0518,-0.0069,-0.0016,-0.0193,-1.0562,44.567591,-123.274620, 0.0000, 0.7104, 244.844925,Stationary,High, 99.9477, 0.1348, 249.2121, 381.7463,-757.2714, 155.5015, 417.4967,-257.3853
16-Mar-2018 09:25:07.688,-0.0002, 0.0185,-0.9868,-0.0296, 0.0518,-0.0079,-0.0016,-0.0193,-1.0562,44.567591,-123.274620, 0.0000, 0.7104, 244.844925,Stationary,High, 99.9477, 0.1348, 250.2809, 372.4223,-770.2308, 155.5015, 417.4967,-257.3853
16-Mar-2018 09:25:07.701,-0.0019, 0.0178,-0.9850,-0.0307, 0.0518,-0.0068,-0.0016,-0.0193,-1.0562,44.567591,-123.274620, 0.0000, 0.7104, 244.839706,Stationary,High, 99.9477, 0.1348, 250.2809, 372.4223,-770.2308, 155.6657, 412.4543,-264.0756
16-Mar-2018 09:25:07.711,-0.0016, 0.0169,-0.9899,-0.0318, 0.0518,-0.0069,-0.0016,-0.0193,-1.0561,44.567591,-123.274620, 0.0000, 0.7104, 244.839706,Stationary,High, 99.9477, 0.1348, 250.2809, 372.4223,-770.2308, 155.6657, 412.4543,-264.0756
16-Mar-2018 09:25:07.714,-0.0002, 0.0186,-0.9861,-0.0318, 0.0518,-0.0069,-0.0016,-0.0193,-1.0561,44.567591,-123.274620, 0.0000, 0.7104, 244.839706,Stationary,High, 99.9477, 0.1348, 250.2809, 372.4223,-770.2308, 155.6657, 412.4543,-264.0756
16-Mar-2018 09:25:07.725,-0.0006, 0.0174,-0.9879,-0.0318, 0.0518,-0.0069,-0.0016,-0.0193,-1.0561,44.567591,-123.274620, 0.0000, 0.7104, 244.839706,Stationary,High, 99.9477, 0.1348, 254.0218, 344.6296,-774.1527, 155.6657, 412.4543,-264.0756
16-Mar-2018 09:25:07.735,-0.0005, 0.0182,-0.9881,-0.0307, 0.0518,-0.0068,-0.0016,-0.0192,-1.0561,44.567591,-123.274620, 0.0000, 0.7104, 244.839706,Stationary,High, 99.9477, 0.1348, 254.0218, 344.6296,-774.1527, 155.6657, 412.4543,-264.0756
16-Mar-2018 09:25:07.741,-0.0016, 0.0185,-0.9875,-0.0317, 0.0528,-0.0090,-0.0016,-0.0192,-1.0561,44.567591,-123.274620, 0.0000, 0.7104, 244.839706,Stationary,High, 99.9477, 0.1348, 254.0218, 344.6296,-774.1527, 155.6657, 412.4543,-264.0756
16-Mar-2018 09:25:07.755,-0.0014, 0.0183,-0.9901,-0.0328, 0.0518,-0.0069,-0.0016,-0.0193,-1.0561,44.567591,-123.274620, 0.0000, 352.9019, 244.839706,Stationary,High, 99.9477, 0.1348, 254.0218, 344.6296,-774.1527, 157.7373, 392.9377,-274.2130
16-Mar-2018 09:25:07.763,-0.0006, 0.0189,-0.9885,-0.0328, 0.0518,-0.0069,-0.0016,-0.0193,-1.0561,44.567591,-123.274620, 0.0000, 352.9019, 244.839706,Stationary,High, 99.9477, 0.1348, 254.5562, 305.7198,-775.0053, 157.7373, 392.9377,-274.2130
16-Mar-2018 09:25:07.780,-0.0012, 0.0194,-0.9877,-0.0318, 0.0529,-0.0069,-0.0016,-0.0193,-1.0561,44.567591,-123.274620, 0.0000, 352.9019, 244.839706,Stationary,High, 99.9477, 0.1348, 254.5562, 305.7198,-775.0053, 157.7373, 392.9377,-274.2130
16-Mar-2018 09:25:07.793, 0.0007, 0.0189,-0.9871,-0.0339, 0.0528,-0.0080,-0.0016,-0.0193,-1.0561,44.567591,-123.274620, 0.0000, 352.9019, 244.839706,Stationary,High, 99.9477, 0.1348, 254.5562, 305.7198,-775.0053, 157.7373, 392.9377,-274.2130
16-Mar-2018 09:25:07.796, 0.0007, 0.0189,-0.9871,-0.0339, 0.0528,-0.0080,-0.0016,-0.0193,-1.0561,44.567591,-123.274620, 0.0000, 352.9019, 244.839706,Stationary,High, 99.9477, 0.1348, 254.5562, 305.7198,-775.0053, 157.7373, 392.9377,-274.2130
16-Mar-2018 09:25:07.802,-0.0020, 0.0195,-0.9879,-0.0318, 0.0518,-0.0069,-0.0015,-0.0193,-1.0561,44.567591,-123.274620, 0.0000, 352.9019, 244.839706,Stationary,High, 99.9477, 0.1348, 247.2526, 272.1893,-767.3320, 157.7373, 392.9377,-274.2130
16-Mar-2018 09:25:07.813,-0.0017, 0.0190,-0.9877,-0.0296, 0.0529,-0.0068,-0.0015,-0.0193,-1.0561,44.567591,-123.274620, 0.0000, 352.9019, 244.839706,Stationary,High, 99.9477, 0.1348, 247.2526, 272.1893,-767.3320, 160.7974, 333.6385,-282.2675
16-Mar-2018 09:25:07.822,-0.0005, 0.0198,-0.9889,-0.0296, 0.0529,-0.0068,-0.0015,-0.0193,-1.0561,44.567591,-123.274620, 0.0000, 352.9019, 244.839706,Stationary,High, 99.9477, 0.1348, 247.2526, 272.1893,-767.3320, 160.7974, 333.6385,-282.2675
16-Mar-2018 09:25:07.840,-0.0036, 0.0190,-0.9866,-0.0328, 0.0529,-0.0069,-0.0015,-0.0194,-1.0561,44.567591,-123.274620, 0.0000, 352.9019, 244.839706,Stationary,High, 99.9477, 0.1348, 247.2526, 272.1893,-767.3320, 160.7974, 333.6385,-282.2675
16-Mar-2018 09:25:07.851,-0.0018, 0.0182,-0.9882,-0.0307, 0.0529,-0.0079,-0.0015,-0.0194,-1.0561,44.567591,-123.274620, 0.0000, 352.9019, 244.839706,Stationary,High, 99.9477, 0.1348, 236.0300, 244.7552,-755.2252, 160.7974, 333.6385,-282.2675
16-Mar-2018 09:25:07.857, 0.0003, 0.0175,-0.9863,-0.0318, 0.0518,-0.0058,-0.0015,-0.0194,-1.0561,44.567591,-123.274620, 0.0000, 352.9019, 244.839706,Stationary,High, 99.9477, 0.1348, 236.0300, 244.7552,-755.2252, 160.7974, 333.6385,-282.2675
16-Mar-2018 09:25:07.861,-0.0004, 0.0183,-0.9883,-0.0318, 0.0518,-0.0058,-0.0015,-0.0194,-1.0561,44.567591,-123.274620, 0.0000, 352.9019, 244.839706,Stationary,High, 99.9477, 0.1348, 236.0300, 244.7552,-755.2252, 160.7974, 333.6385,-282.2675
16-Mar-2018 09:25:07.873,-0.0012, 0.0189,-0.9883,-0.0317, 0.0518,-0.0079,-0.0015,-0.0194,-1.0561,44.567591,-123.274620, 0.0000, 352.9019, 244.839706,Stationary,High, 99.9477, 0.1348, 236.0300, 244.7552,-755.2252, 150.2645, 292.9183,-271.8843
16-Mar-2018 09:25:07.881,-0.0018, 0.0179,-0.9878,-0.0317, 0.0518,-0.0079,-0.0015,-0.0194,-1.0561,44.567591,-123.274620, 0.0000, 352.9019, 244.839706,Stationary,High, 99.9477, 0.1348, 226.5888, 228.4382,-741.4132, 150.2645, 292.9183,-271.8843
16-Mar-2018 09:25:07.890,-0.0016, 0.0189,-0.9885,-0.0328, 0.0528,-0.0079,-0.0015,-0.0194,-1.0561,44.567591,-123.274620, 0.0000, 352.9019, 244.839706,Stationary,High, 99.9477, 0.1348, 226.5888, 228.4382,-741.4132, 150.2645, 292.9183,-271.8843
16-Mar-2018 09:25:07.903,-0.0014, 0.0173,-0.9869,-0.0307, 0.0529,-0.0068,-0.0016,-0.0194,-1.0561,44.567591,-123.274620, 0.0000, 352.9019, 244.839706,Stationary,High, 99.9477, 0.1348, 226.5888, 228.4382,-741.4132, 150.2645, 292.9183,-271.8843
16-Mar-2018 09:25:07.910,-0.0020, 0.0182,-0.9864,-0.0307, 0.0518,-0.0068,-0.0016,-0.0193,-1.0561,44.567591,-123.274620, 0.0000, 352.9019, 244.839706,Stationary,High, 99.9477, 0.1348, 226.5888, 228.4382,-741.4132, 150.2645, 292.9183,-271.8843
16-Mar-2018 09:25:07.920,-0.0026, 0.0185,-0.9885,-0.0318, 0.0529,-0.0069,-0.0016,-0.0193,-1.0561,44.567591,-123.274620, 0.0000, 352.9019, 244.839706,Stationary,High, 99.9477, 0.1348, 226.5888, 228.4382,-741.4132, 150.2645, 292.9183,-271.8843
16-Mar-2018 09:25:07.932,-0.0020, 0.0173,-0.9864,-0.0318, 0.0539,-0.0069,-0.0016,-0.0193,-1.0561,44.567591,-123.274620, 0.0000, 346.9456, 244.839706,Stationary,High, 99.9477, 0.1348, 220.7104, 218.9348,-732.3757, 135.9709, 259.8321,-253.5213
16-Mar-2018 09:25:07.940,-0.0014, 0.0186,-0.9869,-0.0318, 0.0507,-0.0069,-0.0016,-0.0193,-1.0561,44.567591,-123.274620, 0.0000, 346.9456, 244.839706,Stationary,High, 99.9477, 0.1348, 220.7104, 218.9348,-732.3757, 135.9709, 259.8321,-253.5213
16-Mar-2018 09:25:07.950,-0.0039, 0.0193,-0.9898,-0.0307, 0.0518,-0.0058,-0.0016,-0.0193,-1.0561,44.567591,-123.274620, 0.0000, 346.9456, 244.839706,Stationary,High, 99.9477, 0.1348, 220.7104, 218.9348,-732.3757, 135.9709, 259.8321,-253.5213
16-Mar-2018 09:25:07.962,-0.0017, 0.0191,-0.9874,-0.0328, 0.0528,-0.0079,-0.0017,-0.0193,-1.0561,44.567591,-123.274620, 0.0000, 346.9456, 244.839706,Stationary,High, 99.9477, 0.1348, 220.7104, 218.9348,-732.3757, 135.9709, 259.8321,-253.5213
16-Mar-2018 09:25:07.969,-0.0010, 0.0191,-0.9888,-0.0317, 0.0518,-0.0079,-0.0017,-0.0193,-1.0561,44.567591,-123.274620, 0.0000, 346.9456, 244.839706,Stationary,High, 99.9477, 0.1348, 215.5444, 211.2246,-725.7255, 135.9709, 259.8321,-253.5213
16-Mar-2018 09:25:07.978,-0.0028, 0.0192,-0.9870,-0.0317, 0.0528,-0.0079,-0.0017,-0.0193,-1.0561,44.567591,-123.274620, 0.0000, 346.9456, 244.839706,Stationary,High, 99.9477, 0.1348, 215.5444, 211.2246,-725.7255, 135.9709, 259.8321,-253.5213
16-Mar-2018 09:25:07.992,-0.0011, 0.0187,-0.9880,-0.0317, 0.0518,-0.0079,-0.0018,-0.0193,-1.0561,44.567591,-123.274620, 0.0000, 346.9456, 244.839706,Stationary,High, 99.9477, 0.1348, 215.5444, 211.2246,-725.7255, 125.0552, 245.0004,-238.3355
16-Mar-2018 09:25:07.999,-0.0019, 0.0183,-0.9902,-0.0307, 0.0529,-0.0079,-0.0017,-0.0193,-1.0561,44.567591,-123.274620, 0.0000, 346.9456, 244.839706,Stationary,High, 99.9477, 0.1348, 215.5444, 211.2246,-725.7255, 125.0552, 245.0004,-238.3355
16-Mar-2018 09:25:08.009,-0.0007, 0.0182,-0.9878,-0.0307, 0.0529,-0.0079,-0.0018,-0.0193,-1.0561,44.567591,-123.274620, 0.0000, 346.9456, 244.839706,Stationary,High, 99.9477, 0.1348, 210.9129, 205.4868,-718.5638, 125.0552, 245.0004,-238.3355
16-Mar-2018 09:25:08.021,-0.0009, 0.0193,-0.9889,-0.0318, 0.0529,-0.0069,-0.0017,-0.0193,-1.0561,44.567591,-123.274620, 0.0000, 346.9456, 244.839706,Stationary,High, 99.9477, 0.1348, 210.9129, 205.4868,-718.5638, 125.0552, 245.0004,-238.3355
16-Mar-2018 09:25:08.028,-0.0021, 0.0178,-0.9863,-0.0307, 0.0518,-0.0079,-0.0017,-0.0193,-1.0561,44.567591,-123.274620, 0.0000, 346.9456, 244.839706,Stationary,High, 99.9477, 0.1348, 210.9129, 205.4868,-718.5638, 125.0552, 245.0004,-238.3355
16-Mar-2018 09:25:08.038, 0.0011, 0.0173,-0.9882,-0.0318, 0.0518,-0.0069,-0.0017,-0.0193,-1.0561,44.567591,-123.274620, 0.0000, 346.9456, 244.839706,Stationary,High, 99.9477, 0.1348, 210.9129, 205.4868,-718.5638, 125.0552, 245.0004,-238.3355
16-Mar-2018 09:25:08.051,-0.0008, 0.0183,-0.9868,-0.0318, 0.0507,-0.0069,-0.0017,-0.0192,-1.0561,44.567591,-123.274620, 0.0000, 346.9456, 244.839706,Stationary,High, 99.9477, 0.1348, 208.7753, 203.3351,-713.4482, 118.9300, 235.1185,-229.2792
16-Mar-2018 09:25:08.065,-0.0022, 0.0184,-0.9886,-0.0307, 0.0518,-0.0079,-0.0017,-0.0192,-1.0561,44.567591,-123.274620, 0.0000, 346.9456, 244.839706,Stationary,High, 99.9477, 0.1348, 208.7753, 203.3351,-713.4482, 118.9300, 235.1185,-229.2792
16-Mar-2018 09:25:08.070,-0.0005, 0.0186,-0.9895,-0.0296, 0.0518,-0.0079,-0.0017,-0.0192,-1.0561,44.567591,-123.274620, 0.0000, 346.9456, 244.839706,Stationary,High, 99.9477, 0.1348, 208.7753, 203.3351,-713.4482, 118.9300, 235.1185,-229.2792
16-Mar-2018 09:25:08.078,-0.0021, 0.0181,-0.9892,-0.0296, 0.0518,-0.0079,-0.0017,-0.0192,-1.0561,44.567591,-123.274620, 0.0000, 346.9456, 244.839706,Stationary,High, 99.9477, 0.1348, 208.7753, 203.3351,-713.4482, 118.9300, 235.1185,-229.2792
16-Mar-2018 09:25:08.092, 0.0008, 0.0185,-0.9876,-0.0318, 0.0507,-0.0069,-0.0017,-0.0192,-1.0561,44.567591,-123.274620, 0.0000, 346.9456, 244.839706,Stationary,High, 99.9477, 0.1348, 206.8158, 203.1557,-714.9829, 118.9300, 235.1185,-229.2792
16-Mar-2018 09:25:08.096,-0.0012, 0.0179,-0.9866,-0.0307, 0.0518,-0.0079,-0.0017,-0.0192,-1.0561,44.567591,-123.274620, 0.0000, 346.9456, 244.839706,Stationary,High, 99.9477, 0.1348, 206.8158, 203.1557,-714.9829, 118.9300, 235.1185,-229.2792
16-Mar-2018 09:25:08.107,-0.0008, 0.0189,-0.9890,-0.0307, 0.0518,-0.0079,-0.0017,-0.0192,-1.0561,44.567591,-123.274620, 0.0000, 346.9456, 244.839706,Stationary,High, 99.9477, 0.1348, 206.8158, 203.1557,-714.9829, 118.9300, 235.1185,-229.2792
16-Mar-2018 09:25:08.122,-0.0004, 0.0192,-0.9878,-0.0317, 0.0539,-0.0079,-0.0017,-0.0192,-1.0561,44.567591,-123.274620, 0.0000, 346.9456, 244.839706,Stationary,High, 99.9477, 0.1348, 206.8158, 203.1557,-714.9829, 115.6698, 232.1951,-223.7134
16-Mar-2018 09:25:08.128,-0.0004, 0.0186,-0.9856,-0.0317, 0.0518,-0.0079,-0.0017,-0.0192,-1.0561,44.567591,-123.274620, 0.0000, 348.1700, 244.839706,Stationary,High, 99.9477, 0.1348, 205.5688, 202.9764,-716.1765, 115.6698, 232.1951,-223.7134
16-Mar-2018 09:25:08.136,-0.0026, 0.0193,-0.9882,-0.0317, 0.0518,-0.0079,-0.0017,-0.0192,-1.0561,44.567591,-123.274620, 0.0000, 348.1700, 244.839706,Stationary,High, 99.9477, 0.1348, 205.5688, 202.9764,-716.1765, 115.6698, 232.1951,-223.7134
16-Mar-2018 09:25:08.152,-0.0005, 0.0192,-0.9879,-0.0317, 0.0528,-0.0079,-0.0017,-0.0193,-1.0561,44.567591,-123.274620, 0.0000, 348.1700, 244.839706,Stationary,High, 99.9477, 0.1348, 205.5688, 202.9764,-716.1765, 115.6698, 232.1951,-223.7134
16-Mar-2018 09:25:08.159,-0.0023, 0.0177,-0.9884,-0.0307, 0.0518,-0.0058,-0.0017,-0.0193,-1.0561,44.567591,-123.274620, 0.0000, 348.1700, 244.839706,Stationary,High, 99.9477, 0.1348, 205.5688, 202.9764,-716.1765, 115.6698, 232.1951,-223.7134
16-Mar-2018 09:25:08.166,-0.0013, 0.0184,-0.9858,-0.0307, 0.0518,-0.0058,-0.0017,-0.0193,-1.0561,44.567591,-123.274620, 0.0000, 348.1700, 244.839706,Stationary,High, 99.9477, 0.1348, 202.1842, 199.5696,-718.0522, 115.6698, 232.1951,-223.7134
16-Mar-2018 09:25:08.183,-0.0008, 0.0188,-0.9869,-0.0296, 0.0497,-0.0079,-0.0017,-0.0193,-1.0561,44.567591,-123.274620, 0.0000, 348.1700, 244.839706,Stationary,High, 99.9477, 0.1348, 202.1842, 199.5696,-718.0522, 111.7494, 230.8750,-223.4730
16-Mar-2018 09:25:08.187,-0.0016, 0.0192,-0.9895,-0.0318, 0.0518,-0.0069,-0.0018,-0.0193,-1.0561,44.567591,-123.274620, 0.0000, 348.1700, 244.839706,Stationary,High, 99.9477, 0.1348, 202.1842, 199.5696,-718.0522, 111.7494, 230.8750,-223.4730
16-Mar-2018 09:25:08.195,-0.0004, 0.0188,-0.9887,-0.0318, 0.0518,-0.0069,-0.0018,-0.0193,-1.0561,44.567591,-123.274620, 0.0000, 348.1700, 244.839706,Stationary,High, 99.9477, 0.1348, 202.1842, 199.5696,-718.0522, 111.7494, 230.8750,-223.4730
16-Mar-2018 09:25:08.214,-0.0017, 0.0171,-0.9891,-0.0328, 0.0518,-0.0079,-0.0018,-0.0193,-1.0561,44.567591,-123.274620, 0.0000, 348.1700, 244.839706,Stationary,High, 99.9477, 0.1348, 195.0588, 184.1491,-718.7343, 111.7494, 230.8750,-223.4730
16-Mar-2018 09:25:08.222,-0.0012, 0.0191,-0.9857,-0.0317, 0.0528,-0.0079,-0.0018,-0.0193,-1.0561,44.567591,-123.274620, 0.0000, 348.1700, 244.839706,Stationary,High, 99.9477, 0.1348, 195.0588, 184.1491,-718.7343, 111.7494, 230.8750,-223.4730
16-Mar-2018 09:25:08.225,-0.0010, 0.0184,-0.9892,-0.0317, 0.0528,-0.0079,-0.0018,-0.0193,-1.0561,44.567591,-123.274620, 0.0000, 348.1700, 244.839706,Stationary,High, 99.9477, 0.1348, 195.0588, 184.1491,-718.7343, 111.7494, 230.8750,-223.4730
16-Mar-2018 09:25:08.244,-0.0019, 0.0189,-0.9879,-0.0318, 0.0518,-0.0069,-0.0018,-0.0193,-1.0561,44.567591,-123.274620, 0.0000, 348.1700, 244.839706,Stationary,High, 99.9477, 0.1348, 195.0588, 184.1491,-718.7343, 111.7494, 230.8750,-223.4730
16-Mar-2018 09:25:08.250,-0.0013, 0.0183,-0.9859,-0.0318, 0.0529,-0.0069,-0.0018,-0.0193,-1.0560,44.567591,-123.274620, 0.0000, 348.1700, 244.839706,Stationary,High, 99.9477, 0.1348, 188.2896, 169.0873,-714.6418, 111.7494, 230.8750,-223.4730
16-Mar-2018 09:25:08.254,-0.0022, 0.0189,-0.9878,-0.0318, 0.0529,-0.0069,-0.0018,-0.0193,-1.0560,44.567591,-123.274620, 0.0000, 348.1700, 244.839706,Stationary,High, 99.9477, 0.1348, 188.2896, 169.0873,-714.6418, 111.7494, 230.8750,-223.4730
16-Mar-2018 09:25:08.264,-0.0011, 0.0191,-0.9879,-0.0318, 0.0529,-0.0069,-0.0018,-0.0193,-1.0560,44.567591,-123.274620, 0.0000, 348.1700, 244.839706,Stationary,High, 99.9477, 0.1348, 188.2896, 169.0873,-714.6418, 111.7494, 230.8750,-223.4730
16-Mar-2018 09:25:08.276, 0.0000, 0.0182,-0.9876,-0.0307, 0.0518,-0.0068,-0.0018,-0.0194,-1.0560,44.567591,-123.274620, 0.0000, 348.1700, 244.839706,Stationary,High, 99.9477, 0.1348, 188.2896, 169.0873,-714.6418, 103.0084, 214.3470,-224.2906
16-Mar-2018 09:25:08.285,-0.0017, 0.0187,-0.9886,-0.0339, 0.0529,-0.0069,-0.0017,-0.0194,-1.0560,44.567591,-123.274620, 0.0000, 348.1700, 244.839706,Stationary,High, 99.9477, 0.1348, 188.2896, 169.0873,-714.6418, 103.0084, 214.3470,-224.2906
16-Mar-2018 09:25:08.304,-0.0022, 0.0192,-0.9867,-0.0317, 0.0507,-0.0079,-0.0018,-0.0194,-1.0560,44.567591,-123.274620, 0.0000, 348.1700, 244.839706,Stationary,High, 99.9477, 0.1348, 181.6986, 157.7909,-710.0378, 90.0559, 187.4476,-218.6996
16-Mar-2018 09:25:08.311, 0.0004, 0.0173,-0.9878,-0.0317, 0.0518,-0.0079,-0.0018,-0.0194,-1.0560,44.567591,-123.274620, 0.0000, 348.1700, 244.839706,Stationary,High, 99.9477, 0.1348, 181.6986, 157.7909,-710.0378, 90.0559, 187.4476,-218.6996
16-Mar-2018 09:25:08.313,-0.0007, 0.0195,-0.9902,-0.0317, 0.0518,-0.0079,-0.0018,-0.0194,-1.0560,44.567591,-123.274620, 0.0000, 348.1700, 244.839706,Stationary,High, 99.9477, 0.1348, 181.6986, 157.7909,-710.0378, 90.0559, 187.4476,-218.6996
16-Mar-2018 09:25:08.323,-0.0007, 0.0190,-0.9874,-0.0317, 0.0518,-0.0079,-0.0018,-0.0194,-1.0560,44.567591,-123.274620, 0.0000, 348.1700, 244.839706,Stationary,High, 99.9477, 0.1348, 181.6986, 157.7909,-710.0378, 90.0559, 187.4476,-218.6996
16-Mar-2018 09:25:08.336,-0.0011, 0.0192,-0.9889,-0.0328, 0.0539,-0.0079,-0.0017,-0.0194,-1.0560,44.567591,-123.274620, 0.0000, 348.1700, 244.839706,Stationary,High, 99.9477, 0.1348, 177.7796, 144.5221,-704.5813, 90.0559, 187.4476,-218.6996
16-Mar-2018 09:25:08.345, 0.0002, 0.0195,-0.9886,-0.0317, 0.0539,-0.0079,-0.0017,-0.0194,-1.0560,44.567591,-123.274620, 0.0000, 348.1700, 244.839706,Stationary,High, 99.9477, 0.1348, 177.7796, 144.5221,-704.5813, 90.0559, 187.4476,-218.6996
16-Mar-2018 09:25:08.364,-0.0022, 0.0184,-0.9882,-0.0318, 0.0529,-0.0058,-0.0016,-0.0194,-1.0560,44.567591,-123.274620, 0.0000, 348.1700, 244.839706,Stationary,High, 99.9477, 0.1348, 177.7796, 144.5221,-704.5813, 89.1928, 183.7045,-216.8091
16-Mar-2018 09:25:08.367,-0.0022, 0.0184,-0.9882,-0.0318, 0.0529,-0.0058,-0.0016,-0.0194,-1.0560,44.567591,-123.274620, 0.0000, 348.1700, 244.839706,Stationary,High, 99.9477, 0.1348, 177.7796, 144.5221,-704.5813, 89.1928, 183.7045,-216.8091
16-Mar-2018 09:25:08.372,-0.0020, 0.0190,-0.9863,-0.0318, 0.0529,-0.0069,-0.0017,-0.0194,-1.0560,44.567591,-123.274620, 0.0000, 348.1700, 244.839706,Stationary,High, 99.9477, 0.1348, 169.0509, 136.4532,-700.6594, 89.1928, 183.7045,-216.8091
16-Mar-2018 09:25:08.384,-0.0022, 0.0193,-0.9882,-0.0318, 0.0529,-0.0069,-0.0017,-0.0194,-1.0560,44.567591,-123.274620, 0.0000, 348.1700, 244.839706,Stationary,High, 99.9477, 0.1348, 169.0509, 136.4532,-700.6594, 89.1928, 183.7045,-216.8091
16-Mar-2018 09:25:08.392,-0.0014, 0.0178,-0.9873,-0.0317, 0.0528,-0.0079,-0.0017,-0.0194,-1.0560,44.567591,-123.274620, 0.0000, 348.1700, 244.839706,Stationary,High, 99.9477, 0.1348, 169.0509, 136.4532,-700.6594, 89.1928, 183.7045,-216.8091
16-Mar-2018 09:25:08.405,-0.0013, 0.0169,-0.9882,-0.0307, 0.0529,-0.0079,-0.0017,-0.0194,-1.0560,44.567591,-123.274620, 0.0000, 348.1700, 244.839706,Stationary,High, 99.9477, 0.1348, 169.0509, 136.4532,-700.6594, 89.1928, 183.7045,-216.8091
16-Mar-2018 09:25:08.422,-0.0005, 0.0196,-0.9872,-0.0317, 0.0518,-0.0079,-0.0017,-0.0194,-1.0560,44.567591,-123.274620, 0.0000, 348.1700, 244.839706,Stationary,High, 99.9477, 0.1348, 145.8933, 119.2397,-698.9542, 79.1208, 164.6578,-209.6821
16-Mar-2018 09:25:08.425,-0.0005, 0.0196,-0.9872,-0.0317, 0.0518,-0.0079,-0.0017,-0.0194,-1.0560,44.567591,-123.274620, 0.0000, 348.1700, 244.839706,Stationary,High, 99.9477, 0.1348, 145.8933, 119.2397,-698.9542, 79.1208, 164.6578,-209.6821
16-Mar-2018 09:25:08.431, 0.0002, 0.0197,-0.9885,-0.0328, 0.0518,-0.0079,-0.0017,-0.0194,-1.0560,44.567591,-123.274620, 0.0000, 348.1700, 244.839706,Stationary,High, 99.9477, 0.1348, 145.8933, 119.2397,-698.9542, 79.1208, 164.6578,-209.6821
16-Mar-2018 09:25:08.441,-0.0006, 0.0181,-0.9893,-0.0328, 0.0518,-0.0079,-0.0017,-0.0194,-1.0560,44.567591,-123.274620, 0.0000, 348.1700, 244.839706,Stationary,High, 99.9477, 0.1348, 145.8933, 119.2397,-698.9542, 79.1208, 164.6578,-209.6821
16-Mar-2018 09:25:08.451,-0.0004, 0.0179,-0.9859,-0.0296, 0.0529,-0.0079,-0.0017,-0.0194,-1.0560,44.567591,-123.274620, 0.0000, 348.1700, 244.839706,Stationary,High, 99.9477, 0.1348, 121.1324, 104.3571,-690.9398, 79.1208, 164.6578,-209.6821
16-Mar-2018 09:25:08.461,-0.0030, 0.0194,-0.9860,-0.0307, 0.0518,-0.0068,-0.0017,-0.0193,-1.0560,44.567591,-123.274620, 0.0000, 348.1700, 244.839706,Stationary,High, 99.9477, 0.1348, 121.1324, 104.3571,-690.9398, 79.1208, 164.6578,-209.6821
16-Mar-2018 09:25:08.470,-0.0021, 0.0184,-0.9874,-0.0307, 0.0539,-0.0068,-0.0017,-0.0194,-1.0560,44.567591,-123.274620, 0.0000, 357.0867, 244.839706,Stationary,High, 99.9477, 0.1348, 121.1324, 104.3571,-690.9398, 44.2996, 141.7099,-206.2503
16-Mar-2018 09:25:08.480,-0.0010, 0.0183,-0.9847,-0.0328, 0.0528,-0.0079,-0.0017,-0.0194,-1.0560,44.567591,-123.274620, 0.0000, 357.0867, 244.839706,Stationary,High, 99.9477, 0.1348, 121.1324, 104.3571,-690.9398, 44.2996, 141.7099,-206.2503
16-Mar-2018 09:25:08.490,-0.0016, 0.0184,-0.9881,-0.0318, 0.0518,-0.0058,-0.0017,-0.0194,-1.0560,44.567591,-123.274620, 0.0000, 357.0867, 244.839706,Stationary,High, 99.9477, 0.1348, 150.7030, 106.5088,-685.8243, 44.2996, 141.7099,-206.2503
16-Mar-2018 09:25:08.500,-0.0016, 0.0182,-0.9868,-0.0317, 0.0528,-0.0079,-0.0017,-0.0194,-1.0560,44.567591,-123.274620, 0.0000, 357.0867, 244.839706,Stationary,High, 99.9477, 0.1348, 150.7030, 106.5088,-685.8243, 44.2996, 141.7099,-206.2503
16-Mar-2018 09:25:08.510,-0.0021, 0.0188,-0.9868,-0.0329, 0.0529,-0.0058,-0.0017,-0.0193,-1.0560,44.567591,-123.274620, 0.0000, 357.0867, 244.839706,Stationary,High, 99.9477, 0.1348, 150.7030, 106.5088,-685.8243, 44.2996, 141.7099,-206.2503
16-Mar-2018 09:25:08.520,-0.0008, 0.0185,-0.9885,-0.0318, 0.0507,-0.0069,-0.0017,-0.0193,-1.0560,44.567591,-123.274620, 0.0000, 357.0867, 244.839706,Stationary,High, 99.9477, 0.1348, 150.7030, 106.5088,-685.8243, 44.2996, 141.7099,-206.2503
16-Mar-2018 09:25:08.530,-0.0016, 0.0181,-0.9867,-0.0296, 0.0528,-0.0090,-0.0017,-0.0193,-1.0560,44.567591,-123.274620, 0.0000, 357.0867, 244.839706,Stationary,High, 99.9477, 0.1348, 155.6908, 100.4124,-676.2753, 50.1325, 133.6457,-193.1288
16-Mar-2018 09:25:08.539,-0.0028, 0.0177,-0.9890,-0.0307, 0.0518,-0.0079,-0.0017,-0.0193,-1.0560,44.567591,-123.274620, 0.0000, 357.0867, 244.839706,Stationary,High, 99.9477, 0.1348, 155.6908, 100.4124,-676.2753, 50.1325, 133.6457,-193.1288
16-Mar-2018 09:25:08.550,-0.0020, 0.0187,-0.9881,-0.0296, 0.0529,-0.0079,-0.0018,-0.0193,-1.0560,44.567591,-123.274620, 0.0000, 357.0867, 244.839706,Stationary,High, 99.9477, 0.1348, 155.6908, 100.4124,-676.2753, 50.1326, 133.6402,-193.1326
16-Mar-2018 09:25:08.559,-0.0030, 0.0200,-0.9861,-0.0307, 0.0518,-0.0079,-0.0018,-0.0193,-1.0560,44.567591,-123.274620, 0.0000, 353.8842, 244.839706,Stationary,High, 99.9477, 0.1348, 155.6908, 100.4124,-676.2753, 50.1240, 133.6313,-193.1410
16-Mar-2018 09:25:08.570,-0.0020, 0.0172,-0.9874,-0.0317, 0.0539,-0.0079,-0.0018,-0.0193,-1.0560,44.567591,-123.274620, 0.0000, 353.8842, 244.839706,Stationary,High, 99.9477, 0.1348, 153.0187, 91.6263,-672.6943, 50.1203, 133.6304,-193.1425
16-Mar-2018 09:25:08.578,-0.0012, 0.0187,-0.9876,-0.0328, 0.0529,-0.0069,-0.0018,-0.0193,-1.0560,44.567591,-123.274620, 0.0000, 353.8842, 244.839706,Stationary,High, 99.9477, 0.1348, 153.0187, 91.6263,-672.6943, 50.1203, 133.6304,-193.1425
16-Mar-2018 09:25:08.591,-0.0026, 0.0190,-0.9875,-0.0318, 0.0529,-0.0069,-0.0018,-0.0193,-1.0560,44.567591,-123.274620, 0.0000, 353.8842, 244.839706,Stationary,High, 99.9477, 0.1348, 153.0187, 91.6263,-672.6943, 50.1121, 133.6295,-193.1453
16-Mar-2018 09:25:08.599,-0.0012, 0.0190,-0.9875,-0.0317, 0.0528,-0.0079,-0.0018,-0.0193,-1.0560,44.567591,-123.274620, 0.0000, 353.8842, 244.839706,Stationary,High, 99.9477, 0.1348, 153.0187, 91.6263,-672.6943, 50.1121, 133.6295,-193.1453
16-Mar-2018 09:25:08.608,-0.0010, 0.0188,-0.9877,-0.0307, 0.0518,-0.0079,-0.0018,-0.0193,-1.0560,44.567591,-123.274620, 0.0000, 353.8842, 244.839706,Stationary,High, 99.9477, 0.1348, 153.0187, 91.6263,-672.6943, 50.1081, 133.6344,-193.1429
16-Mar-2018 09:25:08.621,-0.0009, 0.0176,-0.9867,-0.0307, 0.0529,-0.0068,-0.0018,-0.0193,-1.0560,44.567591,-123.274620, 0.0000, 353.8842, 244.839706,Stationary,High, 99.9477, 0.1348, 151.7718, 86.7850,-673.2059, 50.1077, 133.6357,-193.1421
16-Mar-2018 09:25:08.628,-0.0017, 0.0188,-0.9870,-0.0307, 0.0529,-0.0068,-0.0018,-0.0193,-1.0560,44.567591,-123.274620, 0.0000, 353.8842, 244.839706,Stationary,High, 99.9477, 0.1348, 151.7718, 86.7850,-673.2059, 50.1113, 133.6357,-193.1412
16-Mar-2018 09:25:08.638, 0.0003, 0.0177,-0.9875,-0.0328, 0.0518,-0.0079,-0.0018,-0.0193,-1.0560,44.567591,-123.274620, 0.0000, 353.8842, 244.839706,Stationary,High, 99.9477, 0.1348, 151.7718, 86.7850,-673.2059, 50.1128, 133.6299,-193.1448
16-Mar-2018 09:25:08.650,-0.0022, 0.0193,-0.9893,-0.0328, 0.0529,-0.0069,-0.0018,-0.0193,-1.0560,44.567591,-123.274620, 0.0000, 353.8842, 244.839706,Stationary,High, 99.9477, 0.1348, 151.7718, 86.7850,-673.2059, 50.1096, 133.6317,-193.1444
16-Mar-2018 09:25:08.658,-0.0010, 0.0196,-0.9863,-0.0307, 0.0529,-0.0079,-0.0018,-0.0193,-1.0560,44.567591,-123.274620, 0.0000, 353.8842, 244.839706,Stationary,High, 99.9495, 0.0000, 158.3628, 90.5504,-678.1509, 50.1160, 133.6303,-193.1438
16-Mar-2018 09:25:08.667,-0.0020, 0.0188,-0.9846,-0.0318, 0.0550,-0.0069,-0.0018,-0.0193,-1.0560,44.567591,-123.274620, 0.0000, 353.8842, 244.839706,Stationary,High, 99.9495, 0.0000, 158.3628, 90.5504,-678.1509, 50.1133, 133.6339,-193.1420
16-Mar-2018 09:25:08.680,-0.0005, 0.0185,-0.9889,-0.0307, 0.0518,-0.0068,-0.0018,-0.0193,-1.0560,44.567591,-123.274620, 0.0000, 353.8842, 244.839706,Stationary,High, 99.9495, 0.0000, 158.3628, 90.5504,-678.1509, 50.1183, 133.6380,-193.1378
16-Mar-2018 09:25:08.693,-0.0004, 0.0184,-0.9890,-0.0328, 0.0518,-0.0079,-0.0018,-0.0193,-1.0560,44.567591,-123.274620, 0.0000, 353.8842, 244.839706,Stationary,High, 99.9495, 0.0000, 158.3628, 90.5504,-678.1509, 50.1157, 133.6396,-193.1373
16-Mar-2018 09:25:08.697,-0.0016, 0.0191,-0.9879,-0.0317, 0.0518,-0.0090,-0.0018,-0.0193,-1.0560,44.567591,-123.274620, 0.0000, 353.8842, 244.839706,Stationary,High, 99.9495, 0.0000, 161.2130, 92.3435,-680.8793, 50.1172, 133.6405,-193.1364
16-Mar-2018 09:25:08.709,-0.0032, 0.0196,-0.9887,-0.0317, 0.0518,-0.0090,-0.0018,-0.0193,-1.0560,44.567591,-123.274620, 0.0000, 353.8842, 244.839706,Stationary,High, 99.9495, 0.0000, 161.2130, 92.3435,-680.8793, 50.1172, 133.6405,-193.1364
16-Mar-2018 09:25:08.720,-0.0022, 0.0191,-0.9888,-0.0318, 0.0550,-0.0069,-0.0018,-0.0193,-1.0560,44.567591,-123.274620, 0.0000, 353.8842, 244.839706,Stationary,High, 99.9495, 0.0000, 161.2130, 92.3435,-680.8793, 50.1172, 133.6408,-193.1362
16-Mar-2018 09:25:08.726,-0.0019, 0.0177,-0.9874,-0.0318, 0.0507,-0.0069,-0.0019,-0.0194,-1.0560,44.567591,-123.274620, 0.0000, 353.8842, 244.839706,Stationary,High, 99.9495, 0.0000, 161.2130, 92.3435,-680.8793, 50.1132, 133.6453,-193.1341
16-Mar-2018 09:25:08.736, 0.0000, 0.0187,-0.9873,-0.0318, 0.0507,-0.0069,-0.0019,-0.0194,-1.0560,44.567591,-123.274620, 0.0000, 352.8786, 244.839706,Stationary,High, 99.9495, 0.0000, 158.7191, 91.6263,-681.9023, 50.1132, 133.6453,-193.1341
16-Mar-2018 09:25:08.750,-0.0017, 0.0181,-0.9880,-0.0307, 0.0518,-0.0079,-0.0018,-0.0193,-1.0560,44.567591,-123.274620, 0.0000, 352.8786, 244.839706,Stationary,High, 99.9495, 0.0000, 158.7191, 91.6263,-681.9023, 50.1041, 133.6483,-193.1344
16-Mar-2018 09:25:08.755,-0.0008, 0.0186,-0.9878,-0.0297, 0.0518,-0.0058,-0.0019,-0.0193,-1.0560,44.567591,-123.274620, 0.0000, 352.8786, 244.839706,Stationary,High, 99.9495, 0.0000, 158.7191, 91.6263,-681.9023, 50.1104, 133.6478,-193.1331
16-Mar-2018 09:25:08.766, 0.0005, 0.0190,-0.9871,-0.0297, 0.0518,-0.0058,-0.0019,-0.0193,-1.0560,44.567591,-123.274620, 0.0000, 352.8786, 244.839706,Stationary,High, 99.9495, 0.0000, 158.7191, 91.6263,-681.9023, 50.1104, 133.6478,-193.1331
16-Mar-2018 09:25:08.780,-0.0001, 0.0183,-0.9886,-0.0318, 0.0518,-0.0069,-0.0018,-0.0194,-1.0560,44.567591,-123.274620, 0.0000, 352.8786, 244.839706,Stationary,High, 99.9495, 0.0000, 157.8284, 94.6745,-686.8474, 50.1070, 133.6456,-193.1355
16-Mar-2018 09:25:08.786,-0.0030, 0.0186,-0.9879,-0.0328, 0.0518,-0.0069,-0.0018,-0.0194,-1.0560,44.567591,-123.274620, 0.0000, 352.8786, 244.839706,Stationary,High, 99.9495, 0.0000, 157.8284, 94.6745,-686.8474, 50.1160, 133.6474,-193.1319
16-Mar-2018 09:25:08.795,-0.0022, 0.0191,-0.9874,-0.0328, 0.0518,-0.0069,-0.0018,-0.0194,-1.0560,44.567591,-123.274620, 0.0000, 352.8786, 244.839706,Stationary,High, 99.9495, 0.0000, 157.8284, 94.6745,-686.8474, 50.1160, 133.6474,-193.1319
16-Mar-2018 09:25:08.807,-0.0020, 0.0194,-0.9867,-0.0328, 0.0528,-0.0090,-0.0019,-0.0194,-1.0560,44.567591,-123.274620, 0.0000, 352.8786, 244.839706,Stationary,High, 99.9495, 0.0000, 157.8284, 94.6745,-686.8474, 50.1104, 133.6534,-193.1292
16-Mar-2018 09:25:08.816,-0.0024, 0.0195,-0.9860,-0.0307, 0.0518,-0.0079,-0.0019,-0.0194,-1.0560,44.567591,-123.274620, 0.0000, 352.8786, 244.839706,Stationary,High, 99.9495, 0.0000, 156.9377, 97.3641,-689.0641, 50.1068, 133.6571,-193.1276
16-Mar-2018 09:25:08.825,-0.0005, 0.0194,-0.9874,-0.0307, 0.0518,-0.0079,-0.0019,-0.0194,-1.0560,44.567591,-123.274620, 0.0000, 352.8786, 244.839706,Stationary,High, 99.9495, 0.0000, 156.9377, 97.3641,-689.0641, 50.1068, 133.6571,-193.1276
16-Mar-2018 09:25:08.841,-0.0002, 0.0185,-0.9881,-0.0307, 0.0507,-0.0079,-0.0019,-0.0195,-1.0560,44.567591,-123.274620, 0.0000, 352.8786, 244.839706,Stationary,High, 99.9495, 0.0000, 156.9377, 97.3641,-689.0641, 50.1012, 133.6621,-193.1255
16-Mar-2018 09:25:08.846,-0.0022, 0.0178,-0.9877,-0.0307, 0.0507,-0.0068,-0.0019,-0.0194,-1.0560,44.567591,-123.274620, 0.0000, 352.8786, 244.839706,Stationary,High, 99.9495, 0.0000, 156.9377, 97.3641,-689.0641, 50.1060, 133.6649,-193.1223
16-Mar-2018 09:25:08.854,-0.0023, 0.0195,-0.9876,-0.0307, 0.0507,-0.0068,-0.0019,-0.0194,-1.0560,44.567591,-123.274620, 0.0000, 352.8786, 244.839706,Stationary,High, 99.9495, 0.0000, 160.3223, 103.6399,-698.4426, 50.1060, 133.6649,-193.1223
16-Mar-2018 09:25:08.864,-0.0017, 0.0176,-0.9871,-0.0318, 0.0529,-0.0069,-0.0019,-0.0195,-1.0559,44.567591,-123.274620, 0.0000, 352.8786, 244.839706,Stationary,High, 99.9495, 0.0000, 160.3223, 103.6399,-698.4426, 50.0984, 133.6648,-193.1244
16-Mar-2018 09:25:08.874,-0.0013, 0.0181,-0.9865,-0.0307, 0.0518,-0.0058,-0.0019,-0.0195,-1.0559,44.567591,-123.274620, 0.0000, 352.8786, 244.839706,Stationary,High, 99.9495, 0.0000, 160.3223, 103.6399,-698.4426, 50.0952, 133.6698,-193.1218
16-Mar-2018 09:25:08.883,-0.0028, 0.0186,-0.9889,-0.0307, 0.0529,-0.0068,-0.0019,-0.0195,-1.0559,44.567591,-123.274620, 0.0000, 352.8786, 244.839706,Stationary,High, 99.9495, 0.0000, 160.3223, 103.6399,-698.4426, 50.0952, 133.6698,-193.1218
16-Mar-2018 09:25:08.902,-0.0024, 0.0173,-0.9879,-0.0318, 0.0518,-0.0069,-0.0020,-0.0194,-1.0559,44.567591,-123.274620, 0.0000, 352.8786, 244.839706,Stationary,High, 99.9495, 0.0000, 166.3789, 105.0744,-707.3096, 50.0988, 133.6657,-193.1237
16-Mar-2018 09:25:08.906,-0.0015, 0.0189,-0.9881,-0.0318, 0.0518,-0.0069,-0.0020,-0.0195,-1.0559,44.567591,-123.274620, 0.0000, 352.8786, 244.839706,Stationary,High, 99.9495, 0.0000, 166.3789, 105.0744,-707.3096, 50.0928, 133.6634,-193.1268
16-Mar-2018 09:25:08.913,-0.0018, 0.0183,-0.9881,-0.0318, 0.0518,-0.0069,-0.0020,-0.0195,-1.0559,44.567591,-123.274620, 0.0000, 352.8786, 244.839706,Stationary,High, 99.9495, 0.0000, 166.3789, 105.0744,-707.3096, 50.0928, 133.6634,-193.1268
16-Mar-2018 09:25:08.924,-0.0040, 0.0170,-0.9906,-0.0318, 0.0539,-0.0069,-0.0020,-0.0194,-1.0559,44.567591,-123.274620, 0.0000, 351.7466, 244.839706,Stationary,High, 99.9495, 0.0000, 166.3789, 105.0744,-707.3096, 50.0903, 133.6664,-193.1254
16-Mar-2018 09:25:08.934,-0.0019, 0.0186,-0.9863,-0.0328, 0.0528,-0.0079,-0.0020,-0.0195,-1.0559,44.567591,-123.274620, 0.0000, 351.7466, 244.839706,Stationary,High, 99.9495, 0.0000, 171.3667, 98.2607,-710.7199, 50.0917, 133.6624,-193.1278
16-Mar-2018 09:25:08.943,-0.0009, 0.0185,-0.9884,-0.0317, 0.0518,-0.0090,-0.0020,-0.0195,-1.0559,44.567591,-123.274620, 0.0000, 351.7466, 244.839706,Stationary,High, 99.9495, 0.0000, 171.3667, 98.2607,-710.7199, 50.0917, 133.6624,-193.1278
16-Mar-2018 09:25:08.957, 0.0013, 0.0180,-0.9859,-0.0328, 0.0529,-0.0069,-0.0020,-0.0195,-1.0559,44.567591,-123.274620, 0.0000, 351.7466, 244.839706,Stationary,High, 99.9495, 0.0000, 171.3667, 98.2607,-710.7199, 50.0860, 133.6645,-193.1278
16-Mar-2018 09:25:08.969, 0.0003, 0.0186,-0.9870,-0.0318, 0.0529,-0.0069,-0.0020,-0.0195,-1.0559,44.567591,-123.274620, 0.0000, 351.7466, 244.839706,Stationary,High, 99.9495, 0.0000, 171.3667, 98.2607,-710.7199, 50.0894, 133.6636,-193.1276
16-Mar-2018 09:25:08.973,-0.0023, 0.0177,-0.9888,-0.0318, 0.0529,-0.0069,-0.0020,-0.0195,-1.0559,44.567591,-123.274620, 0.0000, 351.7466, 244.839706,Stationary,High, 99.9495, 0.0000, 171.3667, 98.2607,-710.7199, 50.0894, 133.6636,-193.1276
16-Mar-2018 09:25:08.982,-0.0021, 0.0190,-0.9863,-0.0318, 0.0529,-0.0069,-0.0020,-0.0195,-1.0559,44.567591,-123.274620, 0.0000, 351.7466, 244.839706,Stationary,High, 99.9495, 0.0000, 179.7391, 86.2471,-713.6188, 50.0894, 133.6636,-193.1276
16-Mar-2018 09:25:08.994,-0.0015, 0.0197,-0.9868,-0.0328, 0.0518,-0.0079,-0.0020,-0.0194,-1.0559,44.567591,-123.274620, 0.0000, 351.7466, 244.839706,Stationary,High, 99.9495, 0.0000, 179.7391, 86.2471,-713.6188, 50.0867, 133.6664,-193.1264
16-Mar-2018 09:25:09.001,-0.0015, 0.0183,-0.9872,-0.0349, 0.0550,-0.0080,-0.0020,-0.0195,-1.0559,44.567591,-123.274620, 0.0000, 351.7466, 244.839706,Stationary,High, 99.9495, 0.0000, 179.7391, 86.2471,-713.6188, 50.0810, 133.6593,-193.1328
16-Mar-2018 09:25:09.012,-0.0013, 0.0180,-0.9895,-0.0318, 0.0518,-0.0069,-0.0020,-0.0195,-1.0559,44.567591,-123.274620, 0.0000, 351.7466, 244.839706,Stationary,High, 99.9495, 0.0000, 179.7391, 86.2471,-713.6188, 50.0826, 133.6684,-193.1260
16-Mar-2018 09:25:09.021,-0.0038, 0.0177,-0.9879,-0.0318, 0.0518,-0.0069,-0.0020,-0.0195,-1.0559,44.567591,-123.274620, 0.0000, 351.7466, 244.839706,Stationary,High, 99.9495, 0.0000, 187.7552, 77.8196,-717.5406, 50.0826, 133.6684,-193.1260
16-Mar-2018 09:25:09.031,-0.0018, 0.0183,-0.9881,-0.0318, 0.0529,-0.0069,-0.0021,-0.0194,-1.0559,44.567591,-123.274620, 0.0000, 351.7466, 244.839706,Stationary,High, 99.9495, 0.0000, 187.7552, 77.8196,-717.5406, 50.0836, 133.6664,-193.1271
16-Mar-2018 09:25:09.041,-0.0016, 0.0192,-0.9871,-0.0318, 0.0529,-0.0069,-0.0021,-0.0194,-1.0559,44.567591,-123.274620, 0.0000, 350.6388, 244.839706,Stationary,High, 99.9495, 0.0000, 187.7552, 77.8196,-717.5406, 50.0836, 133.6664,-193.1271
16-Mar-2018 09:25:09.050,-0.0014, 0.0188,-0.9880,-0.0317, 0.0528,-0.0079,-0.0021,-0.0194,-1.0559,44.567591,-123.274620, 0.0000, 350.6388, 244.839706,Stationary,High, 99.9495, 0.0000, 187.7552, 77.8196,-717.5406, 50.0705, 133.6623,-193.1333
16-Mar-2018 09:25:09.060,-0.0016, 0.0174,-0.9865,-0.0307, 0.0529,-0.0068,-0.0021,-0.0194,-1.0559,44.567591,-123.274620, 0.0000, 350.6388, 244.839706,Stationary,High, 99.9495, 0.0000, 195.2369, 64.5508,-723.6793, 50.0744, 133.6577,-193.1355
16-Mar-2018 09:25:09.070, 0.0006, 0.0180,-0.9875,-0.0307, 0.0529,-0.0068,-0.0021,-0.0194,-1.0559,44.567591,-123.274620, 0.0000, 350.6388, 244.839706,Stationary,High, 99.9495, 0.0000, 195.2369, 64.5508,-723.6793, 50.0744, 133.6577,-193.1355
16-Mar-2018 09:25:09.082, 0.0001, 0.0185,-0.9868,-0.0318, 0.0518,-0.0069,-0.0020,-0.0194,-1.0559,44.567591,-123.274620, 0.0000, 350.6388, 244.814484,Stationary,High, 99.9495, 0.0000, 195.2369, 64.5508,-723.6793, 50.0766, 133.6583,-193.1346
16-Mar-2018 09:25:09.090,-0.0031, 0.0189,-0.9869,-0.0307, 0.0507,-0.0068,-0.0020,-0.0194,-1.0559,44.567591,-123.274620, 0.0000, 350.6388, 244.814484,Stationary,High, 99.9495, 0.0000, 195.2369, 64.5508,-723.6793, 50.0899, 133.6539,-193.1342
16-Mar-2018 09:25:09.099,-0.0009, 0.0175,-0.9892,-0.0307, 0.0507,-0.0068,-0.0020,-0.0194,-1.0559,44.567591,-123.274620, 0.0000, 349.5319, 244.814484,Stationary,High, 99.9495, 0.0000, 200.7591, 56.1233,-732.3757, 50.0899, 133.6539,-193.1342
16-Mar-2018 09:25:09.112,-0.0018, 0.0179,-0.9888,-0.0317, 0.0518,-0.0079,-0.0020,-0.0194,-1.0559,44.567591,-123.274620, 0.0000, 349.5319, 244.814484,Stationary,High, 99.9495, 0.0000, 200.7591, 56.1233,-732.3757, 50.0934, 133.6477,-193.1375
16-Mar-2018 09:25:09.119,-0.0011, 0.0186,-0.9875,-0.0307, 0.0507,-0.0068,-0.0020,-0.0193,-1.0558,44.567591,-123.274620, 0.0000, 349.5319, 244.814484,Stationary,High, 99.9495, 0.0000, 200.7591, 56.1233,-732.3757, 50.0960, 133.6416,-193.1411
16-Mar-2018 09:25:09.129,-0.0005, 0.0169,-0.9870,-0.0307, 0.0507,-0.0068,-0.0020,-0.0193,-1.0558,44.567591,-123.274620, 0.0000, 349.5319, 244.814484,Stationary,High, 99.9495, 0.0000, 200.7591, 56.1233,-732.3757, 50.0960, 133.6416,-193.1411
16-Mar-2018 09:25:09.142,-0.0005, 0.0181,-0.9891,-0.0318, 0.0529,-0.0069,-0.0020,-0.0193,-1.0558,44.567591,-123.274620, 0.0000, 349.5319, 244.814484,Stationary,High, 99.9495, 0.0000, 205.9251, 49.4890,-740.7311, 50.0923, 133.6401,-193.1431
16-Mar-2018 09:25:09.149,-0.0028, 0.0187,-0.9868,-0.0307, 0.0518,-0.0079,-0.0020,-0.0193,-1.0558,44.567591,-123.274620, 0.0000, 349.5319, 244.814484,Stationary,High, 99.9495, 0.0000, 205.9251, 49.4890,-740.7311, 50.0987, 133.6293,-193.1489
16-Mar-2018 09:25:09.160,-0.0016, 0.0185,-0.9883,-0.0307, 0.0518,-0.0079,-0.0020,-0.0193,-1.0558,44.567591,-123.274620, 0.0000, 348.0373, 244.814484,Stationary,High, 99.9495, 0.0000, 205.9251, 49.4890,-740.7311, 50.0987, 133.6293,-193.1489
16-Mar-2018 09:25:09.163,-0.0018, 0.0196,-0.9890,-0.0296, 0.0539,-0.0068,-0.0020,-0.0193,-1.0558,44.567591,-123.274620, 0.0000, 348.0373, 244.814484,Stationary,High, 99.9495, 0.0000, 205.9251, 49.4890,-740.7311, 50.1023, 133.6262,-193.1501
16-Mar-2018 09:25:09.171,-0.0025, 0.0182,-0.9891,-0.0296, 0.0539,-0.0068,-0.0020,-0.0193,-1.0558,44.567591,-123.274620, 0.0000, 348.0373, 244.814484,Stationary,High, 99.9495, 0.0000, 205.9251, 49.4890,-740.7311, 50.1023, 133.6262,-193.1501
16-Mar-2018 09:25:09.181,-0.0014, 0.0189,-0.9880,-0.0349, 0.0539,-0.0080,-0.0020,-0.0193,-1.0558,44.567591,-123.274620, 0.0000, 348.0373, 244.814484,Stationary,High, 99.9495, 0.0000, 212.5161, 42.8546,-752.8380, 50.1054, 133.6236,-193.1511
16-Mar-2018 09:25:09.190,-0.0027, 0.0196,-0.9868,-0.0349, 0.0539,-0.0080,-0.0020,-0.0193,-1.0558,44.567591,-123.274620, 0.0000, 348.0373, 244.814484,Stationary,High, 99.9495, 0.0000, 212.5161, 42.8546,-752.8380, 50.1054, 133.6236,-193.1511
16-Mar-2018 09:25:09.201,-0.0018, 0.0187,-0.9890,-0.0296, 0.0529,-0.0079,-0.0020,-0.0193,-1.0558,44.567591,-123.274620, 0.0000, 348.0373, 244.814484,Stationary,High, 99.9495, 0.0000, 212.5161, 42.8546,-752.8380, 50.1049, 133.6342,-193.1439
16-Mar-2018 09:25:09.210,-0.0031, 0.0189,-0.9874,-0.0317, 0.0528,-0.0079,-0.0020,-0.0193,-1.0558,44.567591,-123.274620, 0.0000, 348.0373, 244.814484,Stationary,High, 99.9495, 0.0000, 212.5161, 42.8546,-752.8380, 50.1015, 133.6364,-193.1433
16-Mar-2018 09:25:09.220,-0.0007, 0.0183,-0.9881,-0.0317, 0.0528,-0.0079,-0.0020,-0.0193,-1.0558,44.567591,-123.274620, 0.0000, 346.2336, 244.814484,Stationary,High, 99.9495, 0.0000, 219.9978, 39.9856,-759.3176, 50.1015, 133.6364,-193.1433
16-Mar-2018 09:25:09.232,-0.0026, 0.0187,-0.9872,-0.0286, 0.0507,-0.0068,-0.0020,-0.0193,-1.0558,44.567591,-123.274620, 0.0000, 346.2336, 244.814484,Stationary,High, 99.9495, 0.0000, 219.9978, 39.9856,-759.3176, 50.0953, 133.6351,-193.1458
16-Mar-2018 09:25:09.238,-0.0006, 0.0177,-0.9910,-0.0318, 0.0550,-0.0069,-0.0021,-0.0193,-1.0558,44.567591,-123.274620, 0.0000, 346.2336, 244.814484,Stationary,High, 99.9495, 0.0000, 219.9978, 39.9856,-759.3176, 50.0953, 133.6351,-193.1458
16-Mar-2018 09:25:09.249,-0.0007, 0.0184,-0.9853,-0.0318, 0.0550,-0.0069,-0.0021,-0.0193,-1.0558,44.567591,-123.274620, 0.0000, 346.2336, 244.814484,Stationary,High, 99.9495, 0.0000, 219.9978, 39.9856,-759.3176, 50.0953, 133.6351,-193.1458
16-Mar-2018 09:25:09.262,-0.0003, 0.0181,-0.9883,-0.0307, 0.0518,-0.0068,-0.0020,-0.0193,-1.0558,44.567591,-123.274620, 0.0000, 346.2336, 244.814484,Stationary,High, 99.9495, 0.0000, 226.0544, 43.9304,-766.8204, 50.0883, 133.6311,-193.1503
16-Mar-2018 09:25:09.269,-0.0010, 0.0176,-0.9881,-0.0328, 0.0528,-0.0090,-0.0020,-0.0193,-1.0558,44.567591,-123.274620, 0.0000, 346.2336, 244.814484,Stationary,High, 99.9495, 0.0000, 226.0544, 43.9304,-766.8204, 50.0883, 133.6311,-193.1503
16-Mar-2018 09:25:09.279,-0.0011, 0.0189,-0.9890,-0.0328, 0.0528,-0.0090,-0.0020,-0.0193,-1.0558,44.567591,-123.274620, 0.0000, 344.2479, 244.814484,Stationary,High, 99.9495, 0.0000, 226.0544, 43.9304,-766.8204, 50.0883, 133.6311,-193.1503
16-Mar-2018 09:25:09.292,-0.0019, 0.0184,-0.9880,-0.0317, 0.0518,-0.0079,-0.0020,-0.0192,-1.0558,44.567591,-123.274620, 0.0000, 344.2479, 244.814484,Stationary,High, 99.9495, 0.0000, 226.0544, 43.9304,-766.8204, 50.1072, 133.6212,-193.1523
16-Mar-2018 09:25:09.299,-0.0010, 0.0183,-0.9877,-0.0307, 0.0529,-0.0068,-0.0020,-0.0192,-1.0558,44.567591,-123.274620, 0.0000, 344.2479, 244.814484,Stationary,High, 99.9495, 0.0000, 230.6860, 50.0269,-775.6874, 50.1072, 133.6212,-193.1523
16-Mar-2018 09:25:09.309,-0.0026, 0.0193,-0.9865,-0.0307, 0.0529,-0.0068,-0.0020,-0.0192,-1.0558,44.567591,-123.274620, 0.0000, 344.2479, 244.814484,Stationary,High, 99.9495, 0.0000, 230.6860, 50.0269,-775.6874, 50.1072, 133.6212,-193.1523
16-Mar-2018 09:25:09.318, 0.0006, 0.0174,-0.9871,-0.0307, 0.0529,-0.0068,-0.0020,-0.0192,-1.0558,44.567591,-123.274620, 0.0000, 344.2479, 244.814484,Stationary,High, 99.9495, 0.0000, 230.6860, 50.0269,-775.6874, 50.1090, 133.6167,-193.1550
16-Mar-2018 09:25:09.328,-0.0016, 0.0182,-0.9868,-0.0307, 0.0529,-0.0068,-0.0019,-0.0192,-1.0558,44.567591,-123.274620, 0.0000, 344.2479, 244.814484,Stationary,High, 99.9495, 0.0000, 230.6860, 50.0269,-775.6874, 50.1107, 133.6136,-193.1567
16-Mar-2018 09:25:09.339,-0.0018, 0.0177,-0.9904,-0.0307, 0.0529,-0.0068,-0.0019,-0.0192,-1.0558,44.567591,-123.274620, 0.0000, 342.3059, 244.814484,Stationary,High, 99.9495, 0.0000, 232.8236, 53.6130,-783.1902, 50.1107, 133.6136,-193.1567
16-Mar-2018 09:25:09.352,-0.0027, 0.0184,-0.9880,-0.0317, 0.0539,-0.0079,-0.0019,-0.0192,-1.0558,44.567591,-123.274620, 0.0000, 342.3059, 244.814484,Stationary,High, 99.9495, 0.0000, 232.8236, 53.6130,-783.1902, 50.1172, 133.6104,-193.1572
16-Mar-2018 09:25:09.358,-0.0020, 0.0186,-0.9879,-0.0318, 0.0497,-0.0069,-0.0020,-0.0192,-1.0558,44.567591,-123.274620, 0.0000, 342.3059, 244.814484,Stationary,High, 99.9495, 0.0000, 232.8236, 53.6130,-783.1902, 50.1172, 133.6104,-193.1572
16-Mar-2018 09:25:09.369,-0.0009, 0.0190,-0.9868,-0.0318, 0.0497,-0.0069,-0.0020,-0.0192,-1.0558,44.567591,-123.274620, 0.0000, 342.3059, 244.814484,Stationary,High, 99.9495, 0.0000, 232.8236, 53.6130,-783.1902, 50.1172, 133.6104,-193.1572
16-Mar-2018 09:25:09.382, 0.0007, 0.0179,-0.9886,-0.0307, 0.0529,-0.0079,-0.0020,-0.0192,-1.0558,44.567591,-123.274620, 0.0000, 342.3059, 244.814484,Stationary,High, 99.9495, 0.0000, 234.2487, 57.9164,-789.6699, 50.1046, 133.6041,-193.1648
16-Mar-2018 09:25:09.387,-0.0006, 0.0186,-0.9878,-0.0328, 0.0539,-0.0069,-0.0019,-0.0192,-1.0558,44.567591,-123.274620, 0.0000, 342.3059, 244.814484,Stationary,High, 99.9495, 0.0000, 234.2487, 57.9164,-789.6699, 50.1046, 133.6041,-193.1648
16-Mar-2018 09:25:09.400,-0.0017, 0.0184,-0.9884,-0.0328, 0.0539,-0.0069,-0.0019,-0.0192,-1.0558,44.567591,-123.274620, 0.0000, 342.3059, 244.814484,Stationary,High, 99.9495, 0.0000, 234.2487, 57.9164,-789.6699, 50.1046, 133.6041,-193.1648
16-Mar-2018 09:25:09.408,-0.0012, 0.0190,-0.9874,-0.0328, 0.0507,-0.0079,-0.0019,-0.0192,-1.0558,44.567591,-123.274620, 0.0000, 340.5561, 244.814484,Stationary,High, 99.9495, 0.0000, 234.2487, 57.9164,-789.6699, 50.1217, 133.6057,-193.1593
16-Mar-2018 09:25:09.417,-0.0002, 0.0179,-0.9872,-0.0318, 0.0529,-0.0069,-0.0019,-0.0192,-1.0558,44.567591,-123.274620, 0.0000, 340.5561, 244.814484,Stationary,High, 99.9495, 0.0000, 234.2487, 57.9164,-789.6699, 50.1245, 133.6049,-193.1591
16-Mar-2018 09:25:09.427,-0.0012, 0.0195,-0.9870,-0.0318, 0.0529,-0.0069,-0.0019,-0.0192,-1.0558,44.567591,-123.274620, 0.0000, 340.5561, 244.814484,Stationary,High, 99.9495, 0.0000, 233.8924, 52.8958,-790.6930, 50.1245, 133.6049,-193.1591
16-Mar-2018 09:25:09.436,-0.0002, 0.0176,-0.9862,-0.0307, 0.0529,-0.0079,-0.0019,-0.0192,-1.0558,44.567591,-123.274620, 0.0000, 340.5561, 244.814484,Stationary,High, 99.9495, 0.0000, 233.8924, 52.8958,-790.6930, 50.1278, 133.6112,-193.1539
16-Mar-2018 09:25:09.446, 0.0004, 0.0174,-0.9893,-0.0296, 0.0507,-0.0068,-0.0018,-0.0192,-1.0558,44.567591,-123.274620, 0.0000, 340.5561, 244.814484,Stationary,High, 99.9495, 0.0000, 233.8924, 52.8958,-790.6930, 50.1332, 133.6094,-193.1537
16-Mar-2018 09:25:09.456,-0.0025, 0.0182,-0.9863,-0.0296, 0.0507,-0.0068,-0.0018,-0.0192,-1.0558,44.567591,-123.274620, 0.0000, 340.5561, 244.814484,Stationary,High, 99.9495, 0.0000, 233.8924, 52.8958,-790.6930, 50.1332, 133.6094,-193.1537
16-Mar-2018 09:25:09.466,-0.0011, 0.0184,-0.9870,-0.0307, 0.0529,-0.0068,-0.0018,-0.0192,-1.0558,44.567591,-123.274620, 0.0000, 338.9636, 244.814484,Stationary,High, 99.9495, 0.0000, 229.6171, 46.4407,-792.7392, 50.1382, 133.6040,-193.1562
16-Mar-2018 09:25:09.475,-0.0003, 0.0190,-0.9874,-0.0286, 0.0529,-0.0079,-0.0018,-0.0191,-1.0558,44.567591,-123.274620, 0.0000, 338.9636, 244.814484,Stationary,High, 99.9495, 0.0000, 229.6171, 46.4407,-792.7392, 50.1475, 133.5974,-193.1583
16-Mar-2018 09:25:09.486,-0.0011, 0.0180,-0.9901,-0.0286, 0.0529,-0.0079,-0.0018,-0.0191,-1.0558,44.567591,-123.274620, 0.0000, 338.9636, 244.814484,Stationary,High, 99.9495, 0.0000, 229.6171, 46.4407,-792.7392, 50.1475, 133.5974,-193.1583
16-Mar-2018 09:25:09.495,-0.0008, 0.0186,-0.9869,-0.0307, 0.0529,-0.0079,-0.0018,-0.0191,-1.0558,44.567591,-123.274620, 0.0000, 338.9636, 244.814484,Stationary,High, 99.9495, 0.0000, 229.6171, 46.4407,-792.7392, 50.1460, 133.5960,-193.1597
16-Mar-2018 09:25:09.505,-0.0018, 0.0179,-0.9877,-0.0317, 0.0539,-0.0079,-0.0018,-0.0192,-1.0558,44.567591,-123.274620, 0.0000, 338.9636, 244.814484,Stationary,High, 99.9495, 0.0000, 223.0261, 40.5236,-794.2739, 50.1496, 133.5959,-193.1588
16-Mar-2018 09:25:09.515,-0.0014, 0.0185,-0.9880,-0.0317, 0.0539,-0.0079,-0.0018,-0.0192,-1.0558,44.567591,-123.274620, 0.0000, 338.9636, 244.814484,Stationary,High, 99.9495, 0.0000, 223.0261, 40.5236,-794.2739, 50.1496, 133.5959,-193.1588
16-Mar-2018 09:25:09.525,-0.0018, 0.0190,-0.9880,-0.0317, 0.0528,-0.0079,-0.0018,-0.0192,-1.0558,44.567591,-123.274620, 0.0000, 337.4245, 244.814484,Stationary,High, 99.9495, 0.0000, 223.0261, 40.5236,-794.2739, 50.1534, 133.6007,-193.1545
16-Mar-2018 09:25:09.534,-0.0004, 0.0182,-0.9882,-0.0307, 0.0539,-0.0068,-0.0018,-0.0192,-1.0558,44.567591,-123.274620, 0.0000, 337.4245, 244.814484,Stationary,High, 99.9495, 0.0000, 223.0261, 40.5236,-794.2739, 50.1505, 133.5979,-193.1572
16-Mar-2018 09:25:09.544,-0.0008, 0.0177,-0.9874,-0.0307, 0.0539,-0.0068,-0.0018,-0.0192,-1.0558,44.567591,-123.274620, 0.0000, 337.4245, 244.814484,Stationary,High, 99.9495, 0.0000, 217.1476, 31.7375,-794.4444, 50.1505, 133.5979,-193.1572
16-Mar-2018 09:25:09.555,-0.0015, 0.0169,-0.9872,-0.0317, 0.0507,-0.0079,-0.0018,-0.0192,-1.0557,44.567591,-123.274620, 0.0000, 337.4245, 244.814484,Stationary,High, 99.9495, 0.0000, 217.1476, 31.7375,-794.4444, 50.1467, 133.6043,-193.1538
16-Mar-2018 09:25:09.567,-0.0019, 0.0188,-0.9868,-0.0307, 0.0529,-0.0058,-0.0018,-0.0191,-1.0557,44.567591,-123.274620, 0.0000, 337.4245, 244.814484,Stationary,High, 99.9495, 0.0000, 217.1476, 31.7375,-794.4444, 50.1520, 133.6044,-193.1523
16-Mar-2018 09:25:09.576,-0.0013, 0.0197,-0.9848,-0.0318, 0.0539,-0.0058,-0.0018,-0.0192,-1.0557,44.567591,-123.274620, 0.0000, 337.4245, 244.814484,Stationary,High, 99.9495, 0.0000, 217.1476, 31.7375,-794.4444, 50.1538, 133.5962,-193.1575
16-Mar-2018 09:25:09.588,-0.0019, 0.0186,-0.9854,-0.0328, 0.0518,-0.0079,-0.0018,-0.0192,-1.0557,44.567591,-123.274620, 0.0000, 335.8605, 244.814484,Stationary,High, 99.9495, 0.0000, 207.3502, 27.9720,-802.4587, 50.1539, 133.5986,-193.1558
16-Mar-2018 09:25:09.594,-0.0021, 0.0186,-0.9867,-0.0328, 0.0539,-0.0069,-0.0018,-0.0192,-1.0557,44.567591,-123.274620, 0.0000, 335.8605, 244.814484,Stationary,High, 99.9495, 0.0000, 207.3502, 27.9720,-802.4587, 50.1544, 133.6060,-193.1506
16-Mar-2018 09:25:09.604,-0.0005, 0.0175,-0.9885,-0.0328, 0.0539,-0.0069,-0.0018,-0.0192,-1.0557,44.567591,-123.274620, 0.0000, 335.8605, 244.814484,Stationary,High, 99.9495, 0.0000, 207.3502, 27.9720,-802.4587, 50.1544, 133.6060,-193.1506
16-Mar-2018 09:25:09.619,-0.0006, 0.0188,-0.9875,-0.0307, 0.0529,-0.0068,-0.0018,-0.0192,-1.0557,44.567591,-123.274620, 0.0000, 335.8605, 244.814484,Stationary,High, 99.9495, 0.0000, 207.3502, 27.9720,-802.4587, 50.1452, 133.6089,-193.1510
16-Mar-2018 09:25:09.625,-0.0015, 0.0177,-0.9869,-0.0318, 0.0529,-0.0058,-0.0018,-0.0192,-1.0557,44.567591,-123.274620, 0.0000, 335.8605, 244.814484,Stationary,High, 99.9495, 0.0000, 207.7064, 30.1237,-806.8922, 50.1451, 133.6107,-193.1497
16-Mar-2018 09:25:09.635,-0.0017, 0.0181,-0.9850,-0.0318, 0.0529,-0.0058,-0.0018,-0.0192,-1.0557,44.567591,-123.274620, 0.0000, 335.8605, 244.814484,Stationary,High, 99.9495, 0.0000, 207.7064, 30.1237,-806.8922, 50.1451, 133.6107,-193.1497
16-Mar-2018 09:25:09.652,-0.0013, 0.0190,-0.9870,-0.0328, 0.0507,-0.0079,-0.0018,-0.0192,-1.0557,44.567591,-123.274620, 0.0000, 335.8605, 244.814484,Stationary,High, 99.9495, 0.0000, 207.7064, 30.1237,-806.8922, 50.1499, 133.6099,-193.1490
16-Mar-2018 09:25:09.658,-0.0013, 0.0183,-0.9888,-0.0307, 0.0529,-0.0068,-0.0018,-0.0192,-1.0557,44.567591,-123.274620, 0.0000, 335.8605, 244.814484,Stationary,High, 99.9495, 0.0000, 207.7064, 30.1237,-806.8922, 50.1471, 133.6080,-193.1511
16-Mar-2018 09:25:09.663,-0.0015, 0.0194,-0.9877,-0.0307, 0.0529,-0.0068,-0.0018,-0.0192,-1.0557,44.567591,-123.274620, 0.0000, 335.8605, 244.814484,Stationary,High, 99.9495, 0.0000, 208.4190, 32.9926,-807.2333, 50.1471, 133.6080,-193.1511
16-Mar-2018 09:25:09.678,-0.0010, 0.0190,-0.9878,-0.0307, 0.0529,-0.0068,-0.0018,-0.0192,-1.0557,44.567591,-123.274620, 0.0000, 335.8605, 244.814484,Stationary,High, 99.9489, 0.0449, 208.4190, 32.9926,-807.2333, 50.1457, 133.6100,-193.1500
16-Mar-2018 09:25:09.688,-0.0019, 0.0180,-0.9886,-0.0296, 0.0529,-0.0079,-0.0018,-0.0192,-1.0557,44.567591,-123.274620, 0.0000, 335.8605, 244.814484,Stationary,High, 99.9489, 0.0449, 208.4190, 32.9926,-807.2333, 50.1477, 133.6060,-193.1523
16-Mar-2018 09:25:09.692,-0.0012, 0.0186,-0.9888,-0.0296, 0.0529,-0.0079,-0.0018,-0.0192,-1.0557,44.567591,-123.274620, 0.0000, 335.8605, 244.814484,Stationary,High, 99.9489, 0.0449, 208.4190, 32.9926,-807.2333, 50.1477, 133.6060,-193.1523
16-Mar-2018 09:25:09.708,-0.0020, 0.0185,-0.9883,-0.0339, 0.0518,-0.0069,-0.0018,-0.0192,-1.0557,44.567591,-123.274620, 0.0000, 337.4343, 244.814484,Stationary,High, 99.9489, 0.0449, 207.5283, 31.7375,-803.6523, 50.1504, 133.6106,-193.1484
16-Mar-2018 09:25:09.717,-0.0021, 0.0186,-0.9890,-0.0317, 0.0539,-0.0079,-0.0018,-0.0192,-1.0557,44.567591,-123.274620, 0.0000, 337.4343, 244.814484,Stationary,High, 99.9489, 0.0449, 207.5283, 31.7375,-803.6523, 50.1476, 133.6096,-193.1499
16-Mar-2018 09:25:09.722,-0.0019, 0.0177,-0.9867,-0.0317, 0.0539,-0.0079,-0.0018,-0.0192,-1.0557,44.567591,-123.274620, 0.0000, 337.4343, 244.814484,Stationary,High, 99.9489, 0.0449, 207.5283, 31.7375,-803.6523, 50.1476, 133.6096,-193.1499
16-Mar-2018 09:25:09.738,-0.0006, 0.0189,-0.9867,-0.0307, 0.0539,-0.0079,-0.0018,-0.0192,-1.0557,44.567591,-123.274620, 0.0000, 337.4343, 244.814484,Stationary,High, 99.9489, 0.0449, 207.5283, 31.7375,-803.6523, 50.1450, 133.6145,-193.1471
16-Mar-2018 09:25:09.748,-0.0031, 0.0191,-0.9890,-0.0318, 0.0529,-0.0069,-0.0018,-0.0192,-1.0557,44.567591,-123.274620, 0.0000, 337.4343, 244.814484,Stationary,High, 99.9489, 0.0449, 210.7347, 33.8892,-803.3113, 50.1472, 133.6093,-193.1501
16-Mar-2018 09:25:09.759,-0.0009, 0.0189,-0.9868,-0.0328, 0.0528,-0.0079,-0.0018,-0.0193,-1.0557,44.567591,-123.274620, 0.0000, 337.4343, 244.814484,Stationary,High, 99.9489, 0.0449, 210.7347, 33.8892,-803.3113, 50.1526, 133.6114,-193.1473
16-Mar-2018 09:25:09.769,-0.0011, 0.0187,-0.9873,-0.0318, 0.0507,-0.0069,-0.0018,-0.0193,-1.0557,44.567591,-123.274620, 0.0000, 337.4343, 244.814484,Stationary,High, 99.9489, 0.0449, 210.7347, 33.8892,-803.3113, 50.1450, 133.6154,-193.1465
16-Mar-2018 09:25:09.774,-0.0019, 0.0182,-0.9871,-0.0318, 0.0539,-0.0069,-0.0018,-0.0193,-1.0557,44.567591,-123.274620, 0.0000, 338.5753, 244.814484,Stationary,High, 99.9489, 0.0449, 210.7347, 33.8892,-803.3113, 50.1477, 133.6169,-193.1447
16-Mar-2018 09:25:09.784,-0.0015, 0.0187,-0.9865,-0.0318, 0.0539,-0.0069,-0.0018,-0.0193,-1.0557,44.567591,-123.274620, 0.0000, 338.5753, 244.814484,Stationary,High, 99.9489, 0.0449, 209.1315, 36.5788,-803.4818, 50.1477, 133.6169,-193.1447
16-Mar-2018 09:25:09.790,-0.0010, 0.0181,-0.9877,-0.0318, 0.0539,-0.0069,-0.0018,-0.0193,-1.0557,44.567591,-123.274620, 0.0000, 338.5753, 244.814484,Stationary,High, 99.9489, 0.0449, 209.1315, 36.5788,-803.4818, 50.1477, 133.6169,-193.1447
16-Mar-2018 09:25:09.800, 0.0001, 0.0194,-0.9857,-0.0307, 0.0518,-0.0068,-0.0018,-0.0193,-1.0557,44.567591,-123.274620, 0.0000, 338.5753, 244.814484,Stationary,High, 99.9489, 0.0449, 209.1315, 36.5788,-803.4818, 50.1525, 133.6158,-193.1443
16-Mar-2018 09:25:09.810,-0.0011, 0.0186,-0.9875,-0.0318, 0.0529,-0.0069,-0.0018,-0.0193,-1.0557,44.567591,-123.274620, 0.0000, 338.5753, 244.814484,Stationary,High, 99.9489, 0.0449, 209.1315, 36.5788,-803.4818, 50.1580, 133.6147,-193.1436
16-Mar-2018 09:25:09.821,-0.0016, 0.0187,-0.9868,-0.0318, 0.0529,-0.0069,-0.0018,-0.0193,-1.0557,44.567591,-123.274620, 0.0000, 338.5753, 244.814484,Stationary,High, 99.9489, 0.0449, 209.1315, 36.5788,-803.4818, 50.1580, 133.6147,-193.1436
16-Mar-2018 09:25:09.830,-0.0022, 0.0188,-0.9856,-0.0317, 0.0518,-0.0079,-0.0018,-0.0193,-1.0557,44.567591,-123.274620, 0.0000, 339.6371, 244.814484,Stationary,High, 99.9489, 0.0449, 207.7064, 41.5994,-807.5743, 50.1625, 133.6189,-193.1395
16-Mar-2018 09:25:09.840,-0.0014, 0.0182,-0.9874,-0.0307, 0.0550,-0.0068,-0.0018,-0.0193,-1.0557,44.567591,-123.274620, 0.0000, 339.6371, 244.814484,Stationary,High, 99.9489, 0.0449, 207.7064, 41.5994,-807.5743, 50.1635, 133.6174,-193.1404
16-Mar-2018 09:25:09.849,-0.0011, 0.0190,-0.9893,-0.0307, 0.0550,-0.0068,-0.0018,-0.0193,-1.0557,44.567591,-123.274620, 0.0000, 339.6371, 244.814484,Stationary,High, 99.9489, 0.0449, 207.7064, 41.5994,-807.5743, 50.1635, 133.6174,-193.1404
16-Mar-2018 09:25:09.861,-0.0030, 0.0191,-0.9880,-0.0307, 0.0529,-0.0068,-0.0018,-0.0193,-1.0556,44.567591,-123.274620, 0.0000, 339.6371, 244.814484,Stationary,High, 99.9489, 0.0449, 207.7064, 41.5994,-807.5743, 50.1657, 133.6190,-193.1386
16-Mar-2018 09:25:09.867,-0.0014, 0.0184,-0.9883,-0.0317, 0.0518,-0.0079,-0.0018,-0.0193,-1.0556,44.567591,-123.274620, 0.0000, 339.6371, 244.814484,Stationary,High, 99.9489, 0.0449, 207.5283, 46.7993,-815.9297, 50.1695, 133.6152,-193.1403
16-Mar-2018 09:25:09.878,-0.0029, 0.0191,-0.9885,-0.0317, 0.0518,-0.0079,-0.0018,-0.0193,-1.0556,44.567591,-123.274620, 0.0000, 339.6371, 244.814484,Stationary,High, 99.9489, 0.0449, 207.5283, 46.7993,-815.9297, 50.1695, 133.6152,-193.1403
16-Mar-2018 09:25:09.891,-0.0014, 0.0182,-0.9857,-0.0296, 0.0518,-0.0090,-0.0019,-0.0193,-1.0557,44.567591,-123.274620, 0.0000, 339.6371, 244.814484,Stationary,High, 99.9489, 0.0449, 207.5283, 46.7993,-815.9297, 50.1586, 133.6204,-193.1395
16-Mar-2018 09:25:09.900,-0.0024, 0.0183,-0.9869,-0.0307, 0.0518,-0.0058,-0.0019,-0.0193,-1.0556,44.567591,-123.274620, 0.0000, 339.6371, 244.814484,Stationary,High, 99.9489, 0.0449, 207.5283, 46.7993,-815.9297, 50.1517, 133.6165,-193.1440
16-Mar-2018 09:25:09.908,-0.0023, 0.0192,-0.9873,-0.0307, 0.0518,-0.0058,-0.0019,-0.0193,-1.0556,44.567591,-123.274620, 0.0000, 339.6371, 244.814484,Stationary,High, 99.9489, 0.0449, 207.8846, 51.8199,-819.3400, 50.1517, 133.6165,-193.1440
16-Mar-2018 09:25:09.921,-0.0029, 0.0184,-0.9883,-0.0328, 0.0528,-0.0090,-0.0019,-0.0193,-1.0556,44.567591,-123.274620, 0.0000, 341.0929, 244.814484,Stationary,High, 99.9489, 0.0449, 207.8846, 51.8199,-819.3400, 50.1469, 133.6178,-193.1444
16-Mar-2018 09:25:09.928,-0.0007, 0.0189,-0.9880,-0.0318, 0.0529,-0.0069,-0.0019,-0.0193,-1.0556,44.567591,-123.274620, 0.0000, 341.0929, 244.814484,Stationary,High, 99.9489, 0.0449, 207.8846, 51.8199,-819.3400, 50.1415, 133.6203,-193.1440
16-Mar-2018 09:25:09.938, 0.0000, 0.0179,-0.9875,-0.0318, 0.0529,-0.0069,-0.0019,-0.0193,-1.0556,44.567591,-123.274620, 0.0000, 341.0929, 244.814484,Stationary,High, 99.9489, 0.0449, 207.8846, 51.8199,-819.3400, 50.1415, 133.6203,-193.1440
16-Mar-2018 09:25:09.951,-0.0001, 0.0182,-0.9894,-0.0296, 0.0529,-0.0079,-0.0019,-0.0193,-1.0556,44.567591,-123.274620, 0.0000, 341.0929, 244.814484,Stationary,High, 99.9489, 0.0449, 210.7347, 53.2544,-819.3400, 50.1350, 133.6216,-193.1448
16-Mar-2018 09:25:09.957,-0.0020, 0.0192,-0.9880,-0.0328, 0.0539,-0.0079,-0.0019,-0.0193,-1.0556,44.567591,-123.274620, 0.0000, 341.0929, 244.814484,Stationary,High, 99.9489, 0.0449, 210.7347, 53.2544,-819.3400, 50.1458, 133.6160,-193.1459
16-Mar-2018 09:25:09.967,-0.0009, 0.0186,-0.9868,-0.0328, 0.0539,-0.0079,-0.0019,-0.0193,-1.0556,44.567591,-123.274620, 0.0000, 341.0929, 244.814484,Stationary,High, 99.9489, 0.0449, 210.7347, 53.2544,-819.3400, 50.1458, 133.6160,-193.1459
16-Mar-2018 09:25:09.982,-0.0008, 0.0182,-0.9874,-0.0307, 0.0529,-0.0079,-0.0018,-0.0193,-1.0556,44.567591,-123.274620, 0.0000, 341.0929, 244.814484,Stationary,High, 99.9489, 0.0449, 210.7347, 53.2544,-819.3400, 50.1510, 133.6134,-193.1463
16-Mar-2018 09:25:09.988,-0.0025, 0.0170,-0.9879,-0.0317, 0.0539,-0.0079,-0.0018,-0.0193,-1.0556,44.567591,-123.274620, 0.0000, 341.0929, 244.814484,Stationary,High, 99.9489, 0.0449, 208.5971, 51.4613,-821.0452, 50.1534, 133.6131,-193.1459
16-Mar-2018 09:25:09.999,-0.0021, 0.0186,-0.9878,-0.0317, 0.0539,-0.0079,-0.0018,-0.0193,-1.0556,44.567591,-123.274620, 0.0000, 341.0929, 244.814484,Stationary,High, 99.9489, 0.0449, 208.5971, 51.4613,-821.0452, 50.1534, 133.6131,-193.1459
16-Mar-2018 09:25:10.011, 0.0003, 0.0175,-0.9870,-0.0307, 0.0518,-0.0079,-0.0018,-0.0192,-1.0556,44.567591,-123.274620, 0.0000, 342.3999, 244.814484,Stationary,High, 99.9489, 0.0449, 208.5971, 51.4613,-821.0452, 50.1601, 133.6151,-193.1428
16-Mar-2018 09:25:10.016,-0.0010, 0.0190,-0.9871,-0.0317, 0.0518,-0.0079,-0.0018,-0.0192,-1.0556,44.567591,-123.274620, 0.0000, 342.3999, 244.814484,Stationary,High, 99.9489, 0.0449, 208.5971, 51.4613,-821.0452, 50.1545, 133.6063,-193.1504
16-Mar-2018 09:25:10.028, 0.0001, 0.0194,-0.9876,-0.0317, 0.0518,-0.0079,-0.0018,-0.0192,-1.0556,44.567591,-123.274620, 0.0000, 342.3999, 244.814484,Stationary,High, 99.9489, 0.0449, 210.2003, 52.7165,-816.4412, 50.1545, 133.6063,-193.1504
16-Mar-2018 09:25:10.036,-0.0017, 0.0184,-0.9872,-0.0328, 0.0539,-0.0069,-0.0018,-0.0192,-1.0556,44.567591,-123.274620, 0.0000, 342.3999, 244.814484,Stationary,High, 99.9489, 0.0449, 210.2003, 52.7165,-816.4412, 50.1566, 133.5986,-193.1551
16-Mar-2018 09:25:10.046,-0.0006, 0.0188,-0.9892,-0.0328, 0.0528,-0.0079,-0.0018,-0.0192,-1.0556,44.567591,-123.274620, 0.0000, 342.3999, 244.814484,Stationary,High, 99.9489, 0.0449, 210.2003, 52.7165,-816.4412, 50.1566, 133.5986,-193.1551
16-Mar-2018 09:25:10.057,-0.0020, 0.0194,-0.9880,-0.0318, 0.0518,-0.0069,-0.0018,-0.0192,-1.0556,44.567591,-123.274620, 0.0000, 342.3999, 244.814484,Stationary,High, 99.9489, 0.0449, 210.2003, 52.7165,-816.4412, 50.1665, 133.6063,-193.1472
