Timestamp,accelX,accelY,accelZ,gyroX(rad/s),gyroY(rad/s),gyroZ(rad/s),Roll(rads),Pitch(rads),Yaw(rads),Lat,Long,Speed(mph),TrueHeading,Alt(feet),ActivityType,ActivityConfidence,Pressure(kilopascals),RelativeAltitude(meters),magX(µT),magY(µT),magZ(µT),calMagX,calMagY,calMagZ
15-Mar-2018 18:06:11.769, 0.0141, 0.0149,-0.9886,-0.0307, 0.0529,-0.0068, 0.0139,-0.0155,-1.8408,,, 0.0000, 0.0000, 0.000000,Unknown,Low, 0.0000, 0.0000, 185.6176, 133.7636,-480.1793,-9.6810, 38.2633,-49.8954
15-Mar-2018 18:06:11.780, 0.0146, 0.0155,-0.9906,-0.0296, 0.0529,-0.0068, 0.0139,-0.0155,-1.8408,,, 0.0000, 0.0000, 0.000000,Unknown,Low, 0.0000, 0.0000, 185.6176, 133.7636,-480.1793,-9.6822, 38.2627,-49.8956
15-Mar-2018 18:06:11.790, 0.0127, 0.0134,-0.9896,-0.0307, 0.0539,-0.0068, 0.0140,-0.0155,-1.8408,,, 0.0000, 0.0000, 0.000000,Unknown,Low, 0.0000, 0.0000, 185.6176, 133.7636,-480.1793,-9.6818, 38.2625,-49.8959
15-Mar-2018 18:06:11.802, 0.0113, 0.0146,-0.9896,-0.0286, 0.0539,-0.0068, 0.0139,-0.0154,-1.8408,,, 0.0000, 0.0000, 0.000000,Unknown,Low, 0.0000, 0.0000, 185.6176, 133.7636,-480.1793,-9.6803, 38.2632,-49.8957
15-Mar-2018 18:06:11.808, 0.0145, 0.0131,-0.9901,-0.0307, 0.0529,-0.0068, 0.0139,-0.0154,-1.8408,,, 0.0000, 0.0000, 0.000000,Unknown,Low, 0.0000, 0.0000, 172.2574, 142.5497,-499.1068,-9.6809, 38.2608,-49.8974
15-Mar-2018 18:06:11.813, 0.0135, 0.0142,-0.9882,-0.0307, 0.0529,-0.0068, 0.0139,-0.0154,-1.8408,44.567600,-123.274492,-2.2369, 0.0000, 241.487137,Unknown,Low, 0.0000, 0.0000, 172.2574, 142.5497,-499.1068,-9.6809, 38.2608,-49.8974
15-Mar-2018 18:06:11.831, 0.0134, 0.0145,-0.9880,-0.0317, 0.0539,-0.0079, 0.0139,-0.0154,-1.8408,44.567600,-123.274492,-2.2369, 0.0000, 241.487137,Unknown,Low, 0.0000, 0.0000, 172.2574, 142.5497,-499.1068,-9.6829, 38.2588,-49.8985
15-Mar-2018 18:06:11.843, 0.0126, 0.0147,-0.9882,-0.0297, 0.0539,-0.0058, 0.0139,-0.0154,-1.8408,44.567600,-123.274492,-2.2369, 0.0000, 241.487137,Unknown,Low, 0.0000, 0.0000, 172.2574, 142.5497,-499.1068,-9.6827, 38.2594,-49.8981
15-Mar-2018 18:06:11.847, 0.0126, 0.0147,-0.9882,-0.0297, 0.0539,-0.0058, 0.0139,-0.0154,-1.8408,44.567600,-123.274492,-2.2369, 0.0000, 241.487137,Unknown,Low, 0.0000, 0.0000, 172.2574, 142.5497,-499.1068,-9.6827, 38.2594,-49.8981
15-Mar-2018 18:06:11.861, 0.0139, 0.0134,-0.9910,-0.0318, 0.0539,-0.0069, 0.0139,-0.0154,-1.8407,44.567600,-123.274492,-2.2369, 0.0000, 241.487137,Stationary,High, 0.0000, 0.0000, 157.4721, 147.0324,-519.7395,-9.6819, 38.2596,-49.8981
15-Mar-2018 18:06:11.878, 0.0135, 0.0167,-0.9897,-0.0307, 0.0539,-0.0068, 0.0139,-0.0154,-1.8407,44.567600,-123.274492,-2.2369, 0.0000, 241.487137,Stationary,High, 0.0000, 0.0000, 157.4721, 147.0324,-519.7395,-9.6815, 38.2603,-49.8976
15-Mar-2018 18:06:11.881, 0.0135, 0.0167,-0.9897,-0.0307, 0.0539,-0.0068, 0.0139,-0.0154,-1.8407,44.567600,-123.274492,-2.2369, 0.0000, 241.487137,Stationary,High, 0.0000, 0.0000, 157.4721, 147.0324,-519.7395,-9.6815, 38.2603,-49.8976
15-Mar-2018 18:06:11.895, 0.0140, 0.0139,-0.9868,-0.0307, 0.0529,-0.0068, 0.0139,-0.0154,-1.8407,44.567600,-123.274492,-2.2369, 0.0000, 241.487137,Stationary,High, 0.0000, 0.0000, 157.4721, 147.0324,-519.7395,-9.6796, 38.2604,-49.8979
15-Mar-2018 18:06:11.899, 0.0140, 0.0139,-0.9868,-0.0307, 0.0529,-0.0068, 0.0139,-0.0154,-1.8407,44.567600,-123.274492,-2.2369, 0.0000, 241.487137,Stationary,High, 0.0000, 0.0000, 140.7273, 149.9013,-536.7914,-9.6796, 38.2604,-49.8979
15-Mar-2018 18:06:11.908, 0.0138, 0.0133,-0.9889,-0.0307, 0.0529,-0.0068, 0.0139,-0.0153,-1.8407,44.567600,-123.274492,-2.2369, 0.0000, 241.487137,Stationary,High, 0.0000, 0.0000, 140.7273, 149.9013,-536.7914,-9.6789, 38.2583,-49.8997
15-Mar-2018 18:06:11.913, 0.0160, 0.0142,-0.9906,-0.0307, 0.0529,-0.0068, 0.0139,-0.0153,-1.8407,44.567600,-123.274492,-2.2369, 0.0000, 241.487137,Stationary,High, 0.0000, 0.0000, 140.7273, 149.9013,-536.7914,-9.6789, 38.2583,-49.8997
15-Mar-2018 18:06:11.926, 0.0154, 0.0167,-0.9895,-0.0318, 0.0529,-0.0069, 0.0140,-0.0153,-1.8407,44.567600,-123.274492,-2.2369, 0.0000, 241.487137,Stationary,High, 0.0000, 0.0000, 140.7273, 149.9013,-536.7914,-9.6780, 38.2570,-49.9008
15-Mar-2018 18:06:11.930, 0.0130, 0.0153,-0.9894,-0.0318, 0.0539,-0.0069, 0.0140,-0.0154,-1.8407,44.567600,-123.274492,-2.2369, 0.0000, 241.487137,Stationary,High, 0.0000, 0.0000, 123.9826, 151.6944,-550.4328,-9.6754, 38.2568,-49.9015
15-Mar-2018 18:06:11.941, 0.0158, 0.0151,-0.9892,-0.0297, 0.0529,-0.0058, 0.0140,-0.0154,-1.8407,44.567600,-123.274492,-2.2369, 0.0000, 241.487137,Stationary,High, 0.0000, 0.0000, 123.9826, 151.6944,-550.4328,-9.6737, 38.2585,-49.9005
15-Mar-2018 18:06:11.953, 0.0136, 0.0153,-0.9888,-0.0296, 0.0528,-0.0090, 0.0140,-0.0154,-1.8407,44.567600,-123.274492,-2.2369, 31.3881, 241.487137,Stationary,High, 0.0000, 0.0000, 123.9826, 151.6944,-550.4328,-9.6734, 38.2594,-49.8999
15-Mar-2018 18:06:11.961, 0.0153, 0.0151,-0.9887,-0.0275, 0.0486,-0.0079, 0.0140,-0.0154,-1.8407,44.567600,-123.274492,-2.2369, 31.3881, 241.487137,Stationary,High, 0.0000, 0.0000, 123.9826, 151.6944,-550.4328,-9.6724, 38.2588,-49.9005
15-Mar-2018 18:06:11.970, 0.0107, 0.0155,-0.9920,-0.0307, 0.0529,-0.0079, 0.0140,-0.0154,-1.8407,44.567600,-123.274492,-2.2369, 31.3881, 241.487137,Stationary,High, 0.0000, 0.0000, 108.6629, 154.5633,-561.0049,-9.6738, 38.2580,-49.9009
15-Mar-2018 18:06:11.982, 0.0137, 0.0142,-0.9900,-0.0286, 0.0497,-0.0057, 0.0139,-0.0154,-1.8407,44.567600,-123.274492,-2.2369, 31.3881, 241.487137,Stationary,High, 0.0000, 0.0000, 108.6629, 154.5633,-561.0049,-9.6718, 38.2590,-49.9005
15-Mar-2018 18:06:11.990, 0.0139, 0.0147,-0.9886,-0.0275, 0.0486,-0.0079, 0.0139,-0.0153,-1.8407,44.567600,-123.274492,-2.2369, 31.3881, 241.487137,Stationary,High, 0.0000, 0.0000, 108.6629, 154.5633,-561.0049,-9.6772, 38.2576,-49.9006
15-Mar-2018 18:06:12.000, 0.0146, 0.0148,-0.9885,-0.0349, 0.0581,-0.0080, 0.0139,-0.0153,-1.8407,44.567600,-123.274492,-2.2369, 31.3881, 241.487137,Stationary,High, 0.0000, 0.0000, 108.6629, 154.5633,-561.0049,-9.6779, 38.2566,-49.9011
15-Mar-2018 18:06:12.012, 0.0140, 0.0144,-0.9906,-0.0275, 0.0486,-0.0068, 0.0139,-0.0153,-1.8406,44.567600,-123.274492,-2.2369, 31.3881, 241.487137,Stationary,High, 0.0000, 0.0000, 91.2056, 161.0184,-569.5308,-9.6768, 38.2579,-49.9004
15-Mar-2018 18:06:12.020, 0.0150, 0.0161,-0.9901,-0.0360, 0.0602,-0.0090, 0.0140,-0.0154,-1.8406,44.567600,-123.274492,-2.2369, 31.3881, 241.487137,Stationary,High, 0.0000, 0.0000, 91.2056, 161.0184,-569.5308,-9.6774, 38.2569,-49.9010
15-Mar-2018 18:06:12.032, 0.0135, 0.0147,-0.9883,-0.0339, 0.0561,-0.0058, 0.0140,-0.0154,-1.8406,44.567600,-123.274492,-2.2369, 31.3881, 241.487137,Stationary,High, 0.0000, 0.0000, 91.2056, 161.0184,-569.5308,-9.6751, 38.2583,-49.9004
15-Mar-2018 18:06:12.041, 0.0138, 0.0147,-0.9914,-0.0307, 0.0539,-0.0079, 0.0140,-0.0154,-1.8406,44.567600,-123.274492,-2.2369, 31.3881, 241.487137,Stationary,High, 0.0000, 0.0000, 91.2056, 161.0184,-569.5308,-9.6709, 38.2619,-49.8985
15-Mar-2018 18:06:12.055, 0.0140, 0.0149,-0.9896,-0.0339, 0.0560,-0.0069, 0.0140,-0.0154,-1.8406,44.567600,-123.274492,-2.2369, 31.3881, 241.487137,Stationary,High, 0.0000, 0.0000, 72.3232, 170.7010,-574.3054,-9.6698, 38.2625,-49.8982
15-Mar-2018 18:06:12.060, 0.0139, 0.0159,-0.9902,-0.0318, 0.0529,-0.0069, 0.0140,-0.0155,-1.8406,44.567600,-123.274492,-2.2369, 31.3881, 241.487137,Stationary,High, 0.0000, 0.0000, 72.3232, 170.7010,-574.3054,-9.6679, 38.2636,-49.8977
15-Mar-2018 18:06:12.070, 0.0145, 0.0142,-0.9886,-0.0318, 0.0529,-0.0069, 0.0140,-0.0155,-1.8406,44.567600,-123.274492,-2.2369, 31.3881, 241.487137,Stationary,High, 0.0000, 0.0000, 72.3232, 170.7010,-574.3054,-9.6679, 38.2636,-49.8977
15-Mar-2018 18:06:12.079, 0.0136, 0.0139,-0.9883,-0.0317, 0.0550,-0.0079, 0.0140,-0.0155,-1.8406,44.567600,-123.274492,-2.2369, 31.3881, 241.487137,Stationary,High, 0.0000, 0.0000, 72.3232, 170.7010,-574.3054,-9.6684, 38.2641,-49.8972
15-Mar-2018 18:06:12.088, 0.0142, 0.0144,-0.9904,-0.0307, 0.0529,-0.0079, 0.0140,-0.0155,-1.8406,44.567600,-123.274492,-2.2369, 31.3881, 241.487137,Stationary,High, 0.0000, 0.0000, 51.8375, 176.9768,-574.8169,-9.6680, 38.2653,-49.8964
15-Mar-2018 18:06:12.098, 0.0151, 0.0146,-0.9884,-0.0307, 0.0529,-0.0079, 0.0140,-0.0155,-1.8406,44.567600,-123.274492,-2.2369, 31.3881, 241.487137,Stationary,High, 0.0000, 0.0000, 51.8375, 176.9768,-574.8169,-9.6680, 38.2653,-49.8964
15-Mar-2018 18:06:12.108, 0.0157, 0.0150,-0.9897,-0.0296, 0.0529,-0.0068, 0.0141,-0.0155,-1.8406,44.567600,-123.274492,-2.2369, 31.3881, 241.487137,Stationary,High, 0.0000, 0.0000, 51.8375, 176.9768,-574.8169,-9.6681, 38.2650,-49.8966
15-Mar-2018 18:06:12.118, 0.0154, 0.0169,-0.9903,-0.0286, 0.0518,-0.0068, 0.0141,-0.0154,-1.8406,44.567600,-123.274492,-2.2369, 31.3881, 241.487137,Stationary,High, 0.0000, 0.0000, 51.8375, 176.9768,-574.8169,-9.6672, 38.2642,-49.8974
15-Mar-2018 18:06:12.132, 0.0131, 0.0146,-0.9906,-0.0307, 0.0528,-0.0090, 0.0141,-0.0155,-1.8406,44.567600,-123.274492,-2.2369, 31.3881, 241.487137,Stationary,High, 0.0000, 0.0000, 39.5462, 177.8734,-571.2360,-9.6648, 38.2638,-49.8982
15-Mar-2018 18:06:12.146, 0.0149, 0.0155,-0.9907,-0.0296, 0.0529,-0.0068, 0.0141,-0.0155,-1.8406,44.567600,-123.274492,-2.2369, 31.3881, 241.487137,Stationary,High, 0.0000, 0.0000, 39.5462, 177.8734,-571.2360,-9.6636, 38.2655,-49.8971
15-Mar-2018 18:06:12.156, 0.0111, 0.0157,-0.9882,-0.0307, 0.0518,-0.0079, 0.0141,-0.0155,-1.8406,44.567600,-123.274492,-2.2369, 31.3881, 241.487137,Stationary,High, 0.0000, 0.0000, 39.5462, 177.8734,-571.2360,-9.6647, 38.2642,-49.8979
15-Mar-2018 18:06:12.162, 0.0133, 0.0141,-0.9882,-0.0307, 0.0518,-0.0079, 0.0141,-0.0155,-1.8406,44.567600,-123.274492,-2.2369, 31.3881, 241.487137,Stationary,High, 0.0000, 0.0000, 39.5462, 177.8734,-571.2360,-9.6647, 38.2642,-49.8979
15-Mar-2018 18:06:12.172, 0.0129, 0.0143,-0.9906,-0.0307, 0.0518,-0.0068, 0.0140,-0.0155,-1.8405,44.567600,-123.274492,-2.2369, 31.3881, 241.487137,Stationary,High, 0.0000, 0.0000, 28.1455, 178.2320,-570.5540,-9.6634, 38.2652,-49.8974
15-Mar-2018 18:06:12.180, 0.0127, 0.0135,-0.9898,-0.0307, 0.0529,-0.0068, 0.0140,-0.0155,-1.8405,44.567600,-123.274492,-2.2369, 31.3881, 241.487137,Stationary,High, 0.0000, 0.0000, 28.1455, 178.2320,-570.5540,-9.6665, 38.2661,-49.8961
15-Mar-2018 18:06:12.188, 0.0145, 0.0165,-0.9896,-0.0307, 0.0529,-0.0068, 0.0140,-0.0155,-1.8405,44.567600,-123.274492,-2.2369, 31.3881, 241.487137,Stationary,High, 0.0000, 0.0000, 28.1455, 178.2320,-570.5540,-9.6665, 38.2661,-49.8961
15-Mar-2018 18:06:12.205, 0.0130, 0.0149,-0.9885,-0.0307, 0.0529,-0.0068, 0.0140,-0.0154,-1.8405,44.567600,-123.274492,-2.2369, 31.3881, 241.487137,Stationary,High, 0.0000, 0.0000, 28.1455, 178.2320,-570.5540,-9.6678, 38.2657,-49.8961
15-Mar-2018 18:06:12.213, 0.0152, 0.0158,-0.9885,-0.0296, 0.0529,-0.0079, 0.0139,-0.0154,-1.8405,44.567600,-123.274492,-2.2369, 31.3881, 241.487137,Stationary,High, 0.0000, 0.0000, 18.3480, 180.2043,-567.9962,-9.6692, 38.2639,-49.8972
15-Mar-2018 18:06:12.221, 0.0145, 0.0159,-0.9884,-0.0296, 0.0529,-0.0079, 0.0139,-0.0154,-1.8405,44.567600,-123.274492,-2.2369, 31.3881, 241.487137,Stationary,High, 0.0000, 0.0000, 18.3480, 180.2043,-567.9962,-9.6692, 38.2639,-49.8972
15-Mar-2018 18:06:12.227, 0.0137, 0.0162,-0.9878,-0.0286, 0.0539,-0.0057, 0.0140,-0.0154,-1.8405,44.567600,-123.274492,-2.2369, 31.3881, 241.487137,Stationary,High, 0.0000, 0.0000, 18.3480, 180.2043,-567.9962,-9.6701, 38.2638,-49.8971
15-Mar-2018 18:06:12.239, 0.0136, 0.0153,-0.9880,-0.0307, 0.0529,-0.0068, 0.0140,-0.0155,-1.8405,44.567600,-123.274492,-2.2369, 31.3881, 241.487137,Stationary,High, 0.0000, 0.0000, 18.3480, 180.2043,-567.9962,-9.6680, 38.2642,-49.8973
15-Mar-2018 18:06:12.253, 0.0133, 0.0148,-0.9893,-0.0307, 0.0539,-0.0079, 0.0140,-0.0155,-1.8405,44.567600,-123.274492,-2.2369, 31.3881, 241.487137,Stationary,High, 0.0000, 0.0000, 7.3036, 187.0181,-561.1754,-9.6680, 38.2654,-49.8963
15-Mar-2018 18:06:12.273, 0.0138, 0.0160,-0.9899,-0.0296, 0.0529,-0.0068, 0.0140,-0.0155,-1.8405,44.567600,-123.274492,-2.2369, 31.3881, 241.487137,Stationary,High, 0.0000, 0.0000, 7.3036, 187.0181,-561.1754,-9.6683, 38.2649,-49.8967
15-Mar-2018 18:06:12.277, 0.0133, 0.0153,-0.9874,-0.0296, 0.0529,-0.0068, 0.0140,-0.0155,-1.8405,44.567600,-123.274492,-2.2369, 31.3881, 241.487137,Stationary,High, 0.0000, 0.0000, 7.3036, 187.0181,-561.1754,-9.6683, 38.2649,-49.8967
15-Mar-2018 18:06:12.281, 0.0133, 0.0153,-0.9874,-0.0296, 0.0529,-0.0068, 0.0140,-0.0155,-1.8405,44.567600,-123.274492,-2.2369, 31.3881, 241.487137,Stationary,High, 0.0000, 0.0000, 7.3036, 187.0181,-561.1754,-9.6667, 38.2655,-49.8965
15-Mar-2018 18:06:12.288, 0.0142, 0.0159,-0.9891,-0.0296, 0.0529,-0.0068, 0.0140,-0.0155,-1.8405,44.567600,-123.274492,-2.2369, 31.3881, 241.487137,Stationary,High, 0.0000, 0.0000, 7.3036, 187.0181,-561.1754,-9.6667, 38.2655,-49.8965
15-Mar-2018 18:06:12.294, 0.0147, 0.0155,-0.9903,-0.0307, 0.0529,-0.0068, 0.0140,-0.0155,-1.8405,44.567600,-123.274492,-2.2369, 31.3881, 241.487137,Stationary,High, 0.0000, 0.0000,-9.7975, 191.6801,-553.6727,-9.6667, 38.2655,-49.8965
15-Mar-2018 18:06:12.306, 0.0147, 0.0152,-0.9892,-0.0307, 0.0539,-0.0068, 0.0140,-0.0155,-1.8404,44.567600,-123.274492,-2.2369, 31.3881, 241.487137,Stationary,High, 0.0000, 0.0000,-9.7975, 191.6801,-553.6727,-9.6667, 38.2667,-49.8956
15-Mar-2018 18:06:12.314, 0.0126, 0.0147,-0.9897,-0.0307, 0.0539,-0.0068, 0.0140,-0.0155,-1.8404,44.567600,-123.274492,-2.2369, 31.3881, 241.487137,Stationary,High, 0.0000, 0.0000,-9.7975, 191.6801,-553.6727,-9.6667, 38.2667,-49.8956
15-Mar-2018 18:06:12.327, 0.0129, 0.0157,-0.9881,-0.0285, 0.0518,-0.0089, 0.0140,-0.0155,-1.8404,44.567600,-123.274492,-2.2369, 31.3881, 241.487137,Stationary,High, 0.0000, 0.0000,-9.7975, 191.6801,-553.6727,-9.6647, 38.2671,-49.8956
15-Mar-2018 18:06:12.338, 0.0152, 0.0165,-0.9891,-0.0296, 0.0507,-0.0068, 0.0140,-0.0155,-1.8404,44.567600,-123.274492,-2.2369, 31.3881, 241.487137,Stationary,High, 0.0000, 0.0000,-29.0361, 196.7007,-540.0312,-9.6647, 38.2657,-49.8967
15-Mar-2018 18:06:12.347, 0.0143, 0.0137,-0.9898,-0.0296, 0.0518,-0.0068, 0.0140,-0.0155,-1.8404,44.567600,-123.274492,-2.2369, 31.3881, 241.487137,Stationary,High, 0.0000, 0.0000,-29.0361, 196.7007,-540.0312,-9.6662, 38.2661,-49.8962
15-Mar-2018 18:06:12.357, 0.0121, 0.0147,-0.9870,-0.0307, 0.0518,-0.0068, 0.0140,-0.0154,-1.8404,44.567600,-123.274492,-2.2369, 31.3881, 241.487137,Stationary,High, 0.0000, 0.0000,-29.0361, 196.7007,-540.0312,-9.6662, 38.2661,-49.8962
15-Mar-2018 18:06:12.366, 0.0134, 0.0155,-0.9884,-0.0307, 0.0529,-0.0079, 0.0139,-0.0154,-1.8404,44.567600,-123.274492,-2.2369, 31.3881, 241.487137,Stationary,High, 0.0000, 0.0000,-29.0361, 196.7007,-540.0312,-9.6655, 38.2651,-49.8970
15-Mar-2018 18:06:12.385, 0.0152, 0.0155,-0.9897,-0.0296, 0.0529,-0.0068, 0.0139,-0.0154,-1.8404,44.567600,-123.274492,-2.2369, 31.3881, 241.487137,Stationary,High, 0.0000, 0.0000,-51.6594, 194.7283,-528.2654,-9.6671, 38.2649,-49.8969
15-Mar-2018 18:06:12.392, 0.0141, 0.0165,-0.9902,-0.0296, 0.0518,-0.0068, 0.0139,-0.0154,-1.8404,44.567600,-123.274492,-2.2369, 31.3881, 241.487137,Stationary,High, 0.0000, 0.0000,-51.6594, 194.7283,-528.2654,-9.6673, 38.2653,-49.8966
15-Mar-2018 18:06:12.397, 0.0141, 0.0155,-0.9868,-0.0296, 0.0518,-0.0068, 0.0139,-0.0154,-1.8404,44.567600,-123.274492,-2.2369, 31.3881, 241.487137,Stationary,High, 0.0000, 0.0000,-51.6594, 194.7283,-528.2654,-9.6673, 38.2653,-49.8966
15-Mar-2018 18:06:12.408, 0.0144, 0.0146,-0.9889,-0.0296, 0.0518,-0.0068, 0.0139,-0.0154,-1.8404,44.567600,-123.274492,-2.2369, 31.3881, 241.487137,Stationary,High, 0.0000, 0.0000,-51.6594, 194.7283,-528.2654,-9.6673, 38.2653,-49.8966
15-Mar-2018 18:06:12.416, 0.0136, 0.0149,-0.9911,-0.0318, 0.0529,-0.0058, 0.0139,-0.0154,-1.8404,44.567600,-123.274492,-2.2369, 31.3881, 241.487137,Stationary,High, 0.0000, 0.0000,-70.7199, 190.9628,-513.0893,-9.6663, 38.2654,-49.8966
15-Mar-2018 18:06:12.424, 0.0121, 0.0143,-0.9880,-0.0296, 0.0518,-0.0079, 0.0139,-0.0154,-1.8404,44.567600,-123.274492,-2.2369, 31.3881, 241.487137,Stationary,High, 0.0000, 0.0000,-70.7199, 190.9628,-513.0893,-9.6650, 38.2658,-49.8966
15-Mar-2018 18:06:12.435, 0.0141, 0.0154,-0.9915,-0.0296, 0.0518,-0.0079, 0.0139,-0.0154,-1.8404,44.567600,-123.274492,-2.2369, 31.3881, 241.487137,Stationary,High, 0.0000, 0.0000,-70.7199, 190.9628,-513.0893,-9.6650, 38.2658,-49.8966
15-Mar-2018 18:06:12.446, 0.0143, 0.0136,-0.9893,-0.0296, 0.0529,-0.0068, 0.0139,-0.0154,-1.8404,44.567600,-123.274492,-2.2369, 31.3881, 241.487137,Stationary,High, 0.0000, 0.0000,-70.7199, 190.9628,-513.0893,-9.6657, 38.2653,-49.8969
15-Mar-2018 18:06:12.455, 0.0141, 0.0157,-0.9903,-0.0307, 0.0529,-0.0068, 0.0139,-0.0154,-1.8403,44.567600,-123.274492,-2.2369, 31.3881, 241.487137,Stationary,High, 0.0000, 0.0000,-77.8454, 193.1145,-495.3554,-9.6669, 38.2645,-49.8972
15-Mar-2018 18:06:12.464, 0.0141, 0.0156,-0.9913,-0.0307, 0.0529,-0.0068, 0.0139,-0.0154,-1.8403,44.567600,-123.274492,-2.2369, 31.3881, 241.487137,Stationary,High, 0.0000, 0.0000,-77.8454, 193.1145,-495.3554,-9.6669, 38.2645,-49.8972
15-Mar-2018 18:06:12.474, 0.0142, 0.0150,-0.9893,-0.0307, 0.0529,-0.0068, 0.0139,-0.0154,-1.8403,44.567600,-123.274492,-2.2369, 31.3881, 241.487137,Stationary,High, 0.0000, 0.0000,-77.8454, 193.1145,-495.3554,-9.6659, 38.2630,-49.8986
15-Mar-2018 18:06:12.483, 0.0141, 0.0159,-0.9905,-0.0296, 0.0529,-0.0079, 0.0139,-0.0154,-1.8403,44.567600,-123.274492,-2.2369, 31.3881, 241.487137,Stationary,High, 0.0000, 0.0000,-77.8454, 193.1145,-495.3554,-9.6652, 38.2643,-49.8977
15-Mar-2018 18:06:12.495, 0.0135, 0.0151,-0.9892,-0.0296, 0.0529,-0.0079, 0.0139,-0.0154,-1.8403,44.567600,-123.274492,-2.2369, 31.3881, 241.487137,Stationary,High, 0.0000, 0.0000,-85.1489, 198.6730,-482.2255,-9.6652, 38.2643,-49.8977
15-Mar-2018 18:06:12.506, 0.0127, 0.0146,-0.9900,-0.0307, 0.0539,-0.0068, 0.0139,-0.0154,-1.8403,44.567600,-123.274492,-2.2369, 31.3881, 241.487137,Stationary,High, 0.0000, 0.0000,-85.1489, 198.6730,-482.2255,-9.6642, 38.2653,-49.8971
15-Mar-2018 18:06:12.513, 0.0140, 0.0134,-0.9885,-0.0296, 0.0539,-0.0079, 0.0139,-0.0154,-1.8403,44.567600,-123.274492,-2.2369, 31.3881, 241.487137,Stationary,High, 0.0000, 0.0000,-85.1489, 198.6730,-482.2255,-9.6640, 38.2662,-49.8965
15-Mar-2018 18:06:12.523, 0.0164, 0.0143,-0.9906,-0.0296, 0.0539,-0.0079, 0.0139,-0.0154,-1.8403,44.567600,-123.274492,-2.2369, 31.3881, 241.487137,Stationary,High, 0.0000, 0.0000,-85.1489, 198.6730,-482.2255,-9.6640, 38.2662,-49.8965
15-Mar-2018 18:06:12.532, 0.0141, 0.0154,-0.9875,-0.0317, 0.0539,-0.0079, 0.0139,-0.0154,-1.8403,44.567600,-123.274492,-2.2369, 31.3881, 241.487137,Stationary,High, 0.0000, 0.0000,-85.1489, 198.6730,-482.2255,-9.6649, 38.2653,-49.8970
15-Mar-2018 18:06:12.542, 0.0147, 0.0148,-0.9883,-0.0296, 0.0529,-0.0079, 0.0140,-0.0154,-1.8403,44.567600,-123.274492,-2.2369, 31.3881, 241.487137,Stationary,High, 0.0000, 0.0000,-92.4525, 204.9488,-465.6852,-9.6616, 38.2632,-49.8992
15-Mar-2018 18:06:12.553, 0.0130, 0.0146,-0.9891,-0.0296, 0.0529,-0.0079, 0.0140,-0.0154,-1.8403,44.567600,-123.274492,-2.2369, 31.3881, 241.487137,Stationary,High, 0.0000, 0.0000,-92.4525, 204.9488,-465.6852,-9.6616, 38.2632,-49.8992
15-Mar-2018 18:06:12.564, 0.0121, 0.0144,-0.9912,-0.0296, 0.0539,-0.0089, 0.0140,-0.0154,-1.8403,44.567600,-123.274492,-2.2369, 31.3881, 241.487137,Stationary,High, 0.0000, 0.0000,-92.4525, 204.9488,-465.6852,-9.6613, 38.2639,-49.8987
15-Mar-2018 18:06:12.571, 0.0148, 0.0151,-0.9902,-0.0307, 0.0518,-0.0068, 0.0139,-0.0154,-1.8403,44.567600,-123.274492,-2.2369, 31.3881, 241.487137,Stationary,High, 0.0000, 0.0000,-94.7683, 211.5832,-449.1450,-9.6610, 38.2631,-49.8995
15-Mar-2018 18:06:12.581, 0.0125, 0.0145,-0.9887,-0.0307, 0.0518,-0.0068, 0.0139,-0.0154,-1.8403,44.567600,-123.274492,-2.2369, 31.3881, 241.487137,Stationary,High, 0.0000, 0.0000,-94.7683, 211.5832,-449.1450,-9.6610, 38.2631,-49.8995
15-Mar-2018 18:06:12.594, 0.0123, 0.0148,-0.9884,-0.0296, 0.0550,-0.0079, 0.0139,-0.0154,-1.8403,44.567600,-123.274492,-2.2369, 31.3881, 241.487137,Stationary,High, 0.0000, 0.0000,-94.7683, 211.5832,-449.1450,-9.6631, 38.2632,-49.8989
15-Mar-2018 18:06:12.601, 0.0130, 0.0153,-0.9899,-0.0296, 0.0539,-0.0079, 0.0139,-0.0153,-1.8403,44.567600,-123.274492,-2.2369, 31.3881, 241.487137,Stationary,High, 0.0000, 0.0000,-94.7683, 211.5832,-449.1450,-9.6631, 38.2625,-49.8995
15-Mar-2018 18:06:12.611, 0.0129, 0.0145,-0.9879,-0.0296, 0.0539,-0.0079, 0.0139,-0.0153,-1.8403,44.567600,-123.274492,-2.2369, 31.3881, 241.487137,Stationary,High, 0.0000, 0.0000,-94.9464, 216.0659,-430.8995,-9.6631, 38.2625,-49.8995
15-Mar-2018 18:06:12.621, 0.0142, 0.0150,-0.9890,-0.0307, 0.0529,-0.0068, 0.0138,-0.0153,-1.8403,44.567600,-123.274492,-2.2369, 31.3881, 241.487137,Stationary,High, 0.0000, 0.0000,-94.9464, 216.0659,-430.8995,-9.6649, 38.2614,-49.9000
15-Mar-2018 18:06:12.630, 0.0152, 0.0143,-0.9899,-0.0296, 0.0529,-0.0068, 0.0139,-0.0153,-1.8403,44.567600,-123.274492,-2.2369, 31.3881, 241.487137,Stationary,High, 0.0000, 0.0000,-94.9464, 216.0659,-430.8995,-9.6660, 38.2614,-49.8998
15-Mar-2018 18:06:12.641, 0.0145, 0.0155,-0.9896,-0.0318, 0.0539,-0.0058, 0.0139,-0.0153,-1.8403,44.567600,-123.274492,-2.2369, 31.3881, 241.487137,Stationary,High, 0.0000, 0.0000,-94.9464, 216.0659,-430.8995,-9.6652, 38.2615,-49.8999
15-Mar-2018 18:06:12.650, 0.0140, 0.0150,-0.9885,-0.0296, 0.0539,-0.0068, 0.0139,-0.0153,-1.8402,44.567600,-123.274492,-2.2369, 31.3881, 241.487137,Stationary,High, 0.0000, 0.0000,-97.0840, 217.8590,-410.0963,-9.6652, 38.2615,-49.8999
15-Mar-2018 18:06:12.660, 0.0123, 0.0150,-0.9890,-0.0296, 0.0539,-0.0079, 0.0139,-0.0153,-1.8402,44.567600,-123.274492,-2.2369, 31.3881, 241.487137,Stationary,High, 0.0000, 0.0000,-97.0840, 217.8590,-410.0963,-9.6619, 38.2617,-49.9004
15-Mar-2018 18:06:12.672, 0.0143, 0.0146,-0.9897,-0.0296, 0.0529,-0.0068, 0.0139,-0.0153,-1.8402,44.567600,-123.274492,-2.2369, 31.3881, 241.487137,Stationary,High, 0.0000, 0.0000,-97.0840, 217.8590,-410.0963,-9.6614, 38.2613,-49.9008
15-Mar-2018 18:06:12.680, 0.0135, 0.0139,-0.9886,-0.0307, 0.0539,-0.0068, 0.0139,-0.0153,-1.8402,44.567600,-123.274492,-2.2369, 31.3881, 241.487137,Stationary,High, 0.0000, 0.0000,-97.0840, 217.8590,-410.0963,-9.6614, 38.2613,-49.9008
15-Mar-2018 18:06:12.689, 0.0134, 0.0146,-0.9880,-0.0307, 0.0518,-0.0079, 0.0139,-0.0153,-1.8402,44.567600,-123.274492,-2.2369, 31.3881, 241.487137,Stationary,High, 0.0000, 0.0000,-101.5374, 221.9831,-394.5792,-9.6611, 38.2610,-49.9010
15-Mar-2018 18:06:12.707, 0.0131, 0.0149,-0.9917,-0.0307, 0.0529,-0.0079, 0.0139,-0.0153,-1.8402,44.567600,-123.274492,-2.2369, 31.3881, 241.487137,Stationary,High, 0.0000, 0.0000,-101.5374, 221.9831,-394.5792,-9.6622, 38.2600,-49.9016
15-Mar-2018 18:06:12.721, 0.0150, 0.0156,-0.9889,-0.0286, 0.0529,-0.0068, 0.0138,-0.0153,-1.8402,44.567600,-123.274492,-2.2369, 31.3881, 241.487137,Stationary,High, 0.0000, 0.0000,-101.5374, 221.9831,-394.5792,-9.6633, 38.2591,-49.9021
15-Mar-2018 18:06:12.727, 0.0150, 0.0156,-0.9889,-0.0286, 0.0529,-0.0068, 0.0138,-0.0153,-1.8402,44.567600,-123.274492,-2.2369, 31.3881, 241.487137,Stationary,High, 0.0000, 0.0000,-101.5374, 221.9831,-394.5792,-9.6633, 38.2591,-49.9021
15-Mar-2018 18:06:12.733, 0.0149, 0.0154,-0.9883,-0.0286, 0.0529,-0.0068, 0.0138,-0.0153,-1.8402,44.567600,-123.274492,-2.2369, 31.3881, 241.487137,Stationary,High, 0.0000, 0.0000,-108.4847, 225.3899,-379.4030,-9.6633, 38.2591,-49.9021
15-Mar-2018 18:06:12.739, 0.0118, 0.0150,-0.9888,-0.0318, 0.0539,-0.0069, 0.0139,-0.0153,-1.8402,44.567600,-123.274492,-2.2369, 31.3881, 241.487137,Stationary,High, 0.0000, 0.0000,-108.4847, 225.3899,-379.4030,-9.6633, 38.2586,-49.9025
15-Mar-2018 18:06:12.748, 0.0118, 0.0164,-0.9874,-0.0296, 0.0529,-0.0079, 0.0138,-0.0153,-1.8402,44.567600,-123.274492,-2.2369, 31.3881, 241.487137,Stationary,High, 0.0000, 0.0000,-108.4847, 225.3899,-379.4030,-9.6619, 38.2597,-49.9019
15-Mar-2018 18:06:12.758, 0.0130, 0.0147,-0.9880,-0.0296, 0.0529,-0.0079, 0.0138,-0.0153,-1.8402,44.567600,-123.274492,-2.2369, 31.3881, 241.487137,Stationary,High, 0.0000, 0.0000,-108.4847, 225.3899,-379.4030,-9.6619, 38.2597,-49.9019
15-Mar-2018 18:06:12.771, 0.0129, 0.0153,-0.9895,-0.0307, 0.0539,-0.0068, 0.0138,-0.0153,-1.8402,44.567600,-123.274492,-2.2369, 31.3881, 241.487137,Stationary,High, 0.0000, 0.0000,-108.4847, 225.3899,-379.4030,-9.6636, 38.2599,-49.9014
15-Mar-2018 18:06:12.779, 0.0125, 0.0150,-0.9888,-0.0307, 0.0550,-0.0079, 0.0138,-0.0153,-1.8402,44.567600,-123.274492,-2.2369, 31.3881, 241.487137,Stationary,High, 99.4806, 0.0000,-117.3915, 229.6933,-366.7847,-9.6653, 38.2612,-49.9001
15-Mar-2018 18:06:12.787, 0.0139, 0.0141,-0.9898,-0.0307, 0.0550,-0.0079, 0.0138,-0.0153,-1.8402,44.567600,-123.274492,-2.2369, 31.3881, 241.487137,Stationary,High, 99.4806, 0.0000,-117.3915, 229.6933,-366.7847,-9.6653, 38.2612,-49.9001
15-Mar-2018 18:06:12.797, 0.0146, 0.0174,-0.9897,-0.0307, 0.0550,-0.0068, 0.0138,-0.0153,-1.8402,44.567600,-123.274492,-2.2369, 31.3881, 241.487137,Stationary,High, 99.4806, 0.0000,-117.3915, 229.6933,-366.7847,-9.6649, 38.2618,-49.8997
15-Mar-2018 18:06:12.807, 0.0123, 0.0153,-0.9869,-0.0307, 0.0539,-0.0079, 0.0138,-0.0154,-1.8402,44.567591,-123.274495,-2.2369, 31.3881, 241.449219,Stationary,High, 99.4806, 0.0000,-117.3915, 229.6933,-366.7847,-9.6657, 38.2620,-49.8993
15-Mar-2018 18:06:12.817, 0.0143, 0.0147,-0.9905,-0.0307, 0.0539,-0.0079, 0.0138,-0.0154,-1.8402,44.567591,-123.274495,-2.2369, 31.3881, 241.449219,Stationary,High, 99.4806, 0.0000,-135.9177, 240.8104,-356.8946,-9.6657, 38.2620,-49.8993
15-Mar-2018 18:06:12.827, 0.0139, 0.0150,-0.9888,-0.0307, 0.0529,-0.0068, 0.0138,-0.0154,-1.8402,44.567591,-123.274495,-2.2369, 31.3881, 241.449219,Stationary,High, 99.4806, 0.0000,-135.9177, 240.8104,-356.8946,-9.6644, 38.2645,-49.8977
15-Mar-2018 18:06:12.837, 0.0132, 0.0158,-0.9891,-0.0307, 0.0529,-0.0068, 0.0138,-0.0154,-1.8402,44.567591,-123.274495,-2.2369, 31.3881, 241.449219,Stationary,High, 99.4806, 0.0000,-135.9177, 240.8104,-356.8946,-9.6652, 38.2650,-49.8972
15-Mar-2018 18:06:12.846, 0.0145, 0.0151,-0.9899,-0.0307, 0.0529,-0.0068, 0.0138,-0.0154,-1.8402,44.567591,-123.274495,-2.2369, 31.3881, 241.449219,Stationary,High, 99.4806, 0.0000,-135.9177, 240.8104,-356.8946,-9.6652, 38.2650,-49.8972
15-Mar-2018 18:06:12.856, 0.0152, 0.0143,-0.9886,-0.0328, 0.0529,-0.0069, 0.0137,-0.0154,-1.8402,44.567591,-123.274495,-2.2369, 31.3881, 241.449219,Stationary,High, 99.4806, 0.0000,-156.9377, 254.0792,-352.4612,-9.6658, 38.2648,-49.8972
15-Mar-2018 18:06:12.867, 0.0150, 0.0138,-0.9881,-0.0296, 0.0528,-0.0090, 0.0138,-0.0154,-1.8402,44.567591,-123.274495,-2.2369, 31.3881, 241.449219,Stationary,High, 99.4806, 0.0000,-156.9377, 254.0792,-352.4612,-9.6660, 38.2664,-49.8960
15-Mar-2018 18:06:12.876, 0.0156, 0.0157,-0.9888,-0.0296, 0.0528,-0.0090, 0.0138,-0.0154,-1.8402,44.567591,-123.274495,-2.2369, 31.3881, 241.449219,Stationary,High, 99.4806, 0.0000,-156.9377, 254.0792,-352.4612,-9.6660, 38.2664,-49.8960
15-Mar-2018 18:06:12.886, 0.0150, 0.0152,-0.9908,-0.0318, 0.0550,-0.0069, 0.0138,-0.0154,-1.8402,44.567591,-123.274495,-2.2369, 31.3881, 241.449219,Stationary,High, 99.4806, 0.0000,-156.9377, 254.0792,-352.4612,-9.6650, 38.2653,-49.8970
15-Mar-2018 18:06:12.897, 0.0136, 0.0155,-0.9861,-0.0286, 0.0518,-0.0068, 0.0139,-0.0154,-1.8402,44.567591,-123.274495,-2.2369, 31.3881, 241.449219,Stationary,High, 99.4806, 0.0000,-177.0670, 260.3549,-345.8109,-9.6624, 38.2661,-49.8969
15-Mar-2018 18:06:12.906, 0.0136, 0.0159,-0.9894,-0.0286, 0.0518,-0.0068, 0.0139,-0.0154,-1.8402,44.567591,-123.274495,-2.2369, 31.3881, 241.449219,Stationary,High, 99.4806, 0.0000,-177.0670, 260.3549,-345.8109,-9.6624, 38.2661,-49.8969
15-Mar-2018 18:06:12.917, 0.0143, 0.0163,-0.9880,-0.0307, 0.0550,-0.0068, 0.0139,-0.0154,-1.8401,44.567591,-123.274495,-2.2369, 31.3881, 241.449219,Stationary,High, 99.4806, 0.0000,-177.0670, 260.3549,-345.8109,-9.6604, 38.2655,-49.8977
15-Mar-2018 18:06:12.926, 0.0147, 0.0150,-0.9899,-0.0317, 0.0528,-0.0079, 0.0139,-0.0154,-1.8401,44.567591,-123.274495,-2.2369, 31.3881, 241.449219,Stationary,High, 99.4806, 0.0000,-177.0670, 260.3549,-345.8109,-9.6601, 38.2666,-49.8969
15-Mar-2018 18:06:12.936, 0.0133, 0.0160,-0.9884,-0.0318, 0.0518,-0.0069, 0.0139,-0.0155,-1.8401,44.567591,-123.274495,-2.2369, 31.3881, 241.449219,Stationary,High, 99.4806, 0.0000,-195.0588, 264.1204,-340.5249,-9.6598, 38.2683,-49.8957
15-Mar-2018 18:06:12.946, 0.0131, 0.0148,-0.9868,-0.0286, 0.0529,-0.0068, 0.0138,-0.0154,-1.8401,44.567591,-123.274495,-2.2369, 31.3881, 241.449219,Stationary,High, 99.4806, 0.0000,-195.0588, 264.1204,-340.5249,-9.6594, 38.2686,-49.8955
15-Mar-2018 18:06:12.955, 0.0156, 0.0151,-0.9893,-0.0286, 0.0529,-0.0057, 0.0138,-0.0154,-1.8401,44.567591,-123.274495,-2.2369, 31.3881, 241.449219,Stationary,High, 99.4806, 0.0000,-195.0588, 264.1204,-340.5249,-9.6601, 38.2688,-49.8952
15-Mar-2018 18:06:12.966, 0.0136, 0.0159,-0.9888,-0.0317, 0.0528,-0.0079, 0.0139,-0.0154,-1.8401,44.567591,-123.274495,-2.2369, 31.3881, 241.449219,Stationary,High, 99.4806, 0.0000,-195.0588, 264.1204,-340.5249,-9.6606, 38.2677,-49.8960
15-Mar-2018 18:06:12.976, 0.0131, 0.0163,-0.9845,-0.0307, 0.0518,-0.0079, 0.0139,-0.0155,-1.8401,44.567591,-123.274495,-2.2369, 31.3881, 241.449219,Stationary,High, 99.4806, 0.0000,-207.8846, 265.9135,-334.0452,-9.6587, 38.2680,-49.8961
15-Mar-2018 18:06:12.985, 0.0147, 0.0153,-0.9870,-0.0317, 0.0571,-0.0079, 0.0139,-0.0155,-1.8401,44.567591,-123.274495,-2.2369, 31.3881, 241.449219,Stationary,High, 99.4806, 0.0000,-207.8846, 265.9135,-334.0452,-9.6592, 38.2687,-49.8955
15-Mar-2018 18:06:12.995, 0.0134, 0.0138,-0.9894,-0.0307, 0.0529,-0.0068, 0.0139,-0.0155,-1.8401,44.567591,-123.274495,-2.2369, 31.3881, 241.449219,Stationary,High, 99.4806, 0.0000,-207.8846, 265.9135,-334.0452,-9.6591, 38.2704,-49.8943
15-Mar-2018 18:06:13.009, 0.0141, 0.0147,-0.9874,-0.0307, 0.0529,-0.0068, 0.0139,-0.0155,-1.8401,44.567591,-123.274495,-2.2369, 31.3881, 241.449219,Stationary,High, 99.4806, 0.0000,-207.8846, 265.9135,-334.0452,-9.6579, 38.2707,-49.8942
15-Mar-2018 18:06:13.017, 0.0148, 0.0166,-0.9864,-0.0328, 0.0560,-0.0079, 0.0139,-0.0155,-1.8401,44.567591,-123.274495,-2.2369, 31.3881, 241.449219,Stationary,High, 99.4806, 0.0000,-222.1354, 267.3480,-328.2476,-9.6586, 38.2695,-49.8950
15-Mar-2018 18:06:13.023, 0.0129, 0.0167,-0.9891,-0.0328, 0.0560,-0.0079, 0.0139,-0.0155,-1.8401,44.567591,-123.274495,-2.2369, 31.3881, 241.449219,Stationary,High, 99.4806, 0.0000,-222.1354, 267.3480,-328.2476,-9.6586, 38.2695,-49.8950
15-Mar-2018 18:06:13.033, 0.0135, 0.0146,-0.9889,-0.0296, 0.0529,-0.0068, 0.0139,-0.0155,-1.8401,44.567591,-123.274495,-2.2369, 31.3881, 241.449219,Stationary,High, 99.4806, 0.0000,-222.1354, 267.3480,-328.2476,-9.6557, 38.2697,-49.8954
15-Mar-2018 18:06:13.043, 0.0142, 0.0147,-0.9898,-0.0296, 0.0529,-0.0068, 0.0139,-0.0155,-1.8401,44.567591,-123.274495,-2.2369, 31.3881, 241.449219,Stationary,High, 99.4806, 0.0000,-222.1354, 267.3480,-328.2476,-9.6557, 38.2697,-49.8954
15-Mar-2018 18:06:13.053, 0.0150, 0.0152,-0.9900,-0.0158, 0.0476,-0.0066, 0.0138,-0.0154,-1.8401,44.567591,-123.274495,-2.2369, 31.3881, 241.449219,Stationary,High, 99.4806, 0.0000,-232.2892, 273.2651,-325.3488,-9.6574, 38.2716,-49.8936
15-Mar-2018 18:06:13.070, 0.0137, 0.0163,-0.9889,-0.0296, 0.0507,-0.0079, 0.0138,-0.0154,-1.8401,44.567591,-123.274495,-2.2369, 31.3881, 241.449219,Stationary,High, 99.4806, 0.0000,-232.2892, 273.2651,-325.3488,-9.6611, 38.2675,-49.8961
15-Mar-2018 18:06:13.078, 0.0124, 0.0147,-0.9892,-0.0328, 0.0507,-0.0079, 0.0138,-0.0154,-1.8401,44.567591,-123.274495,-2.2369, 31.3881, 241.449219,Stationary,High, 99.4806, 0.0000,-232.2892, 273.2651,-325.3488,-9.6607, 38.2661,-49.8972
15-Mar-2018 18:06:13.090, 0.0148, 0.0158,-0.9870,-0.0307, 0.0528,-0.0090, 0.0137,-0.0154,-1.8401,44.567591,-123.274495,-2.2369, 31.3881, 241.449219,Stationary,High, 99.4806, 0.0000,-232.2892, 273.2651,-325.3488,-9.6613, 38.2687,-49.8951
15-Mar-2018 18:06:13.095, 0.0128, 0.0137,-0.9887,-0.0296, 0.0550,-0.0068, 0.0138,-0.0154,-1.8401,44.567591,-123.274495,-2.2369, 31.3881, 241.449219,Stationary,High, 99.4806, 0.0000,-236.0300, 275.2375,-311.8778,-9.6632, 38.2684,-49.8950
15-Mar-2018 18:06:13.102, 0.0130, 0.0148,-0.9876,-0.0296, 0.0550,-0.0068, 0.0138,-0.0154,-1.8401,44.567591,-123.274495,-2.2369, 31.3881, 241.449219,Stationary,High, 99.4806, 0.0000,-236.0300, 275.2375,-311.8778,-9.6632, 38.2684,-49.8950
15-Mar-2018 18:06:13.122, 0.0145, 0.0150,-0.9873,-0.0318, 0.0571,-0.0058, 0.0138,-0.0154,-1.8401,44.567591,-123.274495,-2.2369, 31.3881, 241.449219,Stationary,High, 99.4806, 0.0000,-236.0300, 275.2375,-311.8778,-9.6621, 38.2671,-49.8962
15-Mar-2018 18:06:13.126, 0.0145, 0.0150,-0.9873,-0.0318, 0.0571,-0.0058, 0.0138,-0.0154,-1.8401,44.567591,-123.274495,-2.2369, 31.3881, 241.449219,Stationary,High, 99.4806, 0.0000,-236.0300, 275.2375,-311.8778,-9.6621, 38.2671,-49.8962
15-Mar-2018 18:06:13.131, 0.0136, 0.0150,-0.9870,-0.0296, 0.0518,-0.0079, 0.0138,-0.0154,-1.8401,44.567591,-123.274495,-2.2369, 31.3881, 241.449219,Stationary,High, 99.4806, 0.0000,-236.0300, 275.2375,-311.8778,-9.6610, 38.2676,-49.8960
15-Mar-2018 18:06:13.141, 0.0140, 0.0169,-0.9883,-0.0307, 0.0539,-0.0079, 0.0138,-0.0154,-1.8401,44.567591,-123.274495,-2.2369, 31.3881, 241.449219,Stationary,High, 99.4806, 0.0000,-238.7021, 271.4720,-295.3376,-9.6624, 38.2674,-49.8958
15-Mar-2018 18:06:13.152, 0.0150, 0.0163,-0.9891,-0.0307, 0.0539,-0.0079, 0.0138,-0.0154,-1.8401,44.567591,-123.274495,-2.2369, 31.3881, 241.449219,Stationary,High, 99.4806, 0.0000,-238.7021, 271.4720,-295.3376,-9.6624, 38.2674,-49.8958
15-Mar-2018 18:06:13.161, 0.0130, 0.0154,-0.9900,-0.0307, 0.0518,-0.0058, 0.0138,-0.0155,-1.8400,44.567591,-123.274495,-2.2369, 31.3881, 241.449219,Stationary,High, 99.4806, 0.0000,-238.7021, 271.4720,-295.3376,-9.6615, 38.2683,-49.8953
15-Mar-2018 18:06:13.171, 0.0144, 0.0148,-0.9885,-0.0307, 0.0539,-0.0079, 0.0138,-0.0155,-1.8400,44.567591,-123.274495,-2.2369, 31.3881, 241.449219,Stationary,High, 99.4806, 0.0000,-238.7021, 271.4720,-295.3376,-9.6596, 38.2716,-49.8932
15-Mar-2018 18:06:13.184, 0.0144, 0.0139,-0.9875,-0.0307, 0.0539,-0.0068, 0.0138,-0.0155,-1.8400,44.567591,-123.274495,-2.2369, 31.3881, 241.449219,Stationary,High, 99.4806, 0.0000,-245.6494, 275.5961,-280.5024,-9.6602, 38.2724,-49.8925
15-Mar-2018 18:06:13.189, 0.0137, 0.0153,-0.9879,-0.0307, 0.0539,-0.0068, 0.0138,-0.0155,-1.8400,44.567591,-123.274495,-2.2369, 31.3881, 241.449219,Stationary,High, 99.4806, 0.0000,-245.6494, 275.5961,-280.5024,-9.6602, 38.2724,-49.8925
15-Mar-2018 18:06:13.200, 0.0130, 0.0150,-0.9865,-0.0307, 0.0518,-0.0068, 0.0138,-0.0155,-1.8400,44.567591,-123.274495,-2.2369, 31.3881, 241.449219,Stationary,High, 99.4806, 0.0000,-245.6494, 275.5961,-280.5024,-9.6593, 38.2722,-49.8928
15-Mar-2018 18:06:13.211, 0.0127, 0.0143,-0.9890,-0.0307, 0.0529,-0.0068, 0.0138,-0.0155,-1.8400,44.567591,-123.274495,-2.2369, 31.3881, 241.449219,Stationary,High, 99.4806, 0.0000,-245.6494, 275.5961,-280.5024,-9.6594, 38.2726,-49.8924
15-Mar-2018 18:06:13.220, 0.0158, 0.0162,-0.9893,-0.0286, 0.0529,-0.0068, 0.0137,-0.0155,-1.8400,44.567591,-123.274495,-2.2369, 31.3881, 241.449219,Stationary,High, 99.4806, 0.0000,-256.8719, 278.6443,-262.9391,-9.6604, 38.2727,-49.8922
15-Mar-2018 18:06:13.230, 0.0166, 0.0141,-0.9871,-0.0318, 0.0529,-0.0069, 0.0138,-0.0155,-1.8400,44.567591,-123.274495,-2.2369, 31.3881, 241.449219,Stationary,High, 99.4806, 0.0000,-256.8719, 278.6443,-262.9391,-9.6613, 38.2712,-49.8932
15-Mar-2018 18:06:13.240, 0.0160, 0.0142,-0.9875,-0.0296, 0.0539,-0.0079, 0.0138,-0.0155,-1.8400,44.567591,-123.274495,-2.2369, 31.3881, 241.449219,Stationary,High, 99.4806, 0.0000,-256.8719, 278.6443,-262.9391,-9.6613, 38.2712,-49.8932
15-Mar-2018 18:06:13.249, 0.0137, 0.0150,-0.9880,-0.0296, 0.0518,-0.0068, 0.0139,-0.0155,-1.8400,44.567591,-123.274495,-2.2369, 31.3881, 241.449219,Stationary,High, 99.4806, 0.0000,-256.8719, 278.6443,-262.9391,-9.6562, 38.2713,-49.8941
15-Mar-2018 18:06:13.259, 0.0115, 0.0148,-0.9874,-0.0318, 0.0560,-0.0069, 0.0139,-0.0155,-1.8400,44.567591,-123.274495,-2.2369, 31.3881, 241.449219,Stationary,High, 99.4806, 0.0000,-276.2887, 285.2787,-248.7861,-9.6542, 38.2706,-49.8950
15-Mar-2018 18:06:13.271, 0.0153, 0.0145,-0.9881,-0.0317, 0.0528,-0.0079, 0.0138,-0.0155,-1.8400,44.567591,-123.274495,-2.2369, 31.3881, 241.449219,Stationary,High, 99.4806, 0.0000,-276.2887, 285.2787,-248.7861,-9.6531, 38.2709,-49.8950
15-Mar-2018 18:06:13.279, 0.0133, 0.0141,-0.9885,-0.0307, 0.0518,-0.0068, 0.0139,-0.0155,-1.8400,44.567591,-123.274495,-2.2369, 31.3881, 241.449219,Stationary,High, 99.4806, 0.0000,-276.2887, 285.2787,-248.7861,-9.6550, 38.2710,-49.8946
15-Mar-2018 18:06:13.289, 0.0129, 0.0152,-0.9894,-0.0296, 0.0539,-0.0068, 0.0139,-0.0154,-1.8400,44.567591,-123.274495,-2.2369, 31.3881, 241.449219,Stationary,High, 99.4806, 0.0000,-276.2887, 285.2787,-248.7861,-9.6533, 38.2706,-49.8952
15-Mar-2018 18:06:13.300, 0.0139, 0.0145,-0.9880,-0.0286, 0.0529,-0.0079, 0.0138,-0.0154,-1.8400,44.567591,-123.274495,-2.2369, 31.3881, 241.449219,Stationary,High, 99.4806, 0.0000,-303.7216, 292.8097,-236.8498,-9.6533, 38.2693,-49.8962
15-Mar-2018 18:06:13.308, 0.0124, 0.0155,-0.9882,-0.0317, 0.0528,-0.0090, 0.0138,-0.0154,-1.8400,44.567591,-123.274495,-2.2369, 31.3881, 241.449219,Stationary,High, 99.4806, 0.0000,-303.7216, 292.8097,-236.8498,-9.6539, 38.2691,-49.8963
15-Mar-2018 18:06:13.318, 0.0137, 0.0138,-0.9871,-0.0296, 0.0539,-0.0068, 0.0138,-0.0154,-1.8400,44.567591,-123.274495,-2.2369, 31.3881, 241.449219,Stationary,High, 99.4806, 0.0000,-303.7216, 292.8097,-236.8498,-9.6537, 38.2686,-49.8967
15-Mar-2018 18:06:13.328, 0.0129, 0.0158,-0.9866,-0.0296, 0.0539,-0.0068, 0.0138,-0.0154,-1.8400,44.567591,-123.274495,-2.2369, 31.3881, 241.449219,Stationary,High, 99.4806, 0.0000,-303.7216, 292.8097,-236.8498,-9.6537, 38.2686,-49.8967
15-Mar-2018 18:06:13.338, 0.0136, 0.0153,-0.9870,-0.0307, 0.0539,-0.0068, 0.0138,-0.0154,-1.8399,44.567591,-123.274495,-2.2369, 31.3881, 241.449219,Stationary,High, 99.4806, 0.0000,-329.7295, 298.1889,-225.2546,-9.6540, 38.2693,-49.8960
15-Mar-2018 18:06:13.348, 0.0148, 0.0148,-0.9879,-0.0317, 0.0539,-0.0079, 0.0138,-0.0154,-1.8399,44.567591,-123.274495,-2.2369, 31.3881, 241.449219,Stationary,High, 99.4806, 0.0000,-329.7295, 298.1889,-225.2546,-9.6541, 38.2686,-49.8966
15-Mar-2018 18:06:13.363, 0.0139, 0.0152,-0.9884,-0.0307, 0.0518,-0.0058, 0.0139,-0.0154,-1.8399,44.567591,-123.274495,-2.2369, 31.3881, 241.449219,Stationary,High, 99.4806, 0.0000,-329.7295, 298.1889,-225.2546,-9.6537, 38.2691,-49.8963
15-Mar-2018 18:06:13.375, 0.0126, 0.0147,-0.9892,-0.0286, 0.0539,-0.0068, 0.0138,-0.0154,-1.8399,44.567591,-123.274495,-2.2369, 31.3881, 241.449219,Stationary,High, 99.4806, 0.0000,-329.7295, 298.1889,-225.2546,-9.6528, 38.2691,-49.8965
15-Mar-2018 18:06:13.380, 0.0123, 0.0148,-0.9867,-0.0296, 0.0550,-0.0079, 0.0138,-0.0154,-1.8399,44.567591,-123.274495,-2.2369, 31.3881, 241.449219,Stationary,High, 99.4806, 0.0000,-356.6280, 309.4853,-212.1247,-9.6522, 38.2687,-49.8969
15-Mar-2018 18:06:13.387, 0.0130, 0.0151,-0.9891,-0.0296, 0.0550,-0.0079, 0.0138,-0.0154,-1.8399,44.567591,-123.274495,-2.2369, 31.3881, 241.449219,Stationary,High, 99.4806, 0.0000,-356.6280, 309.4853,-212.1247,-9.6522, 38.2687,-49.8969
15-Mar-2018 18:06:13.403, 0.0157, 0.0145,-0.9880,-0.0286, 0.0508,-0.0057, 0.0138,-0.0154,-1.8399,44.567591,-123.274495,-2.2369, 31.3881, 241.449219,Stationary,High, 99.4806, 0.0000,-356.6280, 309.4853,-212.1247,-9.6529, 38.2677,-49.8975
15-Mar-2018 18:06:13.409, 0.0140, 0.0151,-0.9880,-0.0307, 0.0508,-0.0058, 0.0138,-0.0154,-1.8399,44.567591,-123.274495,-2.2369, 31.3881, 241.449219,Stationary,High, 99.4806, 0.0000,-356.6280, 309.4853,-212.1247,-9.6545, 38.2673,-49.8975
15-Mar-2018 18:06:13.416, 0.0135, 0.0151,-0.9882,-0.0307, 0.0508,-0.0058, 0.0138,-0.0154,-1.8399,44.567591,-123.274495,-2.2369, 31.3881, 241.449219,Stationary,High, 99.4806, 0.0000,-376.7574, 320.0645,-193.1971,-9.6545, 38.2673,-49.8975
15-Mar-2018 18:06:13.430, 0.0133, 0.0142,-0.9860,-0.0307, 0.0518,-0.0068, 0.0138,-0.0154,-1.8399,44.567591,-123.274495,-2.2369, 31.3881, 241.449219,Stationary,High, 99.4806, 0.0000,-376.7574, 320.0645,-193.1971,-9.6525, 38.2670,-49.8981
15-Mar-2018 18:06:13.437, 0.0137, 0.0145,-0.9870,-0.0286, 0.0518,-0.0068, 0.0138,-0.0154,-1.8399,44.567591,-123.274495,-2.2369, 31.3881, 241.449219,Stationary,High, 99.4806, 0.0000,-376.7574, 320.0645,-193.1971,-9.6525, 38.2670,-49.8981
15-Mar-2018 18:06:13.446, 0.0151, 0.0157,-0.9888,-0.0286, 0.0518,-0.0068, 0.0138,-0.0154,-1.8399,44.567591,-123.274495,-2.2369, 31.3881, 241.449219,Stationary,High, 99.4806, 0.0000,-376.7574, 320.0645,-193.1971,-9.6525, 38.2670,-49.8981
15-Mar-2018 18:06:13.463, 0.0150, 0.0140,-0.9867,-0.0296, 0.0529,-0.0068, 0.0138,-0.0153,-1.8398,44.567591,-123.274495,-2.2369, 31.3881, 241.449219,Stationary,High, 99.4806, 0.0000,-404.1903, 330.4643,-178.1915,-9.6535, 38.2671,-49.8978
15-Mar-2018 18:06:13.468, 0.0142, 0.0152,-0.9864,-0.0296, 0.0529,-0.0068, 0.0138,-0.0153,-1.8398,44.567591,-123.274495,-2.2369, 31.3881, 241.449219,Stationary,High, 99.4806, 0.0000,-404.1903, 330.4643,-178.1915,-9.6533, 38.2663,-49.8985
15-Mar-2018 18:06:13.475, 0.0141, 0.0149,-0.9888,-0.0296, 0.0529,-0.0068, 0.0138,-0.0153,-1.8398,44.567591,-123.274495,-2.2369, 31.3881, 241.449219,Stationary,High, 99.4806, 0.0000,-404.1903, 330.4643,-178.1915,-9.6533, 38.2663,-49.8985
15-Mar-2018 18:06:13.486, 0.0132, 0.0162,-0.9871,-0.0317, 0.0539,-0.0079, 0.0138,-0.0153,-1.8398,44.567591,-123.274495,-2.2369, 31.3881, 241.449219,Stationary,High, 99.4806, 0.0000,-404.1903, 330.4643,-178.1915,-9.6514, 38.2656,-49.8994
15-Mar-2018 18:06:13.496, 0.0125, 0.0152,-0.9878,-0.0296, 0.0529,-0.0068, 0.0138,-0.0154,-1.8398,44.567591,-123.274495,-2.2369, 31.3881, 241.449219,Stationary,High, 99.4806, 0.0000,-426.8135, 338.1746,-166.7668,-9.6505, 38.2660,-49.8993
15-Mar-2018 18:06:13.506, 0.0129, 0.0152,-0.9881,-0.0275, 0.0529,-0.0068, 0.0138,-0.0154,-1.8398,44.567591,-123.274495,-2.2369, 31.3881, 241.449219,Stationary,High, 99.4806, 0.0000,-426.8135, 338.1746,-166.7668,-9.6514, 38.2673,-49.8981
15-Mar-2018 18:06:13.523, 0.0137, 0.0138,-0.9871,-0.0296, 0.0539,-0.0079, 0.0138,-0.0154,-1.8398,44.567591,-123.274495,-2.2369, 31.3881, 241.449219,Stationary,High, 99.4806, 0.0000,-426.8135, 338.1746,-166.7668,-9.6525, 38.2670,-49.8981
15-Mar-2018 18:06:13.529, 0.0125, 0.0153,-0.9891,-0.0296, 0.0529,-0.0079, 0.0138,-0.0153,-1.8398,44.567591,-123.274495,-2.2369, 31.3881, 241.449219,Stationary,High, 99.4806, 0.0000,-426.8135, 338.1746,-166.7668,-9.6531, 38.2671,-49.8979
15-Mar-2018 18:06:13.535, 0.0126, 0.0150,-0.9890,-0.0296, 0.0529,-0.0079, 0.0138,-0.0153,-1.8398,44.567591,-123.274495,-2.2369, 31.3881, 241.449219,Stationary,High, 99.4806, 0.0000,-426.8135, 338.1746,-166.7668,-9.6531, 38.2671,-49.8979
15-Mar-2018 18:06:13.544, 0.0126, 0.0146,-0.9899,-0.0296, 0.0529,-0.0079, 0.0138,-0.0153,-1.8398,44.567591,-123.274495,-2.2369, 31.3881, 241.449219,Stationary,High, 99.4806, 0.0000,-442.4895, 338.1746,-159.2640,-9.6531, 38.2671,-49.8979
15-Mar-2018 18:06:13.556, 0.0124, 0.0160,-0.9890,-0.0296, 0.0529,-0.0079, 0.0137,-0.0153,-1.8398,44.567591,-123.274495,-2.2369, 31.3881, 241.449219,Stationary,High, 99.4806, 0.0000,-442.4895, 338.1746,-159.2640,-9.6526, 38.2659,-49.8989
15-Mar-2018 18:06:13.565, 0.0135, 0.0160,-0.9896,-0.0307, 0.0518,-0.0068, 0.0137,-0.0153,-1.8398,44.567591,-123.274495,-2.2369, 31.3881, 241.449219,Stationary,High, 99.4806, 0.0000,-442.4895, 338.1746,-159.2640,-9.6553, 38.2651,-49.8990
15-Mar-2018 18:06:13.580, 0.0122, 0.0157,-0.9887,-0.0307, 0.0529,-0.0068, 0.0137,-0.0154,-1.8398,44.567591,-123.274495,-2.2369, 31.3881, 241.449219,Stationary,High, 99.4806, 0.0000,-442.4895, 338.1746,-159.2640,-9.6566, 38.2668,-49.8974
15-Mar-2018 18:06:13.589, 0.0137, 0.0153,-0.9897,-0.0307, 0.0529,-0.0068, 0.0136,-0.0154,-1.8398,44.567591,-123.274495,-2.2369, 31.3881, 241.449219,Stationary,High, 99.4806, 0.0000,-454.7809, 330.8229,-152.2728,-9.6563, 38.2682,-49.8964
15-Mar-2018 18:06:13.593, 0.0146, 0.0160,-0.9890,-0.0307, 0.0529,-0.0068, 0.0136,-0.0154,-1.8398,44.567591,-123.274495,-2.2369, 31.3881, 241.449219,Stationary,High, 99.4806, 0.0000,-454.7809, 330.8229,-152.2728,-9.6563, 38.2682,-49.8964
15-Mar-2018 18:06:13.603, 0.0135, 0.0145,-0.9867,-0.0307, 0.0529,-0.0068, 0.0136,-0.0154,-1.8398,44.567591,-123.274495,-2.2369, 31.3881, 241.449219,Stationary,High, 99.4806, 0.0000,-454.7809, 330.8229,-152.2728,-9.6563, 38.2682,-49.8964
15-Mar-2018 18:06:13.615, 0.0144, 0.0153,-0.9868,-0.0307, 0.0550,-0.0058, 0.0136,-0.0154,-1.8397,44.567591,-123.274495,-2.2369, 31.3881, 241.449219,Stationary,High, 99.4806, 0.0000,-454.7809, 330.8229,-152.2728,-9.6576, 38.2693,-49.8954
15-Mar-2018 18:06:13.622, 0.0124, 0.0158,-0.9860,-0.0296, 0.0539,-0.0079, 0.0137,-0.0154,-1.8397,44.567591,-123.274495,-2.2369, 31.3881, 241.449219,Stationary,High, 99.4806, 0.0000,-473.1289, 327.0574,-155.5126,-9.6559, 38.2705,-49.8947
15-Mar-2018 18:06:13.638, 0.0139, 0.0156,-0.9882,-0.0296, 0.0539,-0.0068, 0.0136,-0.0154,-1.8397,44.567591,-123.274495,-2.2369, 31.3881, 241.449219,Stationary,High, 99.4806, 0.0000,-473.1289, 327.0574,-155.5126,-9.6545, 38.2705,-49.8950
15-Mar-2018 18:06:13.646, 0.0145, 0.0150,-0.9875,-0.0297, 0.0539,-0.0058, 0.0137,-0.0154,-1.8397,44.567591,-123.274495,-2.2369, 31.3881, 241.449219,Stationary,High, 99.4806, 0.0000,-473.1289, 327.0574,-155.5126,-9.6555, 38.2712,-49.8943
15-Mar-2018 18:06:13.652, 0.0150, 0.0147,-0.9861,-0.0297, 0.0539,-0.0058, 0.0137,-0.0154,-1.8397,44.567591,-123.274495,-2.2369, 31.3881, 241.449219,Stationary,High, 99.4806, 0.0000,-473.1289, 327.0574,-155.5126,-9.6555, 38.2712,-49.8943
15-Mar-2018 18:06:13.662, 0.0129, 0.0153,-0.9887,-0.0297, 0.0539,-0.0058, 0.0137,-0.0154,-1.8397,44.567591,-123.274495,-2.2369, 31.3881, 241.449219,Stationary,High, 99.4806, 0.0000,-497.8898, 326.1609,-155.0011,-9.6555, 38.2712,-49.8943
15-Mar-2018 18:06:13.674, 0.0150, 0.0155,-0.9882,-0.0296, 0.0539,-0.0079, 0.0137,-0.0154,-1.8397,44.567591,-123.274495,-2.2369, 31.3881, 241.449219,Stationary,High, 99.4806, 0.0000,-497.8898, 326.1609,-155.0011,-9.6543, 38.2715,-49.8943
15-Mar-2018 18:06:13.682, 0.0142, 0.0135,-0.9891,-0.0317, 0.0528,-0.0079, 0.0137,-0.0154,-1.8397,44.567591,-123.274495,-2.2369, 31.3881, 241.449219,Stationary,High, 99.4806, 0.0000,-497.8898, 326.1609,-155.0011,-9.6543, 38.2715,-49.8943
15-Mar-2018 18:06:13.691, 0.0138, 0.0150,-0.9898,-0.0317, 0.0528,-0.0079, 0.0137,-0.0154,-1.8397,44.567591,-123.274495,-2.2369, 31.3881, 241.449219,Stationary,High, 99.4806, 0.0000,-497.8898, 326.1609,-155.0011,-9.6543, 38.2715,-49.8943
15-Mar-2018 18:06:13.703, 0.0132, 0.0150,-0.9874,-0.0296, 0.0518,-0.0068, 0.0137,-0.0154,-1.8397,44.567591,-123.274495,-2.2369, 31.3881, 241.449219,Stationary,High, 99.4806, 0.0000,-532.2700, 329.9264,-152.4433,-9.6513, 38.2719,-49.8946
15-Mar-2018 18:06:13.711, 0.0133, 0.0162,-0.9903,-0.0328, 0.0539,-0.0079, 0.0137,-0.0154,-1.8397,44.567591,-123.274495,-2.2369, 31.3881, 241.449219,Stationary,High, 99.4806, 0.0000,-532.2700, 329.9264,-152.4433,-9.6513, 38.2719,-49.8946
15-Mar-2018 18:06:13.720, 0.0153, 0.0151,-0.9866,-0.0328, 0.0539,-0.0079, 0.0137,-0.0154,-1.8397,44.567591,-123.274495,-2.2369, 31.3881, 241.449219,Stationary,High, 99.4806, 0.0000,-532.2700, 329.9264,-152.4433,-9.6513, 38.2719,-49.8946
15-Mar-2018 18:06:13.733, 0.0141, 0.0140,-0.9879,-0.0296, 0.0529,-0.0068, 0.0137,-0.0154,-1.8397,44.567591,-123.274495,-2.2369, 31.3881, 241.449219,Stationary,High, 99.4806, 0.0000,-532.2700, 329.9264,-152.4433,-9.6515, 38.2716,-49.8948
15-Mar-2018 18:06:13.741, 0.0146, 0.0151,-0.9892,-0.0307, 0.0529,-0.0079, 0.0137,-0.0154,-1.8397,44.567591,-123.274495,-2.2369, 31.3881, 241.449219,Stationary,High, 99.4806, 0.0000,-573.5975, 334.5884,-146.9867,-9.6515, 38.2716,-49.8948
15-Mar-2018 18:06:13.750, 0.0142, 0.0170,-0.9894,-0.0307, 0.0529,-0.0079, 0.0137,-0.0154,-1.8397,44.567591,-123.274495,-2.2369, 31.3881, 241.449219,Stationary,High, 99.4806, 0.0000,-573.5975, 334.5884,-146.9867,-9.6515, 38.2716,-49.8948
15-Mar-2018 18:06:13.764, 0.0127, 0.0150,-0.9900,-0.0307, 0.0518,-0.0079, 0.0137,-0.0155,-1.8397,44.567591,-123.274495,-2.2369, 31.3881, 241.449219,Stationary,High, 99.4806, 0.0000,-573.5975, 334.5884,-146.9867,-9.6494, 38.2722,-49.8947
15-Mar-2018 18:06:13.770, 0.0119, 0.0163,-0.9889,-0.0307, 0.0518,-0.0079, 0.0137,-0.0155,-1.8397,44.567591,-123.274495,-2.2369, 31.3881, 241.449219,Stationary,High, 99.4806, 0.0000,-573.5975, 334.5884,-146.9867,-9.6494, 38.2722,-49.8947
15-Mar-2018 18:06:13.780, 0.0124, 0.0166,-0.9897,-0.0307, 0.0518,-0.0079, 0.0137,-0.0155,-1.8397,44.567591,-123.274495,-2.2369, 31.3881, 241.449219,Stationary,High, 99.4806, 0.0000,-619.0222, 344.4503,-138.6313,-9.6494, 38.2722,-49.8947
15-Mar-2018 18:06:13.789, 0.0130, 0.0161,-0.9879,-0.0296, 0.0529,-0.0079, 0.0137,-0.0155,-1.8397,44.567591,-123.274495,-2.2369, 31.3881, 241.449219,Stationary,High, 99.4805, 0.0079,-619.0222, 344.4503,-138.6313,-9.6481, 38.2737,-49.8938
15-Mar-2018 18:06:13.799, 0.0123, 0.0157,-0.9901,-0.0296, 0.0539,-0.0068, 0.0137,-0.0155,-1.8397,44.567591,-123.274495,-2.2369, 31.3881, 241.449219,Stationary,High, 99.4805, 0.0079,-619.0222, 344.4503,-138.6313,-9.6515, 38.2758,-49.8915
15-Mar-2018 18:06:13.809, 0.0135, 0.0151,-0.9887,-0.0296, 0.0539,-0.0068, 0.0137,-0.0155,-1.8397,44.567591,-123.274495,-2.2369, 31.3881, 241.449219,Stationary,High, 99.4805, 0.0079,-619.0222, 344.4503,-138.6313,-9.6515, 38.2758,-49.8915
15-Mar-2018 18:06:13.824, 0.0150, 0.0142,-0.9894,-0.0297, 0.0529,-0.0058, 0.0136,-0.0155,-1.8396,44.567591,-123.274495,-2.2369, 31.3881, 241.449219,Stationary,High, 99.4805, 0.0079,-664.4468, 348.9330,-133.6863,-9.6516, 38.2770,-49.8906
15-Mar-2018 18:06:13.829, 0.0149, 0.0153,-0.9883,-0.0297, 0.0529,-0.0058, 0.0136,-0.0155,-1.8396,44.567591,-123.274495,-2.2369, 31.3881, 241.449219,Stationary,High, 99.4805, 0.0079,-664.4468, 348.9330,-133.6863,-9.6516, 38.2770,-49.8906
15-Mar-2018 18:06:13.840, 0.0137, 0.0150,-0.9884,-0.0297, 0.0529,-0.0058, 0.0136,-0.0155,-1.8396,44.567591,-123.274495,-2.2369, 31.3881, 241.449219,Stationary,High, 99.4805, 0.0079,-664.4468, 348.9330,-133.6863,-9.6516, 38.2770,-49.8906
15-Mar-2018 18:06:13.848, 0.0128, 0.0123,-0.9898,-0.0318, 0.0529,-0.0069, 0.0137,-0.0155,-1.8396,44.567591,-123.274495,-2.2369, 31.3881, 241.449219,Stationary,High, 99.4805, 0.0079,-664.4468, 348.9330,-133.6863,-9.6520, 38.2761,-49.8912
15-Mar-2018 18:06:13.858, 0.0137, 0.0151,-0.9882,-0.0307, 0.0539,-0.0058, 0.0137,-0.0154,-1.8396,44.567591,-123.274495,-2.2369, 31.3881, 241.449219,Stationary,High, 99.4805, 0.0079,-692.5923, 344.2710,-129.5938,-9.6503, 38.2766,-49.8912
15-Mar-2018 18:06:13.870, 0.0133, 0.0153,-0.9895,-0.0307, 0.0539,-0.0058, 0.0137,-0.0154,-1.8396,44.567591,-123.274495,-2.2369, 31.3881, 241.449219,Stationary,High, 99.4805, 0.0079,-692.5923, 344.2710,-129.5938,-9.6503, 38.2766,-49.8912
15-Mar-2018 18:06:13.879, 0.0133, 0.0152,-0.9891,-0.0297, 0.0529,-0.0058, 0.0136,-0.0154,-1.8396,44.567591,-123.274495,-2.2369, 31.3881, 241.449219,Stationary,High, 99.4805, 0.0079,-692.5923, 344.2710,-129.5938,-9.6499, 38.2734,-49.8937
15-Mar-2018 18:06:13.889, 0.0156, 0.0159,-0.9880,-0.0307, 0.0550,-0.0079, 0.0136,-0.0154,-1.8396,44.567591,-123.274495,-2.2369, 31.3881, 241.449219,Stationary,High, 99.4805, 0.0079,-692.5923, 344.2710,-129.5938,-9.6497, 38.2732,-49.8939
15-Mar-2018 18:06:13.900, 0.0142, 0.0130,-0.9879,-0.0307, 0.0550,-0.0079, 0.0136,-0.0154,-1.8396,44.567591,-123.274495,-2.2369, 31.3881, 241.449219,Stationary,High, 99.4805, 0.0079,-692.5923, 344.2710,-129.5938,-9.6497, 38.2732,-49.8939
15-Mar-2018 18:06:13.908, 0.0151, 0.0152,-0.9874,-0.0296, 0.0539,-0.0079, 0.0137,-0.0154,-1.8396,44.567591,-123.274495,-2.2369, 31.3881, 241.449219,Stationary,High, 99.4805, 0.0079,-711.1184, 337.0987,-126.8656,-9.6494, 38.2737,-49.8936
15-Mar-2018 18:06:13.917, 0.0132, 0.0146,-0.9879,-0.0307, 0.0529,-0.0079, 0.0137,-0.0154,-1.8396,44.567591,-123.274495,-2.2369, 31.3881, 241.449219,Stationary,High, 99.4805, 0.0079,-711.1184, 337.0987,-126.8656,-9.6459, 38.2725,-49.8952
15-Mar-2018 18:06:13.929, 0.0129, 0.0148,-0.9890,-0.0318, 0.0518,-0.0058, 0.0137,-0.0154,-1.8395,44.567591,-123.274495,-2.2369, 31.3881, 241.449219,Stationary,High, 99.4805, 0.0079,-711.1184, 337.0987,-126.8656,-9.6444, 38.2728,-49.8952
15-Mar-2018 18:06:13.942, 0.0144, 0.0164,-0.9894,-0.0307, 0.0518,-0.0058, 0.0137,-0.0154,-1.8395,44.567591,-123.274495,-2.2369, 31.3881, 241.449219,Stationary,High, 99.4805, 0.0079,-711.1184, 337.0987,-126.8656,-9.6448, 38.2729,-49.8950
15-Mar-2018 18:06:13.948, 0.0145, 0.0139,-0.9897,-0.0307, 0.0529,-0.0068, 0.0137,-0.0154,-1.8395,44.567591,-123.274495,-2.2369, 31.3881, 241.449219,Stationary,High, 99.4805, 0.0079,-729.4664, 325.8023,-127.3771,-9.6450, 38.2731,-49.8949
15-Mar-2018 18:06:13.957, 0.0142, 0.0145,-0.9890,-0.0307, 0.0529,-0.0068, 0.0137,-0.0154,-1.8395,44.567591,-123.274495,-2.2369, 31.3881, 241.449219,Stationary,High, 99.4805, 0.0079,-729.4664, 325.8023,-127.3771,-9.6450, 38.2731,-49.8949
15-Mar-2018 18:06:13.968, 0.0139, 0.0152,-0.9881,-0.0307, 0.0529,-0.0068, 0.0137,-0.0154,-1.8395,44.567591,-123.274495,-2.2369, 31.3881, 241.449219,Stationary,High, 99.4805, 0.0079,-729.4664, 325.8023,-127.3771,-9.6432, 38.2749,-49.8939
15-Mar-2018 18:06:13.976, 0.0147, 0.0166,-0.9887,-0.0296, 0.0529,-0.0068, 0.0137,-0.0154,-1.8395,44.567591,-123.274495,-2.2369, 31.3881, 241.449219,Stationary,High, 99.4805, 0.0079,-729.4664, 325.8023,-127.3771,-9.6417, 38.2740,-49.8948
15-Mar-2018 18:06:13.986, 0.0158, 0.0169,-0.9898,-0.0296, 0.0529,-0.0068, 0.0137,-0.0154,-1.8395,44.567591,-123.274495,-2.2369, 31.3881, 241.449219,Stationary,High, 99.4805, 0.0079,-741.5796, 313.2507,-127.3771,-9.6417, 38.2740,-49.8948
15-Mar-2018 18:06:13.997, 0.0141, 0.0130,-0.9881,-0.0296, 0.0518,-0.0068, 0.0137,-0.0155,-1.8395,44.567591,-123.274495,-2.2369, 31.3881, 241.449219,Stationary,High, 99.4805, 0.0079,-741.5796, 313.2507,-127.3771,-9.6422, 38.2739,-49.8948
15-Mar-2018 18:06:14.005, 0.0134, 0.0149,-0.9881,-0.0307, 0.0539,-0.0058, 0.0137,-0.0154,-1.8395,44.567591,-123.274495,-2.2369, 31.3881, 241.449219,Stationary,High, 99.4805, 0.0079,-741.5796, 313.2507,-127.3771,-9.6414, 38.2757,-49.8936
15-Mar-2018 18:06:14.015, 0.0135, 0.0157,-0.9876,-0.0307, 0.0539,-0.0058, 0.0137,-0.0154,-1.8395,44.567591,-123.274495,-2.2369, 31.3881, 241.449219,Stationary,High, 99.4805, 0.0079,-741.5796, 313.2507,-127.3771,-9.6414, 38.2757,-49.8936
15-Mar-2018 18:06:14.028, 0.0128, 0.0145,-0.9889,-0.0307, 0.0550,-0.0068, 0.0138,-0.0154,-1.8394,44.567591,-123.274495,-2.2369, 31.3881, 241.449219,Stationary,High, 99.4805, 0.0079,-760.6401, 300.5199,-128.2297,-9.6414, 38.2757,-49.8936
15-Mar-2018 18:06:14.037, 0.0138, 0.0159,-0.9880,-0.0318, 0.0529,-0.0069, 0.0137,-0.0154,-1.8394,44.567591,-123.274495,-2.2369, 31.3881, 241.449219,Stationary,High, 99.4805, 0.0079,-760.6401, 300.5199,-128.2297,-9.6414, 38.2757,-49.8936
15-Mar-2018 18:06:14.045, 0.0134, 0.0159,-0.9871,-0.0318, 0.0529,-0.0069, 0.0137,-0.0154,-1.8394,44.567591,-123.274495,-2.2369, 31.3881, 241.449219,Stationary,High, 99.4805, 0.0079,-760.6401, 300.5199,-128.2297,-9.6414, 38.2757,-49.8936
15-Mar-2018 18:06:14.058, 0.0139, 0.0144,-0.9874,-0.0296, 0.0529,-0.0079, 0.0137,-0.0154,-1.8394,44.567591,-123.274495,-2.2369, 31.3881, 241.449219,Stationary,High, 99.4805, 0.0079,-760.6401, 300.5199,-128.2297,-9.6414, 38.2757,-49.8936
15-Mar-2018 18:06:14.065, 0.0144, 0.0141,-0.9882,-0.0307, 0.0529,-0.0068, 0.0137,-0.0154,-1.8394,44.567591,-123.274495,-2.2369, 31.3881, 241.449219,Stationary,High, 99.4805, 0.0079,-783.6197, 287.7891,-123.2847,-9.6414, 38.2757,-49.8936
15-Mar-2018 18:06:14.074, 0.0115, 0.0147,-0.9890,-0.0307, 0.0529,-0.0068, 0.0137,-0.0154,-1.8394,44.567591,-123.274495,-2.2369, 31.3881, 241.449219,Stationary,High, 99.4805, 0.0079,-783.6197, 287.7891,-123.2847,-9.6414, 38.2757,-49.8936
15-Mar-2018 18:06:14.089, 0.0137, 0.0149,-0.9898,-0.0307, 0.0529,-0.0068, 0.0137,-0.0154,-1.8394,44.567591,-123.274495,-2.2369, 31.3881, 241.449219,Stationary,High, 99.4805, 0.0079,-783.6197, 287.7891,-123.2847,-9.6414, 38.2757,-49.8936
15-Mar-2018 18:06:14.095, 0.0130, 0.0154,-0.9885,-0.0307, 0.0539,-0.0068, 0.0137,-0.0154,-1.8394,44.567591,-123.274495,-2.2369, 31.3881, 241.449219,Stationary,High, 99.4805, 0.0079,-783.6197, 287.7891,-123.2847,-9.6414, 38.2757,-49.8936
15-Mar-2018 18:06:14.104, 0.0141, 0.0134,-0.9873,-0.0307, 0.0539,-0.0068, 0.0137,-0.0154,-1.8394,44.567591,-123.274495,-2.2369, 31.3881, 241.449219,Stationary,High, 99.4805, 0.0079,-819.4250, 280.4374,-115.9524,-9.6414, 38.2757,-49.8936
15-Mar-2018 18:06:14.119, 0.0132, 0.0157,-0.9882,-0.0307, 0.0529,-0.0068, 0.0137,-0.0154,-1.8394,44.567591,-123.274495,-2.2369, 33.1399, 241.449219,Stationary,High, 99.4805, 0.0079,-819.4250, 280.4374,-115.9524, 0.0000, 0.0000, 0.0000
15-Mar-2018 18:06:14.125, 0.0142, 0.0148,-0.9897,-0.0296, 0.0518,-0.0079, 0.0137,-0.0154,-1.8394,44.567591,-123.274495,-2.2369, 33.1399, 241.449219,Stationary,High, 99.4805, 0.0079,-819.4250, 280.4374,-115.9524, 0.0000, 0.0000, 0.0000
15-Mar-2018 18:06:14.133, 0.0116, 0.0138,-0.9884,-0.0296, 0.0518,-0.0079, 0.0137,-0.0154,-1.8394,44.567591,-123.274495,-2.2369, 33.1399, 241.449219,Stationary,High, 99.4805, 0.0079,-819.4250, 280.4374,-115.9524, 0.0000, 0.0000, 0.0000
15-Mar-2018 18:06:14.148, 0.0150, 0.0154,-0.9873,-0.0296, 0.0528,-0.0090, 0.0137,-0.0154,-1.8394,44.567591,-123.274495,-2.2369, 33.1399, 241.449219,Stationary,High, 99.4805, 0.0079,-865.2059, 277.0306,-107.2560, 0.0000, 0.0000, 0.0000
15-Mar-2018 18:06:14.156, 0.0132, 0.0134,-0.9885,-0.0317, 0.0528,-0.0090, 0.0137,-0.0154,-1.8394,44.567591,-123.274495,-2.2369, 33.1399, 241.449219,Stationary,High, 99.4805, 0.0079,-865.2059, 277.0306,-107.2560, 0.0000, 0.0000, 0.0000
15-Mar-2018 18:06:14.163, 0.0148, 0.0137,-0.9898,-0.0317, 0.0528,-0.0090, 0.0137,-0.0154,-1.8394,44.567591,-123.274495,-2.2369, 33.1399, 241.449219,Stationary,High, 99.4805, 0.0079,-865.2059, 277.0306,-107.2560, 0.0000, 0.0000, 0.0000
15-Mar-2018 18:06:14.179, 0.0137, 0.0158,-0.9884,-0.0307, 0.0539,-0.0068, 0.0137,-0.0154,-1.8394,44.567591,-123.274495,-2.2369, 33.1399, 241.449219,Stationary,High, 99.4805, 0.0079,-865.2059, 277.0306,-107.2560, 0.0000, 0.0000, 0.0000
15-Mar-2018 18:06:14.188, 0.0126, 0.0165,-0.9874,-0.0307, 0.0529,-0.0068, 0.0137,-0.0154,-1.8394,44.567591,-123.274495,-2.2369, 33.1399, 241.449219,Stationary,High, 99.4805, 0.0079,-912.7682, 271.4720,-91.0567, 0.0000, 0.0000, 0.0000
15-Mar-2018 18:06:14.192, 0.0164, 0.0142,-0.9890,-0.0307, 0.0529,-0.0068, 0.0137,-0.0154,-1.8394,44.567591,-123.274495,-2.2369, 33.1399, 241.449219,Stationary,High, 99.4805, 0.0079,-912.7682, 271.4720,-91.0567, 0.0000, 0.0000, 0.0000
15-Mar-2018 18:06:14.208, 0.0144, 0.0151,-0.9860,-0.0297, 0.0518,-0.0058, 0.0138,-0.0154,-1.8394,44.567591,-123.274495,-2.2369, 33.1399, 241.449219,Stationary,High, 99.4805, 0.0079,-912.7682, 271.4720,-91.0567, 0.0000, 0.0000, 0.0000
15-Mar-2018 18:06:14.215, 0.0123, 0.0146,-0.9871,-0.0307, 0.0529,-0.0068, 0.0138,-0.0154,-1.8394,44.567591,-123.274495,-2.2369, 33.1399, 241.449219,Stationary,High, 99.4805, 0.0079,-912.7682, 271.4720,-91.0567, 0.0000, 0.0000, 0.0000
15-Mar-2018 18:06:14.221, 0.0132, 0.0161,-0.9904,-0.0307, 0.0529,-0.0068, 0.0138,-0.0154,-1.8394,44.567591,-123.274495,-2.2369, 33.1399, 241.449219,Stationary,High, 99.4805, 0.0079,-957.4803, 261.2515,-79.9730, 0.0000, 0.0000, 0.0000
15-Mar-2018 18:06:14.231, 0.0153, 0.0160,-0.9878,-0.0307, 0.0529,-0.0068, 0.0138,-0.0154,-1.8394,44.567591,-123.274495,-2.2369, 33.1399, 241.449219,Stationary,High, 99.4805, 0.0079,-957.4803, 261.2515,-79.9730, 0.0000, 0.0000, 0.0000
15-Mar-2018 18:06:14.257, 0.0135, 0.0158,-0.9886,-0.0296, 0.0529,-0.0079, 0.0138,-0.0154,-1.8394,44.567591,-123.274495,-2.2369, 33.1399, 241.449219,Stationary,High, 99.4805, 0.0079,-957.4803, 261.2515,-79.9730, 0.0000, 0.0000, 0.0000
