Timestamp,accelX,accelY,accelZ,gyroX(rad/s),gyroY(rad/s),gyroZ(rad/s),Roll(rads),Pitch(rads),Yaw(rads),Lat,Long,Speed(mph),TrueHeading,Alt(feet),ActivityType,ActivityConfidence,Pressure(kilopascals),RelativeAltitude(meters),magX(µT),magY(µT),magZ(µT),calMagX,calMagY,calMagZ
15-Mar-2018 17:26:56.380, 0.0091, 0.0166,-0.9842,-0.0158, 0.0890,-0.0076, 0.0101,-0.0173,-2.4991,44.567575,-123.274501,-2.2369, 116.3631, 241.541153,Stationary,High, 99.4737,-0.1083, 77.3110, 39.8063,-502.3467,-13.4428, 13.0365,-37.3743
15-Mar-2018 17:26:56.409, 0.0105, 0.0181,-0.9852,-0.0158, 0.0890,-0.0076, 0.0101,-0.0173,-2.4991,44.567593,-123.274447, 0.0000, 116.3631, 243.628815,Stationary,High, 99.4737,-0.1083, 77.8454, 39.9856,-501.4941,-13.4428, 13.0365,-37.3743
15-Mar-2018 17:26:56.419, 0.0084, 0.0174,-0.9867,-0.0158, 0.0890,-0.0076, 0.0101,-0.0173,-2.4991,44.567593,-123.274447, 0.0000, 116.3631, 243.628815,Stationary,High, 99.4737,-0.1083, 77.8454, 39.9856,-501.4941,-13.4428, 13.0365,-37.3743
15-Mar-2018 17:26:56.429, 0.0095, 0.0177,-0.9856,-0.0158, 0.0890,-0.0076, 0.0101,-0.0173,-2.4991,44.567593,-123.274447, 0.0000, 116.3631, 243.628815,Stationary,High, 99.4737,-0.1083, 77.8454, 39.9856,-501.4941,-13.4428, 13.0365,-37.3743
15-Mar-2018 17:26:56.439, 0.0092, 0.0181,-0.9871,-0.0158, 0.0890,-0.0076, 0.0101,-0.0173,-2.4991,44.567593,-123.274447, 0.0000, 116.3631, 243.628815,Stationary,High, 99.4737,-0.1083, 76.9547, 41.5994,-502.3467,-13.4428, 13.0365,-37.3743
15-Mar-2018 17:26:56.449, 0.0090, 0.0181,-0.9851,-0.0158, 0.0890,-0.0076, 0.0101,-0.0173,-2.4991,44.567593,-123.274447, 0.0000, 116.3631, 243.628815,Stationary,High, 99.4737,-0.1083, 76.9547, 41.5994,-502.3467,-13.4428, 13.0365,-37.3743
15-Mar-2018 17:26:56.458, 0.0085, 0.0174,-0.9853,-0.0158, 0.0890,-0.0076, 0.0101,-0.0173,-2.4991,44.567593,-123.274447, 0.0000, 116.3631, 243.628815,Stationary,High, 99.4737,-0.1083, 76.9547, 41.5994,-502.3467,-13.4428, 13.0365,-37.3743
15-Mar-2018 17:26:56.470, 0.0072, 0.0172,-0.9866,-0.0286, 0.0550,-0.0068, 0.0092,-0.0169, 0.0001,44.567593,-123.274447, 0.0000, 116.3631, 243.628815,Stationary,High, 99.4737,-0.1083, 76.9547, 41.5994,-502.3467, 0.0000, 0.0000, 0.0000
15-Mar-2018 17:26:56.478, 0.0101, 0.0177,-0.9850,-0.0286, 0.0550,-0.0068, 0.0092,-0.0169, 0.0001,44.567593,-123.274447, 0.0000, 116.3631, 243.628815,Stationary,High, 99.4737,-0.1083, 76.9547, 41.5994,-502.3467, 0.0000, 0.0000, 0.0000
15-Mar-2018 17:26:56.488, 0.0105, 0.0165,-0.9855,-0.0264, 0.0571,-0.0078, 0.0092,-0.0169, 0.0001,44.567593,-123.274447, 0.0000, 116.3631, 243.628815,Stationary,High, 99.4737,-0.1083, 77.8454, 41.4201,-502.5172, 0.0000, 0.0000, 0.0000
15-Mar-2018 17:26:56.500, 0.0094, 0.0181,-0.9841,-0.0264, 0.0571,-0.0078, 0.0092,-0.0169, 0.0001,44.567593,-123.274447, 0.0000, 116.3631, 243.628815,Stationary,High, 99.4737,-0.1083, 77.8454, 41.4201,-502.5172, 0.0000, 0.0000, 0.0000
15-Mar-2018 17:26:56.508, 0.0092, 0.0171,-0.9845,-0.0286, 0.0560,-0.0079, 0.0092,-0.0169, 0.0001,44.567593,-123.274447, 0.0000, 116.3631, 243.628815,Stationary,High, 99.4737,-0.1083, 77.8454, 41.4201,-502.5172, 0.0000, 0.0000, 0.0000
15-Mar-2018 17:26:56.517, 0.0117, 0.0172,-0.9872,-0.0286, 0.0539,-0.0068, 0.0093,-0.0170, 0.0001,44.567593,-123.274447, 0.0000, 116.3631, 243.628815,Stationary,High, 99.4737,-0.1083, 77.8454, 41.4201,-502.5172, 0.0000, 0.0000, 0.0000
15-Mar-2018 17:26:56.528, 0.0094, 0.0175,-0.9861,-0.0286, 0.0539,-0.0068, 0.0093,-0.0170, 0.0001,44.567593,-123.274447, 0.0000, 116.3631, 243.628815,Stationary,High, 99.4737,-0.1083, 76.2422, 41.2408,-501.3235, 0.0000, 0.0000, 0.0000
15-Mar-2018 17:26:56.537, 0.0111, 0.0178,-0.9851,-0.0286, 0.0550,-0.0068, 0.0093,-0.0170, 0.0001,44.567593,-123.274447, 0.0000, 116.3631, 243.628815,Stationary,High, 99.4737,-0.1083, 76.2422, 41.2408,-501.3235, 0.0000, 0.0000, 0.0000
15-Mar-2018 17:26:56.547, 0.0098, 0.0173,-0.9860,-0.0286, 0.0571,-0.0068, 0.0095,-0.0172, 0.0001,44.567593,-123.274447, 0.0000, 116.3631, 243.628815,Stationary,High, 99.4737,-0.1083, 76.2422, 41.2408,-501.3235, 0.0000, 0.0000, 0.0000
15-Mar-2018 17:26:56.557, 0.0099, 0.0168,-0.9849,-0.0286, 0.0571,-0.0068, 0.0095,-0.0172, 0.0001,44.567593,-123.274447, 0.0000, 116.3631, 243.628815,Stationary,High, 99.4737,-0.1083, 76.2422, 41.2408,-501.3235, 0.0000, 0.0000, 0.0000
15-Mar-2018 17:26:56.566, 0.0088, 0.0168,-0.9847,-0.0286, 0.0550,-0.0068, 0.0095,-0.0172, 0.0001,44.567593,-123.274447, 0.0000, 116.3631, 243.628815,Stationary,High, 99.4737,-0.1083, 76.7766, 40.3443,-503.1993, 0.0000, 0.0000, 0.0000
15-Mar-2018 17:26:56.576, 0.0093, 0.0174,-0.9853,-0.0286, 0.0550,-0.0079, 0.0095,-0.0172, 0.0001,44.567593,-123.274447, 0.0000, 116.3631, 243.628815,Stationary,High, 99.4737,-0.1083, 76.7766, 40.3443,-503.1993, 0.0000, 0.0000, 0.0000
15-Mar-2018 17:26:56.586, 0.0091, 0.0171,-0.9863,-0.0286, 0.0550,-0.0079, 0.0095,-0.0172, 0.0001,44.567593,-123.274447, 0.0000, 116.3631, 243.628815,Stationary,High, 99.4737,-0.1083, 76.7766, 40.3443,-503.1993, 0.0000, 0.0000, 0.0000
15-Mar-2018 17:26:56.596, 0.0102, 0.0191,-0.9861,-0.0275, 0.0560,-0.0078, 0.0095,-0.0172, 0.0001,44.567593,-123.274447, 0.0000, 116.3631, 243.628815,Stationary,High, 99.4737,-0.1083, 76.7766, 40.3443,-503.1993, 0.0000, 0.0000, 0.0000
15-Mar-2018 17:26:56.606, 0.0098, 0.0181,-0.9857,-0.0286, 0.0529,-0.0079, 0.0095,-0.0172, 0.0001,44.567593,-123.274447, 0.0000, 116.3631, 243.628815,Stationary,High, 99.4737,-0.1083, 76.9547, 40.5236,-503.3698, 0.0000, 0.0000, 0.0000
15-Mar-2018 17:26:56.615, 0.0100, 0.0171,-0.9861,-0.0286, 0.0529,-0.0079, 0.0095,-0.0172, 0.0001,44.567593,-123.274447, 0.0000, 116.3631, 243.628815,Stationary,High, 99.4737,-0.1083, 76.9547, 40.5236,-503.3698, 0.0000, 0.0000, 0.0000
15-Mar-2018 17:26:56.624, 0.0096, 0.0169,-0.9866,-0.0275, 0.0561,-0.0068, 0.0095,-0.0172, 0.0001,44.567593,-123.274447, 0.0000, 116.3631, 243.628815,Stationary,High, 99.4737,-0.1083, 76.9547, 40.5236,-503.3698, 0.0000, 0.0000, 0.0000
15-Mar-2018 17:26:56.636, 0.0087, 0.0177,-0.9873,-0.0275, 0.0561,-0.0068, 0.0096,-0.0172, 0.0001,44.567593,-123.274447, 0.0000, 116.3631, 243.628815,Stationary,High, 99.4737,-0.1083, 76.9547, 40.5236,-503.3698, 0.0000, 0.0000, 0.0000
15-Mar-2018 17:26:56.645, 0.0089, 0.0167,-0.9867,-0.0275, 0.0561,-0.0068, 0.0096,-0.0172, 0.0001,44.567593,-123.274447, 0.0000, 116.3631, 243.628815,Stationary,High, 99.4737,-0.1083, 76.5984, 41.2408,-502.0056, 0.0000, 0.0000, 0.0000
15-Mar-2018 17:26:56.654, 0.0095, 0.0179,-0.9861,-0.0286, 0.0560,-0.0079, 0.0095,-0.0172, 0.0001,44.567593,-123.274447, 0.0000, 116.3631, 243.628815,Stationary,High, 99.4737,-0.1083, 76.5984, 41.2408,-502.0056, 0.0000, 0.0000, 0.0000
15-Mar-2018 17:26:56.665, 0.0111, 0.0165,-0.9863,-0.0275, 0.0539,-0.0068, 0.0095,-0.0171, 0.0001,44.567593,-123.274447, 0.0000, 116.3631, 243.628815,Stationary,High, 99.4737,-0.1083, 76.5984, 41.2408,-502.0056, 0.0000, 0.0000, 0.0000
15-Mar-2018 17:26:56.674, 0.0100, 0.0165,-0.9876,-0.0275, 0.0539,-0.0068, 0.0095,-0.0171, 0.0001,44.567593,-123.274447, 0.0000, 116.3631, 243.628815,Stationary,High, 99.4737,-0.1083, 76.5984, 41.2408,-502.0056, 0.0000, 0.0000, 0.0000
15-Mar-2018 17:26:56.684, 0.0103, 0.0165,-0.9861,-0.0275, 0.0560,-0.0089, 0.0096,-0.0171,-2.4618,44.567593,-123.274447, 0.0000, 66.5151, 243.628815,Stationary,High, 99.4737,-0.1083, 77.3110, 39.4477,-502.0056,-14.7073, 12.8342,-38.0828
15-Mar-2018 17:26:56.694, 0.0074, 0.0175,-0.9856,-0.0275, 0.0550,-0.0057, 0.0096,-0.0171,-2.4618,44.567593,-123.274447, 0.0000, 66.5151, 243.628815,Stationary,High, 99.4737,-0.1083, 77.3110, 39.4477,-502.0056,-14.7072, 12.8340,-38.0829
15-Mar-2018 17:26:56.703, 0.0079, 0.0165,-0.9873,-0.0275, 0.0550,-0.0068, 0.0095,-0.0172,-2.4618,44.567593,-123.274447, 0.0000, 66.5151, 243.628815,Stationary,High, 99.4737,-0.1083, 77.3110, 39.4477,-502.0056,-14.7072, 12.8340,-38.0829
15-Mar-2018 17:26:56.713, 0.0080, 0.0173,-0.9867,-0.0275, 0.0550,-0.0068, 0.0094,-0.0171,-2.4618,44.567593,-123.274447, 0.0000, 66.5151, 243.628815,Stationary,High, 99.4737,-0.1083, 77.3110, 39.4477,-502.0056,-14.7118, 12.8359,-38.0806
15-Mar-2018 17:26:56.724, 0.0082, 0.0171,-0.9855,-0.0286, 0.0539,-0.0079, 0.0093,-0.0171,-2.4618,44.567593,-123.274447, 0.0000, 66.5151, 243.628815,Stationary,High, 99.4737,-0.1083, 77.6673, 40.1649,-502.0056,-14.7155, 12.8350,-38.0794
15-Mar-2018 17:26:56.733, 0.0076, 0.0164,-0.9865,-0.0275, 0.0539,-0.0078, 0.0093,-0.0171,-2.4618,44.567593,-123.274447, 0.0000, 66.5151, 243.628815,Stationary,High, 99.4737,-0.1083, 77.6673, 40.1649,-502.0056,-14.7155, 12.8350,-38.0794
15-Mar-2018 17:26:56.743, 0.0099, 0.0164,-0.9848,-0.0265, 0.0561,-0.0068, 0.0092,-0.0171,-2.4618,44.567593,-123.274447, 0.0000, 66.5151, 243.628815,Stationary,High, 99.4737,-0.1083, 77.6673, 40.1649,-502.0056,-14.7182, 12.8354,-38.0782
15-Mar-2018 17:26:56.754, 0.0096, 0.0180,-0.9867,-0.0286, 0.0539,-0.0068, 0.0092,-0.0171,-2.4618,44.567593,-123.274447, 0.0000, 66.5151, 243.628815,Stationary,High, 99.4737,-0.1083, 77.6673, 40.1649,-502.0056,-14.7212, 12.8337,-38.0777
15-Mar-2018 17:26:56.762, 0.0093, 0.0175,-0.9852,-0.0296, 0.0571,-0.0068, 0.0092,-0.0172,-2.4618,44.567593,-123.274447, 0.0000, 66.5151, 243.628815,Stationary,High, 99.4737,-0.1083, 76.7766, 40.7029,-500.8120,-14.7212, 12.8337,-38.0777
15-Mar-2018 17:26:56.772, 0.0083, 0.0164,-0.9872,-0.0286, 0.0560,-0.0079, 0.0093,-0.0172,-2.4618,44.567593,-123.274447, 0.0000, 66.5151, 243.628815,Stationary,High, 99.4737,-0.1083, 76.7766, 40.7029,-500.8120,-14.7198, 12.8369,-38.0771
15-Mar-2018 17:26:56.782, 0.0114, 0.0171,-0.9858,-0.0286, 0.0560,-0.0079, 0.0093,-0.0172,-2.4618,44.567593,-123.274447, 0.0000, 66.5151, 243.628815,Stationary,High, 99.4737,-0.1083, 76.7766, 40.7029,-500.8120,-14.7198, 12.8369,-38.0771
15-Mar-2018 17:26:56.791, 0.0082, 0.0170,-0.9856,-0.0275, 0.0550,-0.0078, 0.0094,-0.0172,-2.4618,44.567593,-123.274447, 0.0000, 66.5151, 243.628815,Stationary,High, 99.4737,-0.1083, 76.7766, 40.7029,-500.8120,-14.7188, 12.8384,-38.0770
15-Mar-2018 17:26:56.801, 0.0094, 0.0178,-0.9859,-0.0286, 0.0550,-0.0079, 0.0093,-0.0172,-2.4618,44.567593,-123.274447, 0.0000, 66.5151, 243.628815,Stationary,High, 99.4737,-0.1083, 76.7766, 40.3443,-501.8351,-14.7141, 12.8384,-38.0788
15-Mar-2018 17:26:56.816, 0.0094, 0.0177,-0.9864,-0.0296, 0.0560,-0.0079, 0.0093,-0.0172,-2.4618,44.567593,-123.274447, 0.0000, 66.5151, 243.628815,Stationary,High, 99.4737,-0.1083, 76.7766, 40.3443,-501.8351,-14.7158, 12.8386,-38.0781
15-Mar-2018 17:26:56.820, 0.0094, 0.0177,-0.9864,-0.0296, 0.0560,-0.0079, 0.0093,-0.0172,-2.4618,44.567593,-123.274447, 0.0000, 66.5151, 243.628815,Stationary,High, 99.4737,-0.1083, 76.7766, 40.3443,-501.8351,-14.7158, 12.8386,-38.0781
15-Mar-2018 17:26:56.824, 0.0091, 0.0158,-0.9868,-0.0296, 0.0560,-0.0079, 0.0093,-0.0172,-2.4618,44.567593,-123.274447, 0.0000, 66.5151, 243.628815,Stationary,High, 99.4737,-0.1083, 76.7766, 40.3443,-501.8351,-14.7158, 12.8386,-38.0781
15-Mar-2018 17:26:56.833, 0.0095, 0.0169,-0.9851,-0.0286, 0.0550,-0.0079, 0.0094,-0.0173,-2.4618,44.567593,-123.274447, 0.0000, 66.5151, 243.628815,Stationary,High, 99.4737,-0.1083, 76.7766, 40.3443,-501.8351,-14.7160, 12.8383,-38.0781
15-Mar-2018 17:26:56.844, 0.0095, 0.0169,-0.9848,-0.0286, 0.0571,-0.0079, 0.0094,-0.0173,-2.4618,44.567593,-123.274447, 0.0000, 66.5151, 243.628815,Stationary,High, 99.4737,-0.1083, 76.7766, 41.7787,-503.1993,-14.7155, 12.8397,-38.0778
15-Mar-2018 17:26:56.853, 0.0125, 0.0173,-0.9852,-0.0286, 0.0550,-0.0068, 0.0094,-0.0173,-2.4618,44.567593,-123.274447, 0.0000, 66.5151, 243.628815,Stationary,High, 99.4737,-0.1083, 76.7766, 41.7787,-503.1993,-14.7148, 12.8395,-38.0782
15-Mar-2018 17:26:56.863, 0.0084, 0.0176,-0.9865,-0.0286, 0.0550,-0.0068, 0.0094,-0.0173,-2.4618,44.567593,-123.274447, 0.0000, 66.5151, 243.628815,Stationary,High, 99.4737,-0.1083, 76.7766, 41.7787,-503.1993,-14.7148, 12.8395,-38.0782
15-Mar-2018 17:26:56.880, 0.0106, 0.0181,-0.9847,-0.0275, 0.0550,-0.0068, 0.0095,-0.0173,-2.4618,44.567593,-123.274447, 0.0000, 66.5151, 243.628815,Stationary,High, 99.4737,-0.1083, 76.7766, 41.7787,-503.1993,-14.7139, 12.8397,-38.0784
15-Mar-2018 17:26:56.889, 0.0099, 0.0162,-0.9859,-0.0265, 0.0550,-0.0068, 0.0096,-0.0173,-2.4618,44.567593,-123.274447, 0.0000, 66.5151, 243.628815,Stationary,High, 99.4737,-0.1083, 76.9547, 40.8822,-501.6646,-14.7103, 12.8415,-38.0793
15-Mar-2018 17:26:56.894, 0.0109, 0.0167,-0.9838,-0.0264, 0.0550,-0.0078, 0.0096,-0.0173,-2.4618,44.567593,-123.274447, 0.0000, 66.5151, 243.628815,Stationary,High, 99.4737,-0.1083, 76.9547, 40.8822,-501.6646,-14.7079, 12.8430,-38.0796
15-Mar-2018 17:26:56.901, 0.0092, 0.0175,-0.9855,-0.0264, 0.0550,-0.0078, 0.0096,-0.0173,-2.4618,44.567593,-123.274447, 0.0000, 66.5151, 243.628815,Stationary,High, 99.4737,-0.1083, 76.9547, 40.8822,-501.6646,-14.7079, 12.8430,-38.0796
15-Mar-2018 17:26:56.912, 0.0103, 0.0165,-0.9854,-0.0275, 0.0560,-0.0078, 0.0096,-0.0173,-2.4618,44.567593,-123.274447, 0.0000, 66.5151, 243.628815,Stationary,High, 99.4737,-0.1083, 76.9547, 40.8822,-501.6646,-14.7070, 12.8411,-38.0806
15-Mar-2018 17:26:56.921, 0.0091, 0.0184,-0.9851,-0.0286, 0.0539,-0.0068, 0.0097,-0.0173,-2.4618,44.567593,-123.274447, 0.0000, 66.5151, 243.628815,Stationary,High, 99.4737,-0.1083, 76.9547, 40.8822,-501.6646,-14.7043, 12.8401,-38.0820
15-Mar-2018 17:26:56.931, 0.0092, 0.0176,-0.9853,-0.0286, 0.0539,-0.0068, 0.0097,-0.0173,-2.4618,44.567593,-123.274447, 0.0000, 66.5151, 243.628815,Stationary,High, 99.4737,-0.1083, 76.0640, 41.0615,-502.1761,-14.7043, 12.8401,-38.0820
15-Mar-2018 17:26:56.942, 0.0106, 0.0161,-0.9860,-0.0264, 0.0550,-0.0078, 0.0096,-0.0173,-2.4618,44.567593,-123.274447, 0.0000, 66.5151, 243.628815,Stationary,High, 99.4737,-0.1083, 76.0640, 41.0615,-502.1761,-14.7035, 12.8394,-38.0826
15-Mar-2018 17:26:56.951, 0.0117, 0.0158,-0.9854,-0.0286, 0.0550,-0.0079, 0.0097,-0.0173,-2.4618,44.567593,-123.274447, 0.0000, 66.5151, 243.628815,Stationary,High, 99.4737,-0.1083, 76.0640, 41.0615,-502.1761,-14.7043, 12.8412,-38.0816
15-Mar-2018 17:26:56.961, 0.0106, 0.0171,-0.9855,-0.0286, 0.0550,-0.0079, 0.0097,-0.0173,-2.4618,44.567593,-123.274447, 0.0000, 66.5151, 243.628815,Stationary,High, 99.4737,-0.1083, 76.0640, 41.0615,-502.1761,-14.7043, 12.8412,-38.0816
15-Mar-2018 17:26:56.970, 0.0107, 0.0160,-0.9874,-0.0265, 0.0550,-0.0068, 0.0098,-0.0172,-2.4618,44.567593,-123.274447, 0.0000, 66.5151, 243.628815,Stationary,High, 99.4737,-0.1083, 77.3110, 41.2408,-501.3235,-14.7029, 12.8402,-38.0825
15-Mar-2018 17:26:56.980, 0.0094, 0.0185,-0.9867,-0.0265, 0.0518,-0.0068, 0.0098,-0.0172,-2.4618,44.567593,-123.274447, 0.0000, 66.5151, 243.628815,Stationary,High, 99.4737,-0.1083, 77.3110, 41.2408,-501.3235,-14.6999, 12.8384,-38.0843
15-Mar-2018 17:26:56.991, 0.0114, 0.0183,-0.9858,-0.0265, 0.0518,-0.0068, 0.0098,-0.0172,-2.4618,44.567593,-123.274447, 0.0000, 66.5151, 243.628815,Stationary,High, 99.4737,-0.1083, 77.3110, 41.2408,-501.3235,-14.6999, 12.8384,-38.0843
15-Mar-2018 17:26:57.000, 0.0088, 0.0180,-0.9866,-0.0264, 0.0539,-0.0078, 0.0098,-0.0172,-2.4618,44.567593,-123.274447, 0.0000, 66.5151, 243.628815,Stationary,High, 99.4737,-0.1083, 77.3110, 41.2408,-501.3235,-14.6990, 12.8369,-38.0852
15-Mar-2018 17:26:57.010, 0.0097, 0.0177,-0.9867,-0.0296, 0.0550,-0.0068, 0.0098,-0.0173,-2.4618,44.567593,-123.274447, 0.0000, 66.5151, 243.628815,Stationary,High, 99.4737,-0.1083, 76.5984, 40.8822,-500.6415,-14.6990, 12.8381,-38.0847
15-Mar-2018 17:26:57.019, 0.0092, 0.0173,-0.9882,-0.0296, 0.0550,-0.0068, 0.0098,-0.0173,-2.4618,44.567593,-123.274447, 0.0000, 66.5151, 243.628815,Stationary,High, 99.4737,-0.1083, 76.5984, 40.8822,-500.6415,-14.6990, 12.8381,-38.0847
15-Mar-2018 17:26:57.029, 0.0111, 0.0174,-0.9839,-0.0275, 0.0550,-0.0078, 0.0098,-0.0173,-2.4618,44.567572,-123.274535,-2.2369, 66.5151, 241.850815,Stationary,High, 99.4737,-0.1083, 76.5984, 40.8822,-500.6415,-14.7000, 12.8397,-38.0838
15-Mar-2018 17:26:57.039, 0.0106, 0.0180,-0.9871,-0.0286, 0.0561,-0.0068, 0.0098,-0.0173,-2.4617,44.567572,-123.274535,-2.2369, 66.5151, 241.850815,Stationary,High, 99.4737,-0.1083, 76.5984, 40.8822,-500.6415,-14.6980, 12.8409,-38.0841
15-Mar-2018 17:26:57.049, 0.0089, 0.0185,-0.9857,-0.0286, 0.0561,-0.0068, 0.0098,-0.0173,-2.4617,44.567572,-123.274535,-2.2369, 66.5151, 241.850815,Stationary,High, 99.4737,-0.1083, 77.3110, 41.2408,-502.6877,-14.6980, 12.8409,-38.0841
15-Mar-2018 17:26:57.059, 0.0093, 0.0182,-0.9843,-0.0286, 0.0550,-0.0079, 0.0098,-0.0173,-2.4617,44.567572,-123.274535,-2.2369, 66.5151, 241.850815,Stationary,High, 99.4737,-0.1083, 77.3110, 41.2408,-502.6877,-14.6962, 12.8425,-38.0843
15-Mar-2018 17:26:57.069, 0.0074, 0.0191,-0.9856,-0.0286, 0.0550,-0.0079, 0.0098,-0.0173,-2.4617,44.567572,-123.274535,-2.2369, 66.5151, 241.850815,Stationary,High, 99.4737,-0.1083, 77.3110, 41.2408,-502.6877,-14.6962, 12.8425,-38.0843
15-Mar-2018 17:26:57.079, 0.0092, 0.0179,-0.9857,-0.0296, 0.0560,-0.0079, 0.0098,-0.0174,-2.4617,44.567572,-123.274535,-2.2369, 66.5151, 241.850815,Stationary,High, 99.4737,-0.1083, 77.3110, 41.2408,-502.6877,-14.6963, 12.8424,-38.0843
15-Mar-2018 17:26:57.089, 0.0094, 0.0178,-0.9855,-0.0286, 0.0539,-0.0068, 0.0098,-0.0175,-2.4617,44.567572,-123.274535,-2.2369, 66.5151, 241.850815,Stationary,High, 99.4737,-0.1083, 77.1328, 39.9856,-502.1761,-14.6994, 12.8465,-38.0818
15-Mar-2018 17:26:57.099, 0.0091, 0.0171,-0.9854,-0.0286, 0.0539,-0.0068, 0.0098,-0.0175,-2.4617,44.567572,-123.274535,-2.2369, 66.5151, 241.850815,Stationary,High, 99.4737,-0.1083, 77.1328, 39.9856,-502.1761,-14.6994, 12.8465,-38.0818
15-Mar-2018 17:26:57.112, 0.0084, 0.0173,-0.9855,-0.0275, 0.0561,-0.0068, 0.0097,-0.0175,-2.4617,44.567572,-123.274535,-2.2369, 66.5151, 241.850815,Stationary,High, 99.4737,-0.1083, 77.1328, 39.9856,-502.1761,-14.6998, 12.8478,-38.0812
15-Mar-2018 17:26:57.127, 0.0089, 0.0178,-0.9866,-0.0286, 0.0550,-0.0079, 0.0097,-0.0175,-2.4617,44.567572,-123.274535,-2.2369, 66.5151, 241.850815,Stationary,High, 99.4737,-0.1083, 77.1328, 39.9856,-502.1761,-14.7003, 12.8483,-38.0808
15-Mar-2018 17:26:57.130, 0.0100, 0.0170,-0.9861,-0.0286, 0.0550,-0.0079, 0.0097,-0.0175,-2.4617,44.567572,-123.274535,-2.2369, 66.5151, 241.850815,Stationary,High, 99.4737,-0.1083, 78.0235, 40.1649,-504.3929,-14.7024, 12.8487,-38.0798
15-Mar-2018 17:26:57.137, 0.0091, 0.0180,-0.9854,-0.0286, 0.0550,-0.0079, 0.0097,-0.0175,-2.4617,44.567572,-123.274535,-2.2369, 66.5151, 241.850815,Stationary,High, 99.4737,-0.1083, 78.0235, 40.1649,-504.3929,-14.7024, 12.8487,-38.0798
15-Mar-2018 17:26:57.152, 0.0095, 0.0183,-0.9857,-0.0286, 0.0561,-0.0068, 0.0097,-0.0175,-2.4617,44.567572,-123.274535,-2.2369, 66.5151, 241.850815,Stationary,High, 99.4737,-0.1083, 78.0235, 40.1649,-504.3929,-14.7030, 12.8502,-38.0791
15-Mar-2018 17:26:57.159, 0.0098, 0.0175,-0.9863,-0.0285, 0.0560,-0.0089, 0.0097,-0.0176,-2.4617,44.567572,-123.274535,-2.2369, 66.5151, 241.850815,Stationary,High, 99.4737,-0.1083, 78.0235, 40.1649,-504.3929,-14.7026, 12.8503,-38.0792
15-Mar-2018 17:26:57.166, 0.0108, 0.0170,-0.9868,-0.0285, 0.0560,-0.0089, 0.0097,-0.0176,-2.4617,44.567572,-123.274535,-2.2369, 66.5151, 241.850815,Stationary,High, 99.4737,-0.1083, 76.9547, 40.1649,-502.3467,-14.7026, 12.8503,-38.0792
15-Mar-2018 17:26:57.176, 0.0116, 0.0178,-0.9863,-0.0286, 0.0561,-0.0068, 0.0097,-0.0176,-2.4617,44.567572,-123.274535,-2.2369, 66.5151, 241.850815,Stationary,High, 99.4737,-0.1083, 76.9547, 40.1649,-502.3467,-14.7028, 12.8516,-38.0787
15-Mar-2018 17:26:57.187, 0.0110, 0.0161,-0.9841,-0.0275, 0.0539,-0.0068, 0.0098,-0.0176,-2.4617,44.567572,-123.274535,-2.2369, 66.5151, 241.850815,Stationary,High, 99.4737,-0.1083, 76.9547, 40.1649,-502.3467,-14.7011, 12.8517,-38.0793
15-Mar-2018 17:26:57.195, 0.0085, 0.0176,-0.9867,-0.0275, 0.0550,-0.0078, 0.0098,-0.0175,-2.4617,44.567572,-123.274535,-2.2369, 66.5151, 241.850815,Stationary,High, 99.4737,-0.1083, 76.9547, 40.1649,-502.3467,-14.7011, 12.8517,-38.0793
15-Mar-2018 17:26:57.205, 0.0106, 0.0181,-0.9847,-0.0286, 0.0550,-0.0068, 0.0098,-0.0176,-2.4617,44.567572,-123.274535,-2.2369, 66.5151, 241.850815,Stationary,High, 99.4737,-0.1083, 75.8859, 41.2408,-502.0056,-14.6970, 12.8512,-38.0811
15-Mar-2018 17:26:57.217, 0.0091, 0.0172,-0.9872,-0.0254, 0.0550,-0.0067, 0.0098,-0.0176,-2.4617,44.567572,-123.274535,-2.2369, 66.5151, 241.850815,Stationary,High, 99.4737,-0.1083, 75.8859, 41.2408,-502.0056,-14.6981, 12.8516,-38.0805
15-Mar-2018 17:26:57.224, 0.0093, 0.0166,-0.9861,-0.0286, 0.0550,-0.0079, 0.0098,-0.0176,-2.4617,44.567572,-123.274535,-2.2369, 66.5151, 241.850815,Stationary,High, 99.4737,-0.1083, 75.8859, 41.2408,-502.0056,-14.6981, 12.8516,-38.0805
15-Mar-2018 17:26:57.234, 0.0095, 0.0164,-0.9848,-0.0286, 0.0550,-0.0068, 0.0098,-0.0175,-2.4617,44.567572,-123.274535,-2.2369, 66.5151, 241.850815,Stationary,High, 99.4737,-0.1083, 75.8859, 41.2408,-502.0056,-14.6975, 12.8518,-38.0807
15-Mar-2018 17:26:57.246, 0.0098, 0.0177,-0.9846,-0.0286, 0.0550,-0.0068, 0.0098,-0.0175,-2.4617,44.567572,-123.274535,-2.2369, 66.5151, 241.850815,Stationary,High, 99.4737,-0.1083, 75.7077, 41.4201,-501.8351,-14.6976, 12.8514,-38.0808
15-Mar-2018 17:26:57.252, 0.0102, 0.0167,-0.9831,-0.0265, 0.0529,-0.0068, 0.0098,-0.0175,-2.4617,44.567572,-123.274535,-2.2369, 66.5151, 241.850815,Stationary,High, 99.4737,-0.1083, 75.7077, 41.4201,-501.8351,-14.6976, 12.8514,-38.0808
15-Mar-2018 17:26:57.266, 0.0106, 0.0181,-0.9850,-0.0265, 0.0550,-0.0068, 0.0098,-0.0175,-2.4617,44.567572,-123.274535,-2.2369, 66.5151, 241.850815,Stationary,High, 99.4737,-0.1083, 75.7077, 41.4201,-501.8351,-14.6974, 12.8513,-38.0809
15-Mar-2018 17:26:57.275, 0.0109, 0.0167,-0.9869,-0.0286, 0.0539,-0.0068, 0.0098,-0.0175,-2.4617,44.567572,-123.274535,-2.2369, 66.5151, 241.850815,Stationary,High, 99.4737,-0.1083, 75.7077, 41.4201,-501.8351,-14.6966, 12.8506,-38.0814
15-Mar-2018 17:26:57.285, 0.0090, 0.0181,-0.9844,-0.0286, 0.0539,-0.0068, 0.0098,-0.0175,-2.4617,44.567572,-123.274535,-2.2369, 66.5151, 241.850815,Stationary,High, 99.4737,-0.1083, 78.9142, 40.7029,-503.1993,-14.6966, 12.8506,-38.0814
15-Mar-2018 17:26:57.295, 0.0096, 0.0169,-0.9858,-0.0275, 0.0539,-0.0078, 0.0098,-0.0175,-2.4617,44.567572,-123.274535,-2.2369, 66.5151, 241.850815,Stationary,High, 99.4737,-0.1083, 78.9142, 40.7029,-503.1993,-14.6957, 12.8516,-38.0814
15-Mar-2018 17:26:57.307, 0.0091, 0.0178,-0.9851,-0.0275, 0.0539,-0.0068, 0.0098,-0.0175,-2.4617,44.567572,-123.274535,-2.2369, 66.5151, 241.850815,Stationary,High, 99.4737,-0.1083, 78.9142, 40.7029,-503.1993,-14.6956, 12.8517,-38.0815
15-Mar-2018 17:26:57.316, 0.0101, 0.0186,-0.9855,-0.0275, 0.0561,-0.0068, 0.0098,-0.0175,-2.4617,44.567572,-123.274535,-2.2369, 66.5151, 241.850815,Stationary,High, 99.4737,-0.1083, 78.9142, 40.7029,-503.1993,-14.6956, 12.8517,-38.0815
15-Mar-2018 17:26:57.333, 0.0090, 0.0183,-0.9869,-0.0264, 0.0560,-0.0078, 0.0098,-0.0175,-2.4616,44.567572,-123.274535,-2.2369, 66.5151, 241.850815,Stationary,High, 99.4737,-0.1083, 77.8454, 40.7029,-501.4941,-14.6953, 12.8526,-38.0813
15-Mar-2018 17:26:57.340, 0.0079, 0.0182,-0.9850,-0.0275, 0.0550,-0.0068, 0.0098,-0.0176,-2.4616,44.567572,-123.274535,-2.2369, 66.5151, 241.850815,Stationary,High, 99.4737,-0.1083, 77.8454, 40.7029,-501.4941,-14.6952, 12.8523,-38.0814
15-Mar-2018 17:26:57.345, 0.0098, 0.0160,-0.9857,-0.0275, 0.0550,-0.0068, 0.0098,-0.0176,-2.4616,44.567572,-123.274535,-2.2369, 66.5151, 241.850815,Stationary,High, 99.4737,-0.1083, 77.8454, 40.7029,-501.4941,-14.6952, 12.8523,-38.0814
15-Mar-2018 17:26:57.355, 0.0117, 0.0168,-0.9859,-0.0275, 0.0550,-0.0089, 0.0098,-0.0175,-2.4616,44.567572,-123.274535,-2.2369, 66.5151, 241.850815,Stationary,High, 99.4737,-0.1083, 77.8454, 40.7029,-501.4941,-14.6957, 12.8529,-38.0810
15-Mar-2018 17:26:57.369, 0.0082, 0.0172,-0.9847,-0.0296, 0.0550,-0.0079, 0.0099,-0.0175,-2.4616,44.567572,-123.274535,-2.2369, 66.5151, 241.850815,Stationary,High, 99.4737,-0.1083, 76.5984, 39.4477,-503.3698,-14.6954, 12.8519,-38.0815
15-Mar-2018 17:26:57.377, 0.0084, 0.0176,-0.9856,-0.0296, 0.0550,-0.0079, 0.0099,-0.0175,-2.4616,44.567572,-123.274535,-2.2369, 66.5151, 241.850815,Stationary,High, 99.4737,-0.1083, 76.5984, 39.4477,-503.3698,-14.6954, 12.8519,-38.0815
15-Mar-2018 17:26:57.387, 0.0092, 0.0183,-0.9854,-0.0265, 0.0539,-0.0068, 0.0099,-0.0175,-2.4616,44.567572,-123.274535,-2.2369, 66.5151, 241.850815,Stationary,High, 99.4737,-0.1083, 76.5984, 39.4477,-503.3698,-14.6938, 12.8518,-38.0821
15-Mar-2018 17:26:57.397, 0.0104, 0.0180,-0.9850,-0.0265, 0.0539,-0.0068, 0.0099,-0.0175,-2.4616,44.567572,-123.274535,-2.2369, 66.5151, 241.850815,Stationary,High, 99.4737,-0.1083, 76.5984, 39.4477,-503.3698,-14.6938, 12.8518,-38.0821
15-Mar-2018 17:26:57.407, 0.0095, 0.0176,-0.9851,-0.0265, 0.0550,-0.0068, 0.0099,-0.0175,-2.4616,44.567572,-123.274535,-2.2369, 66.5151, 241.850815,Stationary,High, 99.4737,-0.1083, 76.0640, 40.3443,-502.8582,-14.6939, 12.8521,-38.0820
15-Mar-2018 17:26:57.416, 0.0104, 0.0165,-0.9851,-0.0275, 0.0571,-0.0078, 0.0099,-0.0175,-2.4616,44.567572,-123.274535,-2.2369, 66.5151, 241.850815,Stationary,High, 99.4766, 0.0000, 76.0640, 40.3443,-502.8582,-14.6929, 12.8523,-38.0823
15-Mar-2018 17:26:57.434, 0.0095, 0.0166,-0.9869,-0.0275, 0.0571,-0.0078, 0.0099,-0.0175,-2.4616,44.567572,-123.274535,-2.2369, 66.5151, 241.850815,Stationary,High, 99.4766, 0.0000, 76.0640, 40.3443,-502.8582,-14.6917, 12.8517,-38.0830
15-Mar-2018 17:26:57.444, 0.0075, 0.0186,-0.9863,-0.0265, 0.0539,-0.0068, 0.0099,-0.0175,-2.4616,44.567572,-123.274535,-2.2369, 66.5151, 241.850815,Stationary,High, 99.4766, 0.0000, 76.0640, 40.3443,-502.8582,-14.6916, 12.8514,-38.0831
15-Mar-2018 17:26:57.457, 0.0104, 0.0171,-0.9848,-0.0275, 0.0550,-0.0078, 0.0099,-0.0175,-2.4616,44.567572,-123.274535,-2.2369, 66.5151, 241.850815,Stationary,High, 99.4766, 0.0000, 77.6673, 40.5236,-501.6646,-14.6916, 12.8512,-38.0832
15-Mar-2018 17:26:57.460, 0.0104, 0.0171,-0.9848,-0.0275, 0.0550,-0.0078, 0.0099,-0.0175,-2.4616,44.567572,-123.274535,-2.2369, 66.5151, 241.850815,Stationary,High, 99.4766, 0.0000, 77.6673, 40.5236,-501.6646,-14.6916, 12.8512,-38.0832
15-Mar-2018 17:26:57.467, 0.0101, 0.0176,-0.9848,-0.0275, 0.0550,-0.0068, 0.0100,-0.0175,-2.4616,44.567572,-123.274535,-2.2369, 66.5151, 241.850815,Stationary,High, 99.4766, 0.0000, 77.6673, 40.5236,-501.6646,-14.6917, 12.8511,-38.0832
15-Mar-2018 17:26:57.476, 0.0102, 0.0172,-0.9870,-0.0275, 0.0560,-0.0078, 0.0100,-0.0175,-2.4616,44.567572,-123.274535,-2.2369, 66.5151, 241.850815,Stationary,High, 99.4766, 0.0000, 77.6673, 40.5236,-501.6646,-14.6911, 12.8509,-38.0835
15-Mar-2018 17:26:57.485, 0.0093, 0.0173,-0.9840,-0.0275, 0.0560,-0.0078, 0.0100,-0.0175,-2.4616,44.567572,-123.274535,-2.2369, 66.5151, 241.850815,Stationary,High, 99.4766, 0.0000, 77.6673, 40.5236,-501.6646,-14.6911, 12.8509,-38.0835
15-Mar-2018 17:26:57.494, 0.0097, 0.0170,-0.9849,-0.0265, 0.0550,-0.0068, 0.0100,-0.0175,-2.4616,44.567572,-123.274535,-2.2369, 66.5151, 241.850815,Stationary,High, 99.4766, 0.0000, 76.7766, 39.9856,-502.8582,-14.6902, 12.8513,-38.0837
15-Mar-2018 17:26:57.504, 0.0094, 0.0175,-0.9856,-0.0264, 0.0550,-0.0078, 0.0100,-0.0175,-2.4616,44.567572,-123.274535,-2.2369, 66.5151, 241.850815,Stationary,High, 99.4766, 0.0000, 76.7766, 39.9856,-502.8582,-14.6907, 12.8506,-38.0837
15-Mar-2018 17:26:57.514, 0.0105, 0.0187,-0.9850,-0.0264, 0.0550,-0.0078, 0.0100,-0.0175,-2.4616,44.567572,-123.274535,-2.2369, 66.5151, 241.850815,Stationary,High, 99.4766, 0.0000, 76.7766, 39.9856,-502.8582,-14.6907, 12.8506,-38.0837
15-Mar-2018 17:26:57.524, 0.0095, 0.0176,-0.9852,-0.0264, 0.0539,-0.0078, 0.0100,-0.0175,-2.4616,44.567572,-123.274535,-2.2369, 66.5151, 241.850815,Stationary,High, 99.4766, 0.0000, 76.7766, 39.9856,-502.8582,-14.6906, 12.8498,-38.0840
15-Mar-2018 17:26:57.533, 0.0093, 0.0178,-0.9868,-0.0286, 0.0539,-0.0068, 0.0100,-0.0175,-2.4616,44.567572,-123.274535,-2.2369, 66.5151, 241.850815,Stationary,High, 99.4766, 0.0000, 77.4891, 41.0615,-503.1993,-14.6899, 12.8511,-38.0839
15-Mar-2018 17:26:57.543, 0.0103, 0.0177,-0.9843,-0.0286, 0.0539,-0.0068, 0.0100,-0.0175,-2.4616,44.567572,-123.274535,-2.2369, 66.5151, 241.850815,Stationary,High, 99.4766, 0.0000, 77.4891, 41.0615,-503.1993,-14.6899, 12.8511,-38.0839
15-Mar-2018 17:26:57.553, 0.0087, 0.0178,-0.9851,-0.0264, 0.0550,-0.0078, 0.0100,-0.0175,-2.4616,44.567572,-123.274535,-2.2369, 66.5151, 241.850815,Stationary,High, 99.4766, 0.0000, 77.4891, 41.0615,-503.1993,-14.6906, 12.8512,-38.0835
15-Mar-2018 17:26:57.565, 0.0107, 0.0171,-0.9855,-0.0275, 0.0550,-0.0068, 0.0099,-0.0175,-2.4616,44.567572,-123.274535,-2.2369, 66.5151, 241.850815,Stationary,High, 99.4766, 0.0000, 77.4891, 41.0615,-503.1993,-14.6902, 12.8514,-38.0836
15-Mar-2018 17:26:57.573, 0.0088, 0.0166,-0.9840,-0.0275, 0.0550,-0.0068, 0.0099,-0.0175,-2.4616,44.567572,-123.274535,-2.2369, 66.5151, 241.850815,Stationary,High, 99.4766, 0.0000, 78.5579, 41.0615,-502.8582,-14.6902, 12.8514,-38.0836
15-Mar-2018 17:26:57.583, 0.0114, 0.0168,-0.9862,-0.0286, 0.0539,-0.0068, 0.0099,-0.0175,-2.4616,44.567572,-123.274535,-2.2369, 66.5151, 241.850815,Stationary,High, 99.4766, 0.0000, 78.5579, 41.0615,-502.8582,-14.6917, 12.8517,-38.0830
15-Mar-2018 17:26:57.592, 0.0083, 0.0162,-0.9837,-0.0275, 0.0550,-0.0057, 0.0099,-0.0175,-2.4616,44.567572,-123.274535,-2.2369, 66.5151, 241.850815,Stationary,High, 99.4766, 0.0000, 78.5579, 41.0615,-502.8582,-14.6929, 12.8514,-38.0826
15-Mar-2018 17:26:57.603, 0.0088, 0.0166,-0.9837,-0.0286, 0.0539,-0.0068, 0.0099,-0.0175,-2.4616,44.567572,-123.274535,-2.2369, 66.5151, 241.850815,Stationary,High, 99.4766, 0.0000, 78.5579, 41.0615,-502.8582,-14.6911, 12.8511,-38.0834
15-Mar-2018 17:26:57.612, 0.0112, 0.0174,-0.9871,-0.0286, 0.0539,-0.0068, 0.0099,-0.0175,-2.4616,44.567572,-123.274535,-2.2369, 66.5151, 241.850815,Stationary,High, 99.4766, 0.0000, 75.7077, 41.7787,-501.8351,-14.6925, 12.8503,-38.0831
15-Mar-2018 17:26:57.622, 0.0097, 0.0164,-0.9850,-0.0275, 0.0550,-0.0078, 0.0099,-0.0175,-2.4616,44.567572,-123.274535,-2.2369, 66.5151, 241.850815,Stationary,High, 99.4766, 0.0000, 75.7077, 41.7787,-501.8351,-14.6937, 12.8501,-38.0827
15-Mar-2018 17:26:57.636, 0.0087, 0.0173,-0.9850,-0.0286, 0.0539,-0.0057, 0.0099,-0.0175,-2.4616,44.567572,-123.274535,-2.2369, 66.5151, 241.850815,Stationary,High, 99.4766, 0.0000, 75.7077, 41.7787,-501.8351,-14.6924, 12.8501,-38.0832
15-Mar-2018 17:26:57.651, 0.0103, 0.0176,-0.9873,-0.0275, 0.0550,-0.0078, 0.0099,-0.0175,-2.4616,44.567572,-123.274535,-2.2369, 66.5151, 241.850815,Stationary,High, 99.4766, 0.0000, 75.7077, 41.7787,-501.8351,-14.6925, 12.8495,-38.0834
15-Mar-2018 17:26:57.656, 0.0109, 0.0177,-0.9845,-0.0275, 0.0561,-0.0068, 0.0099,-0.0175,-2.4616,44.567572,-123.274535,-2.2369, 66.5151, 241.850815,Stationary,High, 99.4766, 0.0000, 75.7077, 41.0615,-503.5403,-14.6932, 12.8500,-38.0830
15-Mar-2018 17:26:57.661, 0.0099, 0.0156,-0.9860,-0.0275, 0.0561,-0.0068, 0.0099,-0.0175,-2.4616,44.567572,-123.274535,-2.2369, 66.5151, 241.850815,Stationary,High, 99.4766, 0.0000, 75.7077, 41.0615,-503.5403,-14.6932, 12.8500,-38.0830
15-Mar-2018 17:26:57.670, 0.0084, 0.0171,-0.9859,-0.0275, 0.0539,-0.0068, 0.0099,-0.0174,-2.4616,44.567572,-123.274535,-2.2369, 66.5151, 241.850815,Stationary,High, 99.4766, 0.0000, 75.7077, 41.0615,-503.5403,-14.6930, 12.8504,-38.0829
15-Mar-2018 17:26:57.682, 0.0095, 0.0168,-0.9861,-0.0286, 0.0539,-0.0068, 0.0099,-0.0174,-2.4616,44.567572,-123.274535,-2.2369, 66.5151, 241.850815,Stationary,High, 99.4766, 0.0000, 75.7077, 41.0615,-503.5403,-14.6933, 12.8485,-38.0834
15-Mar-2018 17:26:57.691, 0.0093, 0.0180,-0.9841,-0.0264, 0.0550,-0.0078, 0.0099,-0.0174,-2.4616,44.567572,-123.274535,-2.2369, 66.5151, 241.850815,Stationary,High, 99.4766, 0.0000, 76.9547, 41.5994,-502.0056,-14.6933, 12.8485,-38.0834
15-Mar-2018 17:26:57.699, 0.0112, 0.0183,-0.9863,-0.0285, 0.0550,-0.0089, 0.0099,-0.0174,-2.4616,44.567572,-123.274535,-2.2369, 66.5151, 241.850815,Stationary,High, 99.4766, 0.0000, 76.9547, 41.5994,-502.0056,-14.6938, 12.8479,-38.0834
15-Mar-2018 17:26:57.712, 0.0094, 0.0178,-0.9861,-0.0265, 0.0529,-0.0068, 0.0098,-0.0174,-2.4616,44.567572,-123.274535,-2.2369, 66.5151, 241.850815,Stationary,High, 99.4766, 0.0000, 76.9547, 41.5994,-502.0056,-14.6944, 12.8484,-38.0830
15-Mar-2018 17:26:57.719, 0.0089, 0.0174,-0.9869,-0.0286, 0.0560,-0.0079, 0.0098,-0.0174,-2.4616,44.567572,-123.274535,-2.2369, 66.5151, 241.850815,Stationary,High, 99.4766, 0.0000, 76.9547, 41.5994,-502.0056,-14.6944, 12.8484,-38.0830
15-Mar-2018 17:26:57.729, 0.0083, 0.0187,-0.9841,-0.0286, 0.0550,-0.0068, 0.0098,-0.0174,-2.4616,44.567572,-123.274535,-2.2369, 66.5151, 241.850815,Stationary,High, 99.4766, 0.0000, 77.4891, 39.2684,-501.1530,-14.6946, 12.8488,-38.0828
15-Mar-2018 17:26:57.740, 0.0091, 0.0179,-0.9838,-0.0286, 0.0550,-0.0068, 0.0098,-0.0174,-2.4616,44.567572,-123.274535,-2.2369, 66.5151, 241.850815,Stationary,High, 99.4766, 0.0000, 77.4891, 39.2684,-501.1530,-14.6946, 12.8488,-38.0828
15-Mar-2018 17:26:57.757, 0.0101, 0.0173,-0.9865,-0.0275, 0.0561,-0.0057, 0.0098,-0.0175,-2.4616,44.567572,-123.274535,-2.2369, 66.5151, 241.850815,Stationary,High, 99.4766, 0.0000, 77.4891, 39.2684,-501.1530,-14.6955, 12.8501,-38.0820
15-Mar-2018 17:26:57.771, 0.0101, 0.0183,-0.9879,-0.0265, 0.0550,-0.0057, 0.0099,-0.0175,-2.4616,44.567572,-123.274535,-2.2369, 66.5151, 241.850815,Stationary,High, 99.4766, 0.0000, 77.4891, 39.2684,-501.1530,-14.6949, 12.8505,-38.0821
15-Mar-2018 17:26:57.775, 0.0101, 0.0183,-0.9879,-0.0265, 0.0550,-0.0057, 0.0099,-0.0175,-2.4616,44.567572,-123.274535,-2.2369, 66.5151, 241.850815,Stationary,High, 99.4766, 0.0000, 77.4891, 39.2684,-501.1530,-14.6949, 12.8505,-38.0821
15-Mar-2018 17:26:57.779, 0.0079, 0.0182,-0.9851,-0.0328, 0.0465,-0.0069, 0.0097,-0.0175,-2.4616,44.567572,-123.274535,-2.2369, 66.5151, 241.850815,Stationary,High, 99.4766, 0.0000, 76.7766, 40.3443,-501.8351,-14.6940, 12.8503,-38.0825
15-Mar-2018 17:26:57.792, 0.0079, 0.0173,-0.9852,-0.0286, 0.0476,-0.0068, 0.0096,-0.0176,-2.4616,44.567572,-123.274535,-2.2369, 66.5151, 241.850815,Stationary,High, 99.4766, 0.0000, 76.7766, 40.3443,-501.8351,-14.6989, 12.8531,-38.0797
15-Mar-2018 17:26:57.798, 0.0090, 0.0175,-0.9870,-0.0286, 0.0476,-0.0068, 0.0096,-0.0176,-2.4616,44.567572,-123.274535,-2.2369, 66.5151, 241.850815,Stationary,High, 99.4766, 0.0000, 76.7766, 40.3443,-501.8351,-14.6989, 12.8531,-38.0797
15-Mar-2018 17:26:57.816, 0.0083, 0.0173,-0.9854,-0.0286, 0.0518,-0.0068, 0.0096,-0.0176,-2.4616,44.567572,-123.274535,-2.2369, 66.5151, 241.850815,Stationary,High, 99.4766, 0.0000, 76.7766, 40.3443,-501.8351,-14.7034, 12.8548,-38.0774
15-Mar-2018 17:26:57.821, 0.0090, 0.0171,-0.9852,-0.0275, 0.0529,-0.0068, 0.0095,-0.0176,-2.4615,44.567572,-123.274535,-2.2369, 66.5151, 241.850815,Stationary,High, 99.4766, 0.0000, 77.6673, 39.8063,-502.3467,-14.7082, 12.8553,-38.0754
15-Mar-2018 17:26:57.845, 0.0003, 0.0183,-0.9859,-0.0275, 0.0529,-0.0068, 0.0095,-0.0176,-2.4615,44.567572,-123.274535,-2.2369, 66.5151, 241.850815,Stationary,High, 99.4766, 0.0000, 77.6673, 39.8063,-502.3467,-14.7082, 12.8553,-38.0754
15-Mar-2018 17:26:57.851,-0.0523, 0.0196,-0.9858,-0.0329, 0.0430, 0.0496, 0.0091,-0.0176,-2.4612,44.567572,-123.274535,-2.2369, 66.5151, 241.850815,Stationary,High, 99.4766, 0.0000, 77.6673, 39.8063,-502.3467,-14.7181, 12.8568,-38.0710
15-Mar-2018 17:26:57.862,-0.0058, 0.0174,-0.9859,-0.0304, 0.0483, 0.1371, 0.0074,-0.0177,-2.4591,44.567572,-123.274535,-2.2369, 66.5151, 241.850815,Stationary,High, 99.4766, 0.0000, 78.0235, 39.4477,-503.0287,-14.7165, 12.8634,-38.0694
15-Mar-2018 17:26:57.865,-0.0058, 0.0174,-0.9859,-0.0304, 0.0483, 0.1371, 0.0074,-0.0177,-2.4591,44.567572,-123.274535,-2.2369, 66.5151, 241.850815,Stationary,High, 99.4766, 0.0000, 78.0235, 39.4477,-503.0287,-14.7165, 12.8634,-38.0694
15-Mar-2018 17:26:57.877, 0.0287, 0.0138,-0.9832,-0.0296, 0.0566, 0.2043, 0.0071,-0.0178,-2.4550,44.567572,-123.274535,-2.2369, 66.5151, 241.850815,Stationary,High, 99.4766, 0.0000, 78.0235, 39.4477,-503.0287,-14.7305, 12.9434,-38.0369
15-Mar-2018 17:26:57.880, 0.0287, 0.0138,-0.9832,-0.0264, 0.0598, 0.2076, 0.0072,-0.0177,-2.4529,44.567572,-123.274535,-2.2369, 66.5151, 241.850815,Stationary,High, 99.4766, 0.0000, 78.0235, 39.4477,-503.0287,-14.7305, 12.9434,-38.0369
15-Mar-2018 17:26:57.893, 0.0371, 0.0072,-0.9845,-0.0264, 0.0598, 0.2076, 0.0072,-0.0177,-2.4529,44.567572,-123.274535,-2.2369, 66.5151, 241.850815,Stationary,High, 99.4766, 0.0000, 78.0235, 39.4477,-503.0287,-14.7305, 12.9434,-38.0369
15-Mar-2018 17:26:57.898, 0.0422, 0.0020,-0.9837,-0.0230, 0.0741, 0.2503, 0.0083,-0.0174,-2.4493,44.567572,-123.274535,-2.2369, 66.5151, 241.850815,Stationary,High, 99.4766, 0.0000, 76.9547, 40.5236,-502.3467,-14.7038, 12.9762,-38.0360
15-Mar-2018 17:26:57.911, 0.0349, 0.0023,-0.9863,-0.0230, 0.0741, 0.2503, 0.0083,-0.0174,-2.4493,44.567572,-123.274535,-2.2369, 65.2888, 241.850815,Stationary,High, 99.4766, 0.0000, 76.9547, 40.5236,-502.3467,-14.7038, 12.9762,-38.0360
15-Mar-2018 17:26:57.917, 0.0266, 0.0076,-0.9861,-0.0317, 0.0537, 0.3152, 0.0092,-0.0170,-2.4445,44.567572,-123.274535,-2.2369, 65.2888, 241.850815,Stationary,High, 99.4766, 0.0000, 76.9547, 40.5236,-502.3467,-14.6035, 13.0316,-38.0557
15-Mar-2018 17:26:57.927, 0.0143, 0.0104,-0.9860,-0.0344, 0.0463, 0.3973, 0.0097,-0.0167,-2.4387,44.567572,-123.274535,-2.2369, 65.2888, 241.850815,Stationary,High, 99.4766, 0.0000, 76.9547, 40.5236,-502.3467,-14.5347, 13.0623,-38.0716
15-Mar-2018 17:26:57.938,-0.0038, 0.0220,-0.9863,-0.0406, 0.0270, 0.3875, 0.0095,-0.0168,-2.4329,44.567572,-123.274535,-2.2369, 65.2888, 241.850815,Stationary,High, 99.4766, 0.0000, 77.1328, 41.0615,-500.8120,-14.4160, 13.1624,-38.0822
15-Mar-2018 17:26:57.946,-0.0166, 0.0303,-0.9841,-0.0406, 0.0270, 0.3875, 0.0095,-0.0168,-2.4329,44.567572,-123.274535,-2.2369, 65.2888, 241.850815,Stationary,High, 99.4766, 0.0000, 77.1328, 41.0615,-500.8120,-14.4160, 13.1624,-38.0822
15-Mar-2018 17:26:57.956, 0.0046, 0.0303,-0.9834,-0.0305, 0.0508, 0.2523, 0.0087,-0.0172,-2.4287,44.567572,-123.274535,-2.2369, 65.2888, 241.850815,Stationary,High, 99.4766, 0.0000, 77.1328, 41.0615,-500.8120,-14.3721, 13.2243,-38.0773
15-Mar-2018 17:26:57.970, 0.0091, 0.0000,-0.9843,-0.0324, 0.0481, 0.2928, 0.0087,-0.0172,-2.4242,44.567577,-123.274492, 0.0000, 65.2888, 255.764359,Stationary,High, 99.4766, 0.0000, 77.1328, 41.0615,-500.8120,-14.3286, 13.3291,-38.0572
15-Mar-2018 17:26:57.973, 0.0091, 0.0000,-0.9843,-0.0324, 0.0481, 0.2928, 0.0087,-0.0172,-2.4242,44.567577,-123.274492, 0.0000, 65.2888, 255.764359,Stationary,High, 99.4766, 0.0000, 77.1328, 41.0615,-500.8120,-14.3286, 13.3291,-38.0572
15-Mar-2018 17:26:57.978, 0.0057, 0.0049,-0.9854,-0.0324, 0.0481, 0.2928, 0.0087,-0.0172,-2.4242,44.567577,-123.274492, 0.0000, 65.2888, 255.764359,Stationary,High, 99.4766, 0.0000, 77.4891, 41.7787,-503.1993,-14.3286, 13.3291,-38.0572
15-Mar-2018 17:26:57.994, 0.0152,-0.0005,-0.9852,-0.0332, 0.0511, 0.4442, 0.0087,-0.0168,-2.4155,44.567577,-123.274492, 0.0000, 65.2888, 255.764359,Stationary,High, 99.4766, 0.0000, 77.4891, 41.7787,-503.1993,-14.1932, 13.4695,-38.0585
15-Mar-2018 17:26:57.998, 0.0268, 0.0174,-0.9901,-0.0332, 0.0511, 0.4442, 0.0087,-0.0168,-2.4155,44.567577,-123.274492, 0.0000, 65.2888, 255.764359,Stationary,High, 99.4766, 0.0000, 77.4891, 41.7787,-503.1993,-14.1932, 13.4695,-38.0585
15-Mar-2018 17:26:58.014, 0.0269, 0.0133,-0.9832,-0.0360, 0.0546, 0.6404, 0.0089,-0.0169,-2.4007,44.567577,-123.274492, 0.0000, 65.2888, 255.764359,Stationary,High, 99.4766, 0.0000, 77.4891, 41.7787,-503.1993,-14.1230, 13.5444,-38.0580
15-Mar-2018 17:26:58.021, 0.0386, 0.0001,-0.9743,-0.0360, 0.0546, 0.6404, 0.0089,-0.0169,-2.4007,44.567577,-123.274492, 0.0000, 63.9037, 255.764359,Stationary,High, 99.4766, 0.0000, 77.6673, 41.5994,-502.0056,-14.1230, 13.5444,-38.0580
15-Mar-2018 17:26:58.028, 0.0435,-0.0201,-0.9882,-0.0360, 0.0546, 0.6404, 0.0089,-0.0169,-2.4007,44.567577,-123.274492, 0.0000, 63.9037, 255.764359,Stationary,High, 99.4766, 0.0000, 77.6673, 41.5994,-502.0056,-14.1230, 13.5444,-38.0580
15-Mar-2018 17:26:58.037, 0.0233,-0.0555,-0.9840,-0.0171, 0.1096, 0.7080, 0.0107,-0.0158,-2.3899,44.567577,-123.274492, 0.0000, 63.9037, 255.764359,Stationary,High, 99.4766, 0.0000, 77.6673, 41.5994,-502.0056,-13.9627, 13.7217,-38.0537
15-Mar-2018 17:26:58.047, 0.0161, 0.0023,-0.9875,-0.0202, 0.1133, 0.9180, 0.0119,-0.0154,-2.3768,44.567577,-123.274492, 0.0000, 63.9037, 255.764359,Stationary,High, 99.4766, 0.0000, 77.6673, 41.5994,-502.0056,-13.8168, 13.7854,-38.0839
15-Mar-2018 17:26:58.056, 0.0054, 0.0272,-0.9935,-0.0202, 0.1133, 0.9180, 0.0119,-0.0154,-2.3768,44.567577,-123.274492, 0.0000, 63.9037, 255.764359,Stationary,High, 99.4766, 0.0000, 77.6673, 41.9580,-500.9825,-13.8168, 13.7854,-38.0839
15-Mar-2018 17:26:58.066,-0.0012, 0.0266,-0.9791,-0.0337, 0.0805, 1.0095, 0.0125,-0.0153,-2.3618,44.567577,-123.274492, 0.0000, 63.9037, 255.764359,Stationary,High, 99.4766, 0.0000, 77.6673, 41.9580,-500.9825,-13.5300, 14.0047,-38.1068
15-Mar-2018 17:26:58.076, 0.0052, 0.0244,-0.9886,-0.0240, 0.0907, 0.8945, 0.0131,-0.0152,-2.3475,44.567577,-123.274492, 0.0000, 61.7688, 255.764359,Stationary,High, 99.4766, 0.0000, 77.6673, 41.9580,-500.9825,-13.3782, 14.1399,-38.1105
15-Mar-2018 17:26:58.087, 0.0163, 0.0255,-0.9815,-0.0240, 0.0907, 0.8945, 0.0131,-0.0152,-2.3475,44.567577,-123.274492, 0.0000, 61.7688, 255.764359,Stationary,High, 99.4766, 0.0000, 77.6673, 41.9580,-500.9825,-13.3782, 14.1399,-38.1105
15-Mar-2018 17:26:58.096, 0.0235, 0.0276,-0.9870,-0.0223, 0.0826, 0.7516, 0.0138,-0.0150,-2.3360,44.567577,-123.274492, 0.0000, 61.7688, 255.764359,Stationary,High, 99.4766, 0.0000, 79.4486, 41.2408,-502.6877,-13.0848, 14.3991,-38.1153
15-Mar-2018 17:26:58.107, 0.0208, 0.0210,-0.9886,-0.0348, 0.0630, 0.6330, 0.0143,-0.0150,-2.3260,44.567577,-123.274492, 0.0000, 61.7688, 255.764359,Stationary,High, 99.4766, 0.0000, 79.4486, 41.2408,-502.6877,-12.8413, 14.5955,-38.1235
15-Mar-2018 17:26:58.118, 0.0369, 0.0197,-0.9840,-0.0331, 0.0541, 0.5988, 0.0146,-0.0151,-2.3169,44.567577,-123.274492, 0.0000, 60.7545, 255.764359,Stationary,High, 99.4766, 0.0000, 79.4486, 41.2408,-502.6877,-12.7405, 14.6809,-38.1245
15-Mar-2018 17:26:58.130, 0.0334, 0.0203,-0.9845,-0.0342, 0.0573, 0.6031, 0.0146,-0.0150,-2.3139,44.567577,-123.274492, 0.0000, 60.7545, 243.801834,Stationary,High, 99.4766, 0.0000, 79.4486, 41.2408,-502.6877,-12.6452, 14.7646,-38.1239
15-Mar-2018 17:26:58.147, 0.0167, 0.0223,-0.9835,-0.0323, 0.0585, 0.6127, 0.0147,-0.0150,-2.3076,44.567577,-123.274492, 0.0000, 59.6350, 243.801834,Stationary,High, 99.4766, 0.0000, 79.4486, 43.0339,-503.0287,-12.5550, 14.8433,-38.1231
15-Mar-2018 17:26:58.150, 0.0167, 0.0223,-0.9835,-0.0323, 0.0585, 0.6127, 0.0147,-0.0150,-2.3076,44.567577,-123.274492, 0.0000, 59.6350, 243.801834,Stationary,High, 99.4766, 0.0000, 79.4486, 43.0339,-503.0287,-12.5550, 14.8433,-38.1231
15-Mar-2018 17:26:58.155, 0.0065, 0.0090,-0.9845,-0.0319, 0.0664, 0.6490, 0.0152,-0.0149,-2.2979,44.567577,-123.274492, 0.0000, 59.6350, 243.801834,Stationary,High, 99.4766, 0.0000, 79.4486, 43.0339,-503.0287,-12.4623, 14.9228,-38.1225
15-Mar-2018 17:26:58.164, 0.0057,-0.0035,-0.9844,-0.0311, 0.0757, 0.7141, 0.0153,-0.0147,-2.2875,44.567577,-123.274492, 0.0000, 57.9774, 243.801834,Stationary,High, 99.4766, 0.0000, 79.4486, 43.0339,-503.0287,-12.3551, 15.0045,-38.1253
15-Mar-2018 17:26:58.175, 0.0049, 0.0109,-0.9855,-0.0311, 0.0757, 0.7141, 0.0153,-0.0147,-2.2875,44.567577,-123.274492, 0.0000, 57.9774, 243.801834,Stationary,High, 99.4766, 0.0000, 79.0923, 43.3925,-501.6646,-12.3551, 15.0045,-38.1253
15-Mar-2018 17:26:58.188, 0.0013, 0.0190,-0.9899,-0.0326, 0.0665, 0.7386, 0.0155,-0.0144,-2.2765,44.567577,-123.274492, 0.0000, 57.9774, 243.801834,Stationary,High, 99.4766, 0.0000, 79.0923, 43.3925,-501.6646,-12.1469, 15.1726,-38.1257
15-Mar-2018 17:26:58.194,-0.0014, 0.0227,-0.9846,-0.0250, 0.0569, 0.5659, 0.0155,-0.0143,-2.2670,44.567577,-123.274492, 0.0000, 56.5928, 243.801834,Stationary,High, 99.4766, 0.0000, 79.0923, 43.3925,-501.6646,-12.1469, 15.1726,-38.1257
15-Mar-2018 17:26:58.204,-0.0165, 0.0223,-0.9832,-0.0250, 0.0569, 0.5659, 0.0155,-0.0143,-2.2670,44.567577,-123.274492, 0.0000, 56.5928, 243.801834,Stationary,High, 99.4766, 0.0000, 79.0923, 43.3925,-501.6646,-12.1469, 15.1726,-38.1257
15-Mar-2018 17:26:58.213,-0.0303, 0.0233,-0.9843,-0.0272, 0.0577, 0.4625, 0.0153,-0.0143,-2.2599,44.567577,-123.274492, 0.0000, 56.5928, 243.801834,Stationary,High, 99.4766, 0.0000, 79.9830, 43.5718,-500.4709,-11.8384, 15.4135,-38.1261
15-Mar-2018 17:26:58.223,-0.0145, 0.0244,-0.9848,-0.0325, 0.0563, 0.3525, 0.0154,-0.0143,-2.2541,44.567577,-123.274492, 0.0000, 55.0900, 243.801834,Stationary,High, 99.4766, 0.0000, 79.9830, 43.5718,-500.4709,-11.7068, 15.5274,-38.1205
15-Mar-2018 17:26:58.233, 0.0153, 0.0206,-0.9840,-0.0325, 0.0563, 0.3525, 0.0154,-0.0143,-2.2541,44.567577,-123.274492, 0.0000, 55.0900, 243.801834,Stationary,High, 99.4766, 0.0000, 79.9830, 43.5718,-500.4709,-11.7068, 15.5274,-38.1205
15-Mar-2018 17:26:58.243, 0.0118, 0.0187,-0.9863,-0.0325, 0.0535, 0.3013, 0.0155,-0.0143,-2.2494,44.567577,-123.274492, 0.0000, 55.0900, 243.801834,Stationary,High, 99.4766, 0.0000, 79.9830, 43.5718,-500.4709,-11.6487, 15.5727,-38.1199
15-Mar-2018 17:26:58.253, 0.0076, 0.0177,-0.9850,-0.0326, 0.0547, 0.3056, 0.0155,-0.0144,-2.2449,44.567577,-123.274492, 0.0000, 53.8882, 243.801834,Stationary,High, 99.4766, 0.0000, 80.5174, 44.1097,-501.6646,-11.5567, 15.6522,-38.1153
15-Mar-2018 17:26:58.262,-0.0030, 0.0193,-0.9840,-0.0326, 0.0547, 0.3056, 0.0155,-0.0144,-2.2449,44.567577,-123.274492, 0.0000, 53.8882, 243.801834,Stationary,High, 99.4766, 0.0000, 80.5174, 44.1097,-501.6646,-11.5567, 15.6522,-38.1153
15-Mar-2018 17:26:58.272, 0.0031, 0.0194,-0.9873,-0.0327, 0.0565, 0.3653, 0.0153,-0.0145,-2.2394,44.567577,-123.274492, 0.0000, 53.8882, 243.801834,Stationary,High, 99.4766, 0.0000, 80.5174, 44.1097,-501.6646,-11.5087, 15.6890,-38.1147
15-Mar-2018 17:26:58.282, 0.0107, 0.0163,-0.9866,-0.0316, 0.0539, 0.4133, 0.0150,-0.0147,-2.2373,44.567577,-123.274492, 0.0000, 53.8882, 243.801834,Stationary,High, 99.4766, 0.0000, 80.5174, 44.1097,-501.6646,-11.4611, 15.7361,-38.1096
15-Mar-2018 17:26:58.301,-0.0150, 0.0192,-0.9857,-0.0309, 0.0541, 0.4325, 0.0149,-0.0147,-2.2329,44.567577,-123.274492, 0.0000, 53.8882, 243.801834,Stationary,High, 99.4766, 0.0000, 78.0235, 43.3925,-502.6877,-11.4111, 15.7907,-38.1020
15-Mar-2018 17:26:58.305,-0.0150, 0.0192,-0.9857,-0.0309, 0.0541, 0.4325, 0.0149,-0.0147,-2.2329,44.567577,-123.274492, 0.0000, 53.8882, 243.801834,Stationary,High, 99.4766, 0.0000, 78.0235, 43.3925,-502.6877,-11.4111, 15.7907,-38.1020
15-Mar-2018 17:26:58.312,-0.0147, 0.0193,-0.9828,-0.0342, 0.0513, 0.5466, 0.0147,-0.0148,-2.2231,44.567577,-123.274492, 0.0000, 53.8882, 243.801834,Stationary,High, 99.4766, 0.0000, 78.0235, 43.3925,-502.6877,-11.3470, 15.8440,-38.0990
15-Mar-2018 17:26:58.323,-0.0035, 0.0216,-0.9866,-0.0362, 0.0477, 0.5934, 0.0139,-0.0149,-2.2172,44.567577,-123.274492, 0.0000, 53.8882, 243.801834,Stationary,High, 99.4766, 0.0000, 78.0235, 43.3925,-502.6877,-11.2065, 15.9620,-38.0914
15-Mar-2018 17:26:58.340,-0.0060, 0.0417,-0.9811,-0.0352, 0.0477, 0.5977, 0.0136,-0.0150,-2.2082,44.567577,-123.274492, 0.0000, 53.8882, 243.801834,Stationary,High, 99.4766, 0.0000, 78.0235, 43.3925,-502.6877,-11.1438, 16.0357,-38.0788
15-Mar-2018 17:26:58.344, 0.0012, 0.0157,-0.9831,-0.0304, 0.0624, 0.4112, 0.0134,-0.0154,-2.2009,44.567577,-123.274492, 0.0000, 53.8882, 243.801834,Stationary,High, 99.4766, 0.0000, 81.9425, 44.8270,-501.3235,-11.0626, 16.1111,-38.0706
15-Mar-2018 17:26:58.351, 0.0106, 0.0101,-0.9834,-0.0304, 0.0624, 0.4112, 0.0134,-0.0154,-2.2009,44.567577,-123.274492, 0.0000, 52.1148, 243.801834,Stationary,High, 99.4766, 0.0000, 81.9425, 44.8270,-501.3235,-11.0626, 16.1111,-38.0706
15-Mar-2018 17:26:58.360, 0.0160, 0.0160,-0.9855,-0.0304, 0.0624, 0.4112, 0.0134,-0.0154,-2.2009,44.567577,-123.274492, 0.0000, 52.1148, 243.801834,Stationary,High, 99.4766, 0.0000, 81.9425, 44.8270,-501.3235,-11.0626, 16.1111,-38.0706
15-Mar-2018 17:26:58.371, 0.0316, 0.0076,-0.9850,-0.0277, 0.0669, 0.4337, 0.0134,-0.0154,-2.1928,44.567577,-123.274492, 0.0000, 52.1148, 243.801834,Stationary,High, 99.4766, 0.0000, 81.9425, 44.8270,-501.3235,-10.9107, 16.2447,-38.0577
15-Mar-2018 17:26:58.380, 0.0345, 0.0033,-0.9850,-0.0289, 0.0567, 0.5488, 0.0141,-0.0151,-2.1875,44.567577,-123.274492, 0.0000, 52.1148, 243.801834,Stationary,High, 99.4766, 0.0000, 80.1611, 44.4683,-501.3235,-10.7814, 16.3360,-38.0555
15-Mar-2018 17:26:58.390, 0.0486,-0.0202,-0.9809,-0.0289, 0.0567, 0.5488, 0.0141,-0.0151,-2.1875,44.567577,-123.274492, 0.0000, 52.1148, 243.801834,Stationary,High, 99.4766, 0.0000, 80.1611, 44.4683,-501.3235,-10.7814, 16.3360,-38.0555
15-Mar-2018 17:26:58.400, 0.0454,-0.0131,-0.9869,-0.0373, 0.0521, 0.8675, 0.0153,-0.0142,-2.1725,44.567577,-123.274492, 0.0000, 52.1148, 243.801834,Stationary,High, 99.4766, 0.0000, 80.1611, 44.4683,-501.3235,-10.6744, 16.3844,-38.0648
15-Mar-2018 17:26:58.410, 0.0211, 0.0045,-0.9843,-0.0372, 0.0643, 1.0765, 0.0157,-0.0140,-2.1622,44.567577,-123.274492, 0.0000, 50.6630, 243.801834,Stationary,High, 99.4766, 0.0000, 80.1611, 44.4683,-501.3235,-10.3871, 16.5165,-38.0872
15-Mar-2018 17:26:58.428,-0.0056, 0.0248,-0.9804,-0.0369, 0.0577, 1.2237, 0.0161,-0.0138,-2.1440,44.567577,-123.274492, 0.0000, 50.6630, 243.801834,Stationary,High, 99.4766,-0.0026, 81.7644, 46.0821,-501.4941,-10.2066, 16.6204,-38.0908
15-Mar-2018 17:26:58.433,-0.0199, 0.0184,-0.9862,-0.0378, 0.0695, 1.3239, 0.0165,-0.0136,-2.1244,44.567577,-123.274492, 0.0000, 50.6630, 243.801834,Stationary,High, 99.4766,-0.0026, 81.7644, 46.0821,-501.4941,-10.0061, 16.7452,-38.0894
15-Mar-2018 17:26:58.438,-0.0313, 0.0117,-0.9848,-0.0378, 0.0695, 1.3239, 0.0165,-0.0136,-2.1244,44.567577,-123.274492, 0.0000, 48.5164, 243.801834,Stationary,High, 99.4766,-0.0026, 81.7644, 46.0821,-501.4941,-10.0061, 16.7452,-38.0894
15-Mar-2018 17:26:58.448,-0.0505, 0.0179,-0.9863,-0.0378, 0.0695, 1.3239, 0.0165,-0.0136,-2.1244,44.567577,-123.274492, 0.0000, 48.5164, 243.801834,Stationary,High, 99.4766,-0.0026, 81.7644, 46.0821,-501.4941,-10.0061, 16.7452,-38.0894
15-Mar-2018 17:26:58.460,-0.0219, 0.0198,-0.9852,-0.0346, 0.0674, 1.3229, 0.0168,-0.0134,-2.1047,44.567577,-123.274492, 0.0000, 48.5164, 243.801834,Stationary,High, 99.4766,-0.0026, 81.0518, 45.3649,-501.8351,-9.5612, 17.0033,-38.0893
15-Mar-2018 17:26:58.469,-0.0150, 0.0103,-0.9820,-0.0338, 0.0494, 1.0670, 0.0171,-0.0132,-2.0875,44.567577,-123.274492, 0.0000, 48.5164, 243.801834,Stationary,High, 99.4766,-0.0026, 81.0518, 45.3649,-501.8351,-9.3316, 17.1314,-38.0889
15-Mar-2018 17:26:58.478, 0.0396, 0.0201,-0.9849,-0.0338, 0.0494, 1.0670, 0.0171,-0.0132,-2.0875,44.567577,-123.274492, 0.0000, 48.5164, 243.801834,Stationary,High, 99.4766,-0.0026, 81.0518, 45.3649,-501.8351,-9.3316, 17.1314,-38.0889
15-Mar-2018 17:26:58.490, 0.0653, 0.0194,-0.9836,-0.0299, 0.0575, 0.8687, 0.0172,-0.0131,-2.0743,44.567577,-123.274492, 0.0000, 48.5164, 243.801834,Stationary,High, 99.4766,-0.0026, 81.0518, 45.3649,-501.8351,-8.9260, 17.3528,-38.0859
15-Mar-2018 17:26:58.497, 0.0731, 0.0109,-0.9831,-0.0306, 0.0567, 0.6341, 0.0174,-0.0129,-2.0643,44.567577,-123.274492, 0.0000, 45.6589, 243.801834,Stationary,High, 99.4766,-0.0026, 83.1895, 46.0821,-502.1761,-8.9260, 17.3528,-38.0859
15-Mar-2018 17:26:58.507, 0.0439,-0.0009,-0.9834,-0.0306, 0.0567, 0.6341, 0.0174,-0.0129,-2.0643,44.567577,-123.274492, 0.0000, 45.6589, 243.801834,Stationary,High, 99.4766,-0.0026, 83.1895, 46.0821,-502.1761,-8.9260, 17.3528,-38.0859
15-Mar-2018 17:26:58.519, 0.0357,-0.0016,-0.9826,-0.0323, 0.0560, 0.6650, 0.0175,-0.0128,-2.0542,44.567577,-123.274492, 0.0000, 45.6589, 243.801834,Stationary,High, 99.4766,-0.0026, 83.1895, 46.0821,-502.1761,-8.5199, 17.5598,-38.0840
15-Mar-2018 17:26:58.527, 0.0249, 0.0050,-0.9850,-0.0338, 0.0555, 0.7983, 0.0176,-0.0127,-2.0427,44.567577,-123.274492, 0.0000, 44.1076, 243.801834,Stationary,High, 99.4766,-0.0026, 83.1895, 46.0821,-502.1761,-8.5199, 17.5598,-38.0840
15-Mar-2018 17:26:58.536, 0.0271, 0.0005,-0.9827,-0.0338, 0.0555, 0.7983, 0.0176,-0.0127,-2.0427,44.567577,-123.274492, 0.0000, 44.1076, 243.801834,Stationary,High, 99.4766,-0.0026, 84.4364, 46.9786,-502.6877,-8.5199, 17.5598,-38.0840
15-Mar-2018 17:26:58.548, 0.0259,-0.0054,-0.9842,-0.0368, 0.0497, 0.8398, 0.0177,-0.0127,-2.0301,44.567577,-123.274492, 0.0000, 44.1076, 243.801834,Stationary,High, 99.4766,-0.0026, 84.4364, 46.9786,-502.6877,-8.1387, 17.7462,-38.0809
15-Mar-2018 17:26:58.556, 0.0256,-0.0010,-0.9872,-0.0371, 0.0499, 0.8547, 0.0178,-0.0126,-2.0172,44.567577,-123.274492, 0.0000, 42.0516, 243.801834,Stationary,High, 99.4766,-0.0026, 84.4364, 46.9786,-502.6877,-8.1387, 17.7462,-38.0809
15-Mar-2018 17:26:58.565, 0.0404,-0.0087,-0.9824,-0.0371, 0.0499, 0.8547, 0.0178,-0.0126,-2.0172,44.567577,-123.274492, 0.0000, 42.0516, 243.801834,Stationary,High, 99.4766,-0.0026, 84.4364, 46.9786,-502.6877,-8.1387, 17.7462,-38.0809
15-Mar-2018 17:26:58.576, 0.0219, 0.0078,-0.9789,-0.0386, 0.0506, 0.8259, 0.0179,-0.0125,-2.0047,44.567577,-123.274492, 0.0000, 42.0516, 243.801834,Stationary,High, 99.4766,-0.0026, 84.4364, 46.9786,-502.6877,-7.6910, 17.9595,-38.0740
15-Mar-2018 17:26:58.585, 0.0107, 0.0204,-0.9879,-0.0237, 0.0913, 0.7718, 0.0182,-0.0124,-1.9925,44.567577,-123.274492, 0.0000, 40.1009, 243.801834,Stationary,High, 99.4766,-0.0026, 84.2583, 46.7993,-502.5172,-7.5431, 18.0274,-38.0715
15-Mar-2018 17:26:58.595, 0.0167, 0.0213,-0.9860,-0.0237, 0.0913, 0.7718, 0.0182,-0.0124,-1.9925,44.567577,-123.274492, 0.0000, 40.1009, 243.801834,Stationary,High, 99.4766,-0.0026, 84.2583, 46.7993,-502.5172,-7.5431, 18.0274,-38.0715
15-Mar-2018 17:26:58.608, 0.0240, 0.0155,-0.9874,-0.0342, 0.0587, 0.7108, 0.0185,-0.0122,-1.9818,44.567577,-123.274492, 0.0000, 40.1009, 243.801834,Stationary,High, 99.4766,-0.0026, 84.2583, 46.7993,-502.5172,-7.2417, 18.1524,-38.0706
15-Mar-2018 17:26:58.614, 0.0225, 0.0157,-0.9816,-0.0371, 0.0440, 0.6382, 0.0185,-0.0122,-1.9721,44.567577,-123.274492, 0.0000, 38.5609, 243.801834,Stationary,High, 99.4766,-0.0026, 83.9020, 46.7993,-501.4941,-7.2417, 18.1524,-38.0706
15-Mar-2018 17:26:58.632, 0.0322, 0.0054,-0.9845,-0.0360, 0.0535, 0.6372, 0.0187,-0.0122,-1.9624,44.567577,-123.274492, 0.0000, 38.5609, 243.801834,Stationary,High, 99.4766,-0.0026, 83.9020, 46.7993,-501.4941,-6.8659, 18.3042,-38.0676
15-Mar-2018 17:26:58.642, 0.0381,-0.0037,-0.9905,-0.0271, 0.0816, 0.6726, 0.0189,-0.0121,-1.9590,44.567577,-123.274492, 0.0000, 38.5609, 243.801834,Stationary,High, 99.4766,-0.0026, 83.9020, 46.7993,-501.4941,-6.7461, 18.3531,-38.0655
15-Mar-2018 17:26:58.656, 0.0363, 0.0084,-0.9857,-0.0208, 0.0749, 0.7313, 0.0193,-0.0119,-1.9479,44.567577,-123.274492, 0.0000, 38.5609, 243.801834,Stationary,High, 99.4766,-0.0026, 83.9020, 46.7993,-501.4941,-6.6179, 18.3986,-38.0660
15-Mar-2018 17:26:58.660, 0.0363, 0.0084,-0.9857,-0.0208, 0.0749, 0.7313, 0.0193,-0.0119,-1.9479,44.567577,-123.274492, 0.0000, 38.5609, 243.801834,Stationary,High, 99.4766,-0.0026, 83.9020, 46.7993,-501.4941,-6.6179, 18.3986,-38.0660
15-Mar-2018 17:26:58.663, 0.0296, 0.0176,-0.9887,-0.0350, 0.0513, 0.8025, 0.0196,-0.0117,-1.9395,44.567577,-123.274492, 0.0000, 38.5609, 243.801834,Stationary,High, 99.4766,-0.0026, 85.3271, 48.2338,-503.1993,-6.4765, 18.4444,-38.0681
15-Mar-2018 17:26:58.675, 0.0185, 0.0226,-0.9822,-0.0321, 0.0656, 0.9252, 0.0197,-0.0117,-1.9349,44.567577,-123.274492, 0.0000, 38.5609, 243.801834,Stationary,High, 99.4766,-0.0026, 85.3271, 48.2338,-503.1993,-6.3202, 18.4956,-38.0696
15-Mar-2018 17:26:58.685, 0.0137, 0.0205,-0.9915,-0.0369, 0.0581, 1.0072, 0.0200,-0.0116,-1.9197,44.567577,-123.274492, 0.0000, 36.1699, 243.801834,Stationary,High, 99.4766,-0.0026, 85.3271, 48.2338,-503.1993,-6.1505, 18.5547,-38.0686
15-Mar-2018 17:26:58.693,-0.0114, 0.0206,-0.9870,-0.0339, 0.0604, 1.0201, 0.0201,-0.0114,-1.9096,44.567577,-123.274492, 0.0000, 36.1699, 243.801834,Stationary,High, 99.4766,-0.0026, 85.3271, 48.2338,-503.1993,-5.9631, 18.6188,-38.0671
15-Mar-2018 17:26:58.703,-0.0103, 0.0217,-0.9855,-0.0337, 0.0596, 0.9529, 0.0201,-0.0114,-1.9048,44.567577,-123.274492, 0.0000, 36.1699, 243.801834,Stationary,High, 99.4766,-0.0026, 86.2178, 46.9786,-500.9825,-5.7712, 18.6831,-38.0652
15-Mar-2018 17:26:58.714,-0.0092, 0.0182,-0.9867,-0.0320, 0.0649, 0.8687, 0.0202,-0.0113,-1.8959,44.567577,-123.274492, 0.0000, 34.8232, 243.801834,Stationary,High, 99.4766,-0.0026, 86.2178, 46.9786,-500.9825,-5.5885, 18.7418,-38.0636
15-Mar-2018 17:26:58.723,-0.0013, 0.0162,-0.9810,-0.0337, 0.0565, 0.7919, 0.0203,-0.0112,-1.8839,44.567577,-123.274492, 0.0000, 34.8232, 243.801834,Stationary,High, 99.4766,-0.0026, 86.2178, 46.9786,-500.9825,-5.4213, 18.7936,-38.0622
15-Mar-2018 17:26:58.732, 0.0163, 0.0076,-0.9867,-0.0336, 0.0504, 0.7311, 0.0202,-0.0111,-1.8802,44.567577,-123.274492, 0.0000, 34.8232, 243.801834,Stationary,High, 99.4766,-0.0026, 86.2178, 46.9786,-500.9825,-5.2700, 18.8403,-38.0604
15-Mar-2018 17:26:58.744, 0.0115, 0.0095,-0.9894,-0.0405, 0.0374, 0.7053, 0.0201,-0.0111,-1.8731,44.567577,-123.274492, 0.0000, 32.8029, 243.801834,Stationary,High, 99.4766,-0.0026, 88.5335, 48.9510,-503.1993,-5.1325, 18.8830,-38.0580
15-Mar-2018 17:26:58.757, 0.0137, 0.0090,-0.9753,-0.0444, 0.0219, 0.7415, 0.0197,-0.0111,-1.8619,44.567577,-123.274492, 0.0000, 32.8029, 243.801834,Stationary,High, 99.4766,-0.0026, 88.5335, 48.9510,-503.1993,-5.0043, 18.9220,-38.0558
15-Mar-2018 17:26:58.761, 0.0105, 0.0104,-0.9863,-0.0335, 0.0581, 0.8335, 0.0197,-0.0109,-1.8497,44.567577,-123.274492, 0.0000, 32.8029, 243.801834,Stationary,High, 99.4766,-0.0026, 88.5335, 48.9510,-503.1993,-4.8807, 18.9640,-38.0509
15-Mar-2018 17:26:58.773, 0.0048, 0.0152,-0.9863,-0.0335, 0.0581, 0.8335, 0.0197,-0.0109,-1.8497,44.567577,-123.274492, 0.0000, 29.9833, 243.801834,Stationary,High, 99.4766,-0.0026, 88.5335, 48.9510,-503.1993,-4.8807, 18.9640,-38.0509
15-Mar-2018 17:26:58.781,-0.0074, 0.0213,-0.9870,-0.0330, 0.0602, 0.9177, 0.0200,-0.0107,-1.8360,44.567577,-123.274492, 0.0000, 29.9833, 243.801834,Stationary,High, 99.4766,-0.0026, 87.4647, 50.0269,-502.1761,-4.5866, 19.0461,-38.0465
15-Mar-2018 17:26:58.791,-0.0082, 0.0131,-0.9832,-0.0300, 0.0663, 0.9818, 0.0203,-0.0105,-1.8213,44.567577,-123.274492, 0.0000, 29.9833, 243.801834,Stationary,High, 99.4766,-0.0026, 87.4647, 50.0269,-502.1761,-4.4148, 19.0882,-38.0457
15-Mar-2018 17:26:58.801,-0.0107, 0.0175,-0.9811,-0.0300, 0.0663, 0.9818, 0.0203,-0.0105,-1.8213,44.567577,-123.274492, 0.0000, 28.1731, 243.801834,Stationary,High, 99.4766,-0.0026, 87.4647, 50.0269,-502.1761,-4.4148, 19.0882,-38.0457
15-Mar-2018 17:26:58.812,-0.0051, 0.0146,-0.9870,-0.0357, 0.0559, 0.9998, 0.0206,-0.0102,-1.8063,44.567577,-123.274492, 0.0000, 28.1731, 243.801834,Stationary,High, 99.4766,-0.0026, 87.4647, 50.0269,-502.1761,-4.0320, 19.1732,-38.0454
15-Mar-2018 17:26:58.822,-0.0173, 0.0214,-0.9834,-0.0239, 0.0775, 0.9446, 0.0211,-0.0099,-1.7917,44.567577,-123.274492, 0.0000, 28.1731, 243.801834,Stationary,High, 99.4766,-0.0026, 88.7117, 47.6959,-502.0056,-3.8404, 19.2156,-38.0439
15-Mar-2018 17:26:58.830,-0.0179, 0.0232,-0.9958,-0.0239, 0.0775, 0.9446, 0.0211,-0.0099,-1.7917,44.567577,-123.274492, 0.0000, 26.7877, 243.801834,Stationary,High, 99.4766,-0.0026, 88.7117, 47.6959,-502.0056,-3.8404, 19.2156,-38.0439
15-Mar-2018 17:26:58.842,-0.0159, 0.0240,-0.9779,-0.0291, 0.0736, 0.8837, 0.0215,-0.0096,-1.7784,44.567577,-123.274492, 0.0000, 26.7877, 243.801834,Stationary,High, 99.4766,-0.0026, 88.7117, 47.6959,-502.0056,-3.4433, 19.2854,-38.0466
15-Mar-2018 17:26:58.850,-0.0111, 0.0150,-0.9865,-0.0249, 0.0783, 0.8336, 0.0216,-0.0096,-1.7742,44.567577,-123.274492, 0.0000, 26.7877, 243.801834,Stationary,High, 99.4766,-0.0026, 88.7117, 47.6959,-502.0056,-3.2595, 19.3154,-38.0475
15-Mar-2018 17:26:58.863, 0.0047, 0.0160,-0.9881,-0.0378, 0.0412, 0.8387, 0.0215,-0.0095,-1.7658,44.567577,-123.274492, 0.0000, 25.4021, 243.801834,Stationary,High, 99.4766,-0.0026, 90.1368, 48.7717,-502.0056,-3.0934, 19.3442,-38.0468
